{"type":"FeatureCollection","features":[{"type":"Feature","geometry":{"type":"Point","coordinates":[-3.375685,54.772306]},"properties":{"siteId":"65211","name":"AIGLEGILL BECK","catchment":"SOLWAY FIRTH COASTAL STREAMS","area":"NORTH WEST - NORTH","totalSamples":8,"firstSample":"16/05/1995","lastSample":"01/09/2004","latestBmwp":73,"indicesAvailable":8}},{"type":"Feature","geometry":{"type":"Point","coordinates":[-3.399096,54.268491]},"properties":{"siteId":"64705","name":"ANNAS","catchment":"ANNAS","area":"NORTH WEST - NORTH","totalSamples":26,"firstSample":"03/03/1995","lastSample":"27/10/2017","latestBmwp":155,"indicesAvailable":8}},{"type":"Feature","geometry":{"type":"Point","coordinates":[-3.371671,54.278217]},"properties":{"siteId":"64918","name":"ANNAS","catchment":"ANNAS","area":"NORTH WEST - NORTH","totalSamples":24,"firstSample":"06/05/1994","lastSample":"27/10/2017","latestBmwp":128,"indicesAvailable":8}},{"type":"Feature","geometry":{"type":"Point","coordinates":[-3.017148,54.297718]},"properties":{"siteId":"67560","name":"ASHES BECK","catchment":"CRAKE","area":"NORTH WEST - NORTH","totalSamples":2,"firstSample":"30/11/1998","lastSample":"09/04/1999","latestBmwp":155,"indicesAvailable":8}},{"type":"Feature","geometry":{"type":"Point","coordinates":[-3.016899,54.297621]},"properties":{"siteId":"160768","name":"ASHES BECK","catchment":"CRAKE","area":"NORTH WEST - NORTH","totalSamples":2,"firstSample":"12/04/2013","lastSample":"24/10/2013","latestBmwp":147,"indicesAvailable":8}},{"type":"Feature","geometry":{"type":"Point","coordinates":[-3.163853,54.866192]},"properties":{"siteId":"65244","name":"BAMPTON BECK","catchment":"WAMPOOL","area":"NORTH WEST - NORTH","totalSamples":10,"firstSample":"20/03/1995","lastSample":"04/05/2006","latestBmwp":31,"indicesAvailable":8}},{"type":"Feature","geometry":{"type":"Point","coordinates":[-3.131619,54.883572]},"properties":{"siteId":"65251","name":"BAMPTON BECK","catchment":"WAMPOOL","area":"NORTH WEST - NORTH","totalSamples":10,"firstSample":"20/03/1995","lastSample":"09/09/2004","latestBmwp":36,"indicesAvailable":8}},{"type":"Feature","geometry":{"type":"Point","coordinates":[-3.447657,54.531526]},"properties":{"siteId":"215232","name":"BANLY GILL","catchment":"EHEN","area":"NORTH WEST - NORTH","totalSamples":3,"firstSample":"30/05/2023","lastSample":"27/03/2024","latestBmwp":168,"indicesAvailable":8}},{"type":"Feature","geometry":{"type":"Point","coordinates":[-3.008102,54.656175]},"properties":{"siteId":"132221","name":"BANNERDALE BECK","catchment":"DERWENT (CUMBRIA)","area":"NORTH WEST - NORTH","totalSamples":1,"firstSample":"05/07/2005","lastSample":"05/07/2005","latestBmwp":96,"indicesAvailable":8}},{"type":"Feature","geometry":{"type":"Point","coordinates":[-3.119785,54.204027]},"properties":{"siteId":"218171","name":"BARN BECK","catchment":"LEVY (DRAGLEY) BECK","area":"NORTH WEST - NORTH","totalSamples":2,"firstSample":"22/04/2024","lastSample":"04/09/2024","latestBmwp":118,"indicesAvailable":8}},{"type":"Feature","geometry":{"type":"Point","coordinates":[-3.133738,54.5699]},"properties":{"siteId":"67481","name":"BARROW BECK (DERWENT - CUMBRIA)","catchment":"DERWENT (CUMBRIA)","area":"NORTH WEST - NORTH","totalSamples":12,"firstSample":"06/03/1995","lastSample":"27/09/2004","latestBmwp":156,"indicesAvailable":8}},{"type":"Feature","geometry":{"type":"Point","coordinates":[-3.250058,54.245726]},"properties":{"siteId":"67993","name":"BLACK BECK (DUDDON)","catchment":"DUDDON","area":"NORTH WEST - NORTH","totalSamples":27,"firstSample":"05/04/1995","lastSample":"22/10/2018","latestBmwp":104,"indicesAvailable":8}},{"type":"Feature","geometry":{"type":"Point","coordinates":[-3.255995,54.269402]},"properties":{"siteId":"69658","name":"BLACK BECK (DUDDON)","catchment":"DUDDON","area":"NORTH WEST - NORTH","totalSamples":4,"firstSample":"14/05/1998","lastSample":"19/10/1999","latestBmwp":130,"indicesAvailable":8}},{"type":"Feature","geometry":{"type":"Point","coordinates":[-3.256078,54.27163]},"properties":{"siteId":"203036","name":"BLACK BECK (DUDDON)","catchment":"DUDDON","area":"NORTH WEST - NORTH","totalSamples":2,"firstSample":"09/03/2021","lastSample":"24/09/2021","latestBmwp":118,"indicesAvailable":8}},{"type":"Feature","geometry":{"type":"Point","coordinates":[-3.513624,54.446088]},"properties":{"siteId":"67617","name":"BLACK BECK (EHEN)","catchment":"EHEN","area":"NORTH WEST - NORTH","totalSamples":11,"firstSample":"21/03/1995","lastSample":"14/10/2004","latestBmwp":127,"indicesAvailable":8}},{"type":"Feature","geometry":{"type":"Point","coordinates":[-3.521269,54.478798]},"properties":{"siteId":"145580","name":"BLACK BECK (EHEN)","catchment":"EHEN","area":"NORTH WEST - NORTH","totalSamples":1,"firstSample":"21/05/2007","lastSample":"21/05/2007","latestBmwp":152,"indicesAvailable":8}},{"type":"Feature","geometry":{"type":"Point","coordinates":[-3.521269,54.478798]},"properties":{"siteId":"145612","name":"BLACK BECK (EHEN)","catchment":"EHEN","area":"NORTH WEST - NORTH","totalSamples":1,"firstSample":"21/05/2007","lastSample":"21/05/2007","latestBmwp":144,"indicesAvailable":8}},{"type":"Feature","geometry":{"type":"Point","coordinates":[-3.434493,54.790705]},"properties":{"siteId":"65205","name":"BLACK DUB BECK","catchment":"SOLWAY FIRTH COASTAL STREAMS","area":"NORTH WEST - NORTH","totalSamples":16,"firstSample":"16/05/1995","lastSample":"20/11/2014","latestBmwp":79,"indicesAvailable":8}},{"type":"Feature","geometry":{"type":"Point","coordinates":[-3.54301,54.552789]},"properties":{"siteId":"65182","name":"BLACK WOOD BECK","catchment":"EHEN","area":"NORTH WEST - NORTH","totalSamples":4,"firstSample":"21/03/1995","lastSample":"18/09/1995","latestBmwp":98,"indicesAvailable":8}},{"type":"Feature","geometry":{"type":"Point","coordinates":[-3.109913,54.090178]},"properties":{"siteId":"66743","name":"BLAKEWATER","catchment":"DARWEN","area":"NORTH WEST - NORTH","totalSamples":2,"firstSample":"13/05/1997","lastSample":"13/10/1997","latestBmwp":16,"indicesAvailable":8}},{"type":"Feature","geometry":{"type":"Point","coordinates":[-3.109913,54.090178]},"properties":{"siteId":"69657","name":"BLAKEWATER","catchment":"DARWEN","area":"NORTH WEST - NORTH","totalSamples":2,"firstSample":"13/05/1997","lastSample":"13/10/1997","latestBmwp":11,"indicesAvailable":8}},{"type":"Feature","geometry":{"type":"Point","coordinates":[-3.210446,54.194306]},"properties":{"siteId":"65830","name":"BLEA BECK (FURNESS STREAMS)","catchment":"FURNESS STREAMS","area":"NORTH WEST - NORTH","totalSamples":13,"firstSample":"13/03/1995","lastSample":"21/11/2005","latestBmwp":96,"indicesAvailable":8}},{"type":"Feature","geometry":{"type":"Point","coordinates":[-3.204488,54.188137]},"properties":{"siteId":"68733","name":"BLEA BECK (FURNESS STREAMS)","catchment":"FURNESS STREAMS","area":"NORTH WEST - NORTH","totalSamples":6,"firstSample":"02/06/1998","lastSample":"19/10/2000","latestBmwp":92,"indicesAvailable":8}},{"type":"Feature","geometry":{"type":"Point","coordinates":[-3.207683,54.192599]},"properties":{"siteId":"86522","name":"BLEA BECK (FURNESS STREAMS)","catchment":"FURNESS STREAMS","area":"NORTH WEST - NORTH","totalSamples":1,"firstSample":"11/01/2002","lastSample":"11/01/2002","latestBmwp":24,"indicesAvailable":8}},{"type":"Feature","geometry":{"type":"Point","coordinates":[-3.206125,54.191716]},"properties":{"siteId":"86523","name":"BLEA BECK (FURNESS STREAMS)","catchment":"FURNESS STREAMS","area":"NORTH WEST - NORTH","totalSamples":1,"firstSample":"11/01/2002","lastSample":"11/01/2002","latestBmwp":76,"indicesAvailable":8}},{"type":"Feature","geometry":{"type":"Point","coordinates":[-3.20623,54.192174]},"properties":{"siteId":"208891","name":"BLEA BECK (FURNESS STREAMS)","catchment":"FURNESS STREAMS","area":"NORTH WEST - NORTH","totalSamples":2,"firstSample":"29/03/2022","lastSample":"21/10/2022","latestBmwp":102,"indicesAvailable":8}},{"type":"Feature","geometry":{"type":"Point","coordinates":[-3.186229,54.179879]},"properties":{"siteId":"218072","name":"BLEA BECK (FURNESS STREAMS)","catchment":"FURNESS STREAMS","area":"NORTH WEST - NORTH","totalSamples":2,"firstSample":"22/03/2024","lastSample":"23/09/2024","latestBmwp":134,"indicesAvailable":8}},{"type":"Feature","geometry":{"type":"Point","coordinates":[-3.101417,54.520247]},"properties":{"siteId":"202751","name":"BLEATARN GILL","catchment":"DERWENT (CUMBRIA)","area":"NORTH WEST - NORTH","totalSamples":2,"firstSample":"18/03/2021","lastSample":"16/09/2021","latestBmwp":74,"indicesAvailable":8}},{"type":"Feature","geometry":{"type":"Point","coordinates":[-3.410697,54.437564]},"properties":{"siteId":"63902","name":"BLENG","catchment":"BLENG","area":"NORTH WEST - NORTH","totalSamples":1,"firstSample":"23/03/1999","lastSample":"23/03/1999","latestBmwp":71,"indicesAvailable":8}},{"type":"Feature","geometry":{"type":"Point","coordinates":[-3.406906,54.416936]},"properties":{"siteId":"64194","name":"BLENG","catchment":"BLENG","area":"NORTH WEST - NORTH","totalSamples":1,"firstSample":"23/03/1999","lastSample":"23/03/1999","latestBmwp":114,"indicesAvailable":8}},{"type":"Feature","geometry":{"type":"Point","coordinates":[-3.419447,54.423081]},"properties":{"siteId":"64279","name":"BLENG","catchment":"BLENG","area":"NORTH WEST - NORTH","totalSamples":1,"firstSample":"23/03/1999","lastSample":"23/03/1999","latestBmwp":104,"indicesAvailable":8}},{"type":"Feature","geometry":{"type":"Point","coordinates":[-3.411204,54.41418]},"properties":{"siteId":"64609","name":"BLENG","catchment":"BLENG","area":"NORTH WEST - NORTH","totalSamples":22,"firstSample":"14/03/1995","lastSample":"12/09/2025","latestBmwp":37,"indicesAvailable":8}},{"type":"Feature","geometry":{"type":"Point","coordinates":[-3.406381,54.446602]},"properties":{"siteId":"66557","name":"BLENG","catchment":"BLENG","area":"NORTH WEST - NORTH","totalSamples":1,"firstSample":"23/03/1999","lastSample":"23/03/1999","latestBmwp":74,"indicesAvailable":8}},{"type":"Feature","geometry":{"type":"Point","coordinates":[-3.378994,54.457703]},"properties":{"siteId":"68804","name":"BLENG","catchment":"BLENG","area":"NORTH WEST - NORTH","totalSamples":1,"firstSample":"23/03/1999","lastSample":"23/03/1999","latestBmwp":63,"indicesAvailable":8}},{"type":"Feature","geometry":{"type":"Point","coordinates":[-3.412617,54.413598]},"properties":{"siteId":"216493","name":"BLENG","catchment":"BLENG","area":"NORTH WEST - NORTH","totalSamples":2,"firstSample":"12/03/2024","lastSample":"26/09/2024","latestBmwp":101,"indicesAvailable":8}},{"type":"Feature","geometry":{"type":"Point","coordinates":[-3.310334,54.692054]},"properties":{"siteId":"67903","name":"BLUMER BECK","catchment":"DERWENT (CUMBRIA)","area":"NORTH WEST - NORTH","totalSamples":23,"firstSample":"10/03/1995","lastSample":"31/10/2018","latestBmwp":109,"indicesAvailable":8}},{"type":"Feature","geometry":{"type":"Point","coordinates":[-3.107735,54.723104]},"properties":{"siteId":"67401","name":"BOG GILL","catchment":"CALDEW","area":"NORTH WEST - NORTH","totalSamples":1,"firstSample":"19/04/1999","lastSample":"19/04/1999","latestBmwp":120,"indicesAvailable":8}},{"type":"Feature","geometry":{"type":"Point","coordinates":[-3.269146,54.738903]},"properties":{"siteId":"202898","name":"BOTHEL BECK","catchment":"ELLEN","area":"NORTH WEST - NORTH","totalSamples":9,"firstSample":"04/05/2021","lastSample":"20/10/2025","latestBmwp":99,"indicesAvailable":8}},{"type":"Feature","geometry":{"type":"Point","coordinates":[-3.07409,54.360138]},"properties":{"siteId":"67457","name":"BOWMANSTEAD BECK","catchment":"CRAKE","area":"NORTH WEST - NORTH","totalSamples":3,"firstSample":"31/03/1998","lastSample":"07/01/2000","latestBmwp":95,"indicesAvailable":8}},{"type":"Feature","geometry":{"type":"Point","coordinates":[-3.092842,54.72935]},"properties":{"siteId":"64677","name":"BRANTHWAITE BECK","catchment":"CALDEW","area":"NORTH WEST - NORTH","totalSamples":1,"firstSample":"19/04/1999","lastSample":"19/04/1999","latestBmwp":106,"indicesAvailable":8}},{"type":"Feature","geometry":{"type":"Point","coordinates":[-3.093405,54.732949]},"properties":{"siteId":"207491","name":"BRANTHWAITE BECK","catchment":"CALDEW","area":"NORTH WEST - NORTH","totalSamples":2,"firstSample":"31/03/2022","lastSample":"13/09/2022","latestBmwp":102,"indicesAvailable":8}},{"type":"Feature","geometry":{"type":"Point","coordinates":[-3.030935,54.418933]},"properties":{"siteId":"63990","name":"BRATHAY","catchment":"LEVEN (NW - NORTH)","area":"NORTH WEST - NORTH","totalSamples":4,"firstSample":"17/12/1997","lastSample":"24/11/1999","latestBmwp":88,"indicesAvailable":8}},{"type":"Feature","geometry":{"type":"Point","coordinates":[-3.015594,54.42176]},"properties":{"siteId":"64703","name":"BRATHAY","catchment":"LEVEN (NW - NORTH)","area":"NORTH WEST - NORTH","totalSamples":8,"firstSample":"28/05/1999","lastSample":"30/07/2002","latestBmwp":101,"indicesAvailable":8}},{"type":"Feature","geometry":{"type":"Point","coordinates":[-3.021802,54.423505]},"properties":{"siteId":"64806","name":"BRATHAY","catchment":"LEVEN (NW - NORTH)","area":"NORTH WEST - NORTH","totalSamples":8,"firstSample":"28/05/1999","lastSample":"30/07/2002","latestBmwp":111,"indicesAvailable":8}},{"type":"Feature","geometry":{"type":"Point","coordinates":[-3.02341,54.426187]},"properties":{"siteId":"69277","name":"BRATHAY","catchment":"LEVEN (NW - NORTH)","area":"NORTH WEST - NORTH","totalSamples":8,"firstSample":"28/05/1999","lastSample":"30/07/2002","latestBmwp":124,"indicesAvailable":8}},{"type":"Feature","geometry":{"type":"Point","coordinates":[-3.369846,54.691485]},"properties":{"siteId":"65213","name":"BRIDES BECK","catchment":"DERWENT (CUMBRIA)","area":"NORTH WEST - NORTH","totalSamples":10,"firstSample":"23/03/1995","lastSample":"01/10/2004","latestBmwp":96,"indicesAvailable":8}},{"type":"Feature","geometry":{"type":"Point","coordinates":[-3.406663,54.67938]},"properties":{"siteId":"67413","name":"BRIDES BECK","catchment":"DERWENT (CUMBRIA)","area":"NORTH WEST - NORTH","totalSamples":12,"firstSample":"20/03/1995","lastSample":"03/09/2004","latestBmwp":93,"indicesAvailable":8}},{"type":"Feature","geometry":{"type":"Point","coordinates":[-3.129671,54.590609]},"properties":{"siteId":"67482","name":"BROCKLE BECK","catchment":"DERWENT (CUMBRIA)","area":"NORTH WEST - NORTH","totalSamples":13,"firstSample":"06/03/1995","lastSample":"20/09/2005","latestBmwp":172,"indicesAvailable":8}},{"type":"Feature","geometry":{"type":"Point","coordinates":[-3.412038,54.670258]},"properties":{"siteId":"64708","name":"BROUGHTON BECK","catchment":"DERWENT (CUMBRIA)","area":"NORTH WEST - NORTH","totalSamples":18,"firstSample":"20/03/1995","lastSample":"03/10/2016","latestBmwp":161,"indicesAvailable":8}},{"type":"Feature","geometry":{"type":"Point","coordinates":[-3.419586,54.738547]},"properties":{"siteId":"64561","name":"BRUNSOW BECK","catchment":"SOLWAY FIRTH COASTAL STREAMS","area":"NORTH WEST - NORTH","totalSamples":14,"firstSample":"03/04/1995","lastSample":"07/11/2006","latestBmwp":40,"indicesAvailable":8}},{"type":"Feature","geometry":{"type":"Point","coordinates":[-3.443355,54.751747]},"properties":{"siteId":"65202","name":"BRUNSOW BECK","catchment":"SOLWAY FIRTH COASTAL STREAMS","area":"NORTH WEST - NORTH","totalSamples":13,"firstSample":"03/04/1995","lastSample":"27/10/2011","latestBmwp":82,"indicesAvailable":8}},{"type":"Feature","geometry":{"type":"Point","coordinates":[-3.116745,54.723291]},"properties":{"siteId":"64045","name":"BURBLETHWAITE BECK","catchment":"CALDEW","area":"NORTH WEST - NORTH","totalSamples":1,"firstSample":"20/04/1999","lastSample":"20/04/1999","latestBmwp":119,"indicesAvailable":8}},{"type":"Feature","geometry":{"type":"Point","coordinates":[-3.122347,54.718117]},"properties":{"siteId":"64161","name":"BURBLETHWAITE BECK","catchment":"CALDEW","area":"NORTH WEST - NORTH","totalSamples":1,"firstSample":"19/04/1999","lastSample":"19/04/1999","latestBmwp":138,"indicesAvailable":8}},{"type":"Feature","geometry":{"type":"Point","coordinates":[-3.11474,54.723759]},"properties":{"siteId":"64396","name":"BURBLETHWAITE BECK","catchment":"CALDEW","area":"NORTH WEST - NORTH","totalSamples":1,"firstSample":"20/04/1999","lastSample":"20/04/1999","latestBmwp":26,"indicesAvailable":8}},{"type":"Feature","geometry":{"type":"Point","coordinates":[-3.109905,54.722994]},"properties":{"siteId":"64721","name":"BURBLETHWAITE BECK","catchment":"CALDEW","area":"NORTH WEST - NORTH","totalSamples":1,"firstSample":"19/04/1999","lastSample":"19/04/1999","latestBmwp":71,"indicesAvailable":8}},{"type":"Feature","geometry":{"type":"Point","coordinates":[-3.105426,54.723844]},"properties":{"siteId":"65253","name":"BURBLETHWAITE BECK","catchment":"CALDEW","area":"NORTH WEST - NORTH","totalSamples":3,"firstSample":"15/04/1998","lastSample":"19/04/1999","latestBmwp":108,"indicesAvailable":8}},{"type":"Feature","geometry":{"type":"Point","coordinates":[-3.048488,54.749657]},"properties":{"siteId":"65552","name":"CALD BECK","catchment":"CALDEW","area":"NORTH WEST - NORTH","totalSamples":20,"firstSample":"13/03/1995","lastSample":"06/09/2024","latestBmwp":115,"indicesAvailable":8}},{"type":"Feature","geometry":{"type":"Point","coordinates":[-3.502499,54.410976]},"properties":{"siteId":"64124","name":"CALDER (CALDER (CUMBRIA))","catchment":"CALDER (CUMBRIA)","area":"NORTH WEST - NORTH","totalSamples":25,"firstSample":"07/03/1995","lastSample":"27/10/2014","latestBmwp":142,"indicesAvailable":8}},{"type":"Feature","geometry":{"type":"Point","coordinates":[-3.474081,54.440051]},"properties":{"siteId":"64596","name":"CALDER (CALDER (CUMBRIA))","catchment":"CALDER (CUMBRIA)","area":"NORTH WEST - NORTH","totalSamples":28,"firstSample":"07/03/1995","lastSample":"29/11/2022","latestBmwp":94,"indicesAvailable":8}},{"type":"Feature","geometry":{"type":"Point","coordinates":[-3.444202,54.469524]},"properties":{"siteId":"68305","name":"CALDER (CALDER (CUMBRIA))","catchment":"CALDER (CUMBRIA)","area":"NORTH WEST - NORTH","totalSamples":4,"firstSample":"17/03/1998","lastSample":"02/09/1999","latestBmwp":137,"indicesAvailable":8}},{"type":"Feature","geometry":{"type":"Point","coordinates":[-3.469922,54.441037]},"properties":{"siteId":"223392","name":"CALDER (CALDER (CUMBRIA))","catchment":"CALDER (CUMBRIA)","area":"NORTH WEST - NORTH","totalSamples":1,"firstSample":"26/09/2025","lastSample":"26/09/2025","latestBmwp":143,"indicesAvailable":8}},{"type":"Feature","geometry":{"type":"Point","coordinates":[-3.021575,54.740244]},"properties":{"siteId":"64226","name":"CALDEW","catchment":"CALDEW","area":"NORTH WEST - NORTH","totalSamples":16,"firstSample":"13/03/1995","lastSample":"13/09/2016","latestBmwp":116,"indicesAvailable":8}},{"type":"Feature","geometry":{"type":"Point","coordinates":[-3.002462,54.766978]},"properties":{"siteId":"65735","name":"CALDEW","catchment":"CALDEW","area":"NORTH WEST - NORTH","totalSamples":1,"firstSample":"02/03/2005","lastSample":"02/03/2005","latestBmwp":34,"indicesAvailable":8}},{"type":"Feature","geometry":{"type":"Point","coordinates":[-3.424441,54.699843]},"properties":{"siteId":"65513","name":"CARR BECK (DERWENT)","catchment":"DERWENT (CUMBRIA)","area":"NORTH WEST - NORTH","totalSamples":13,"firstSample":"23/03/1995","lastSample":"16/11/2005","latestBmwp":61,"indicesAvailable":8}},{"type":"Feature","geometry":{"type":"Point","coordinates":[-3.03199,54.827842]},"properties":{"siteId":"111589","name":"CHALK BECK","catchment":"WAMPOOL","area":"NORTH WEST - NORTH","totalSamples":2,"firstSample":"04/04/2013","lastSample":"05/11/2013","latestBmwp":167,"indicesAvailable":8}},{"type":"Feature","geometry":{"type":"Point","coordinates":[-3.178445,54.242323]},"properties":{"siteId":"67621","name":"CHAPELS BECK","catchment":"FURNESS STREAMS","area":"NORTH WEST - NORTH","totalSamples":11,"firstSample":"13/03/1995","lastSample":"01/09/2004","latestBmwp":115,"indicesAvailable":8}},{"type":"Feature","geometry":{"type":"Point","coordinates":[-3.075385,54.368467]},"properties":{"siteId":"65793","name":"CHURCH BECK","catchment":"CRAKE","area":"NORTH WEST - NORTH","totalSamples":26,"firstSample":"10/04/1995","lastSample":"30/10/2018","latestBmwp":74,"indicesAvailable":8}},{"type":"Feature","geometry":{"type":"Point","coordinates":[-3.068029,54.363787]},"properties":{"siteId":"67458","name":"CHURCH BECK","catchment":"CRAKE","area":"NORTH WEST - NORTH","totalSamples":3,"firstSample":"14/04/1998","lastSample":"25/11/1999","latestBmwp":96,"indicesAvailable":8}},{"type":"Feature","geometry":{"type":"Point","coordinates":[-3.318733,54.581192]},"properties":{"siteId":"63877","name":"COCKER (DERWENT)","catchment":"DERWENT (CUMBRIA)","area":"NORTH WEST - NORTH","totalSamples":33,"firstSample":"19/03/1998","lastSample":"17/10/2023","latestBmwp":128,"indicesAvailable":8}},{"type":"Feature","geometry":{"type":"Point","coordinates":[-3.361767,54.661046]},"properties":{"siteId":"64314","name":"COCKER (DERWENT)","catchment":"DERWENT (CUMBRIA)","area":"NORTH WEST - NORTH","totalSamples":30,"firstSample":"18/05/1995","lastSample":"06/10/2016","latestBmwp":162,"indicesAvailable":8}},{"type":"Feature","geometry":{"type":"Point","coordinates":[-3.315358,54.618572]},"properties":{"siteId":"64954","name":"COCKER (DERWENT)","catchment":"DERWENT (CUMBRIA)","area":"NORTH WEST - NORTH","totalSamples":38,"firstSample":"29/10/1999","lastSample":"05/09/2023","latestBmwp":130,"indicesAvailable":8}},{"type":"Feature","geometry":{"type":"Point","coordinates":[-3.287342,54.537617]},"properties":{"siteId":"161082","name":"COCKER (DERWENT)","catchment":"DERWENT (CUMBRIA)","area":"NORTH WEST - NORTH","totalSamples":6,"firstSample":"01/05/2013","lastSample":"06/10/2016","latestBmwp":174,"indicesAvailable":8}},{"type":"Feature","geometry":{"type":"Point","coordinates":[-3.314211,54.606523]},"properties":{"siteId":"161083","name":"COCKER (DERWENT)","catchment":"DERWENT (CUMBRIA)","area":"NORTH WEST - NORTH","totalSamples":5,"firstSample":"16/05/2013","lastSample":"05/09/2023","latestBmwp":124,"indicesAvailable":8}},{"type":"Feature","geometry":{"type":"Point","coordinates":[-3.163005,54.402455]},"properties":{"siteId":"65730","name":"COCKLEY BECK GILL","catchment":"DUDDON","area":"NORTH WEST - NORTH","totalSamples":2,"firstSample":"31/10/2007","lastSample":"17/02/2008","latestBmwp":19,"indicesAvailable":8}},{"type":"Feature","geometry":{"type":"Point","coordinates":[-3.233362,54.753319]},"properties":{"siteId":"67923","name":"COCKSHOT BECK","catchment":"ELLEN","area":"NORTH WEST - NORTH","totalSamples":18,"firstSample":"13/03/1995","lastSample":"26/10/2015","latestBmwp":172,"indicesAvailable":8}},{"type":"Feature","geometry":{"type":"Point","coordinates":[-3.239328,54.583245]},"properties":{"siteId":"65727","name":"COLEDALE BECK","catchment":"DERWENT (CUMBRIA)","area":"NORTH WEST - NORTH","totalSamples":1,"firstSample":"12/08/2008","lastSample":"12/08/2008","latestBmwp":85,"indicesAvailable":8}},{"type":"Feature","geometry":{"type":"Point","coordinates":[-3.194994,54.601666]},"properties":{"siteId":"67285","name":"COLEDALE BECK","catchment":"DERWENT (CUMBRIA)","area":"NORTH WEST - NORTH","totalSamples":12,"firstSample":"06/03/1995","lastSample":"20/10/2004","latestBmwp":139,"indicesAvailable":8}},{"type":"Feature","geometry":{"type":"Point","coordinates":[-3.238961,54.582889]},"properties":{"siteId":"142172","name":"COLEDALE BECK","catchment":"DERWENT (CUMBRIA)","area":"NORTH WEST - NORTH","totalSamples":3,"firstSample":"12/08/2008","lastSample":"31/07/2012","latestBmwp":64,"indicesAvailable":8}},{"type":"Feature","geometry":{"type":"Point","coordinates":[-3.239771,54.582566]},"properties":{"siteId":"152456","name":"COLEDALE BECK","catchment":"DERWENT (CUMBRIA)","area":"NORTH WEST - NORTH","totalSamples":5,"firstSample":"12/08/2008","lastSample":"13/10/2025","latestBmwp":91,"indicesAvailable":8}},{"type":"Feature","geometry":{"type":"Point","coordinates":[-3.23417,54.585122]},"properties":{"siteId":"152457","name":"COLEDALE BECK","catchment":"DERWENT (CUMBRIA)","area":"NORTH WEST - NORTH","totalSamples":1,"firstSample":"12/08/2008","lastSample":"12/08/2008","latestBmwp":53,"indicesAvailable":8}},{"type":"Feature","geometry":{"type":"Point","coordinates":[-3.234062,54.585141]},"properties":{"siteId":"159098","name":"COLEDALE BECK","catchment":"DERWENT (CUMBRIA)","area":"NORTH WEST - NORTH","totalSamples":6,"firstSample":"09/05/2012","lastSample":"13/10/2025","latestBmwp":90,"indicesAvailable":8}},{"type":"Feature","geometry":{"type":"Point","coordinates":[-3.182684,54.599953]},"properties":{"siteId":"159101","name":"COLEDALE BECK","catchment":"DERWENT (CUMBRIA)","area":"NORTH WEST - NORTH","totalSamples":5,"firstSample":"07/11/2012","lastSample":"13/10/2025","latestBmwp":112,"indicesAvailable":8}},{"type":"Feature","geometry":{"type":"Point","coordinates":[-3.239518,54.582874]},"properties":{"siteId":"159104","name":"COLEDALE BECK","catchment":"DERWENT (CUMBRIA)","area":"NORTH WEST - NORTH","totalSamples":3,"firstSample":"09/05/2012","lastSample":"07/11/2012","latestBmwp":60,"indicesAvailable":8}},{"type":"Feature","geometry":{"type":"Point","coordinates":[-3.043941,54.251373]},"properties":{"siteId":"65984","name":"COLTON BECK","catchment":"CRAKE","area":"NORTH WEST - NORTH","totalSamples":20,"firstSample":"06/04/1995","lastSample":"24/09/2008","latestBmwp":191,"indicesAvailable":8}},{"type":"Feature","geometry":{"type":"Point","coordinates":[-3.203183,54.616863]},"properties":{"siteId":"65239","name":"COMBE BECK","catchment":"DERWENT (CUMBRIA)","area":"NORTH WEST - NORTH","totalSamples":11,"firstSample":"06/03/1995","lastSample":"20/10/2004","latestBmwp":150,"indicesAvailable":8}},{"type":"Feature","geometry":{"type":"Point","coordinates":[-3.152296,54.514902]},"properties":{"siteId":"63876","name":"COMBE GILL","catchment":"DERWENT (CUMBRIA)","area":"NORTH WEST - NORTH","totalSamples":12,"firstSample":"20/03/1995","lastSample":"20/09/2005","latestBmwp":147,"indicesAvailable":8}},{"type":"Feature","geometry":{"type":"Point","coordinates":[-3.065638,54.254707]},"properties":{"siteId":"65477","name":"CRAKE","catchment":"CRAKE","area":"NORTH WEST - NORTH","totalSamples":24,"firstSample":"21/04/1995","lastSample":"19/09/2014","latestBmwp":91,"indicesAvailable":8}},{"type":"Feature","geometry":{"type":"Point","coordinates":[-3.090222,54.291696]},"properties":{"siteId":"65509","name":"CRAKE","catchment":"CRAKE","area":"NORTH WEST - NORTH","totalSamples":40,"firstSample":"20/03/1998","lastSample":"14/04/2025","latestBmwp":142,"indicesAvailable":8}},{"type":"Feature","geometry":{"type":"Point","coordinates":[-3.061236,54.241102]},"properties":{"siteId":"160776","name":"CRAKE","catchment":"CRAKE","area":"NORTH WEST - NORTH","totalSamples":4,"firstSample":"22/05/2013","lastSample":"20/11/2014","latestBmwp":162,"indicesAvailable":8}},{"type":"Feature","geometry":{"type":"Point","coordinates":[-3.438666,54.531606]},"properties":{"siteId":"63682","name":"CROASDALE BECK (EHEN)","catchment":"EHEN","area":"NORTH WEST - NORTH","totalSamples":13,"firstSample":"22/03/1995","lastSample":"05/10/2006","latestBmwp":179,"indicesAvailable":8}},{"type":"Feature","geometry":{"type":"Point","coordinates":[-3.429725,54.772382]},"properties":{"siteId":"65206","name":"CROOKHURST BECK","catchment":"SOLWAY FIRTH COASTAL STREAMS","area":"NORTH WEST - NORTH","totalSamples":17,"firstSample":"16/05/1995","lastSample":"11/10/2024","latestBmwp":138,"indicesAvailable":8}},{"type":"Feature","geometry":{"type":"Point","coordinates":[-3.364426,54.281598]},"properties":{"siteId":"64996","name":"CROOKLEY BECK","catchment":"ANNAS","area":"NORTH WEST - NORTH","totalSamples":16,"firstSample":"03/03/1995","lastSample":"29/09/2011","latestBmwp":108,"indicesAvailable":8}},{"type":"Feature","geometry":{"type":"Point","coordinates":[-3.230238,54.332583]},"properties":{"siteId":"63562","name":"CROSBY GILL","catchment":"DUDDON","area":"NORTH WEST - NORTH","totalSamples":4,"firstSample":"13/05/1998","lastSample":"19/10/1999","latestBmwp":186,"indicesAvailable":8}},{"type":"Feature","geometry":{"type":"Point","coordinates":[-3.248814,54.344696]},"properties":{"siteId":"223811","name":"CROSBY GILL","catchment":"DUDDON","area":"NORTH WEST - NORTH","totalSamples":2,"firstSample":"22/04/2025","lastSample":"04/09/2025","latestBmwp":135,"indicesAvailable":8}},{"type":"Feature","geometry":{"type":"Point","coordinates":[-3.283925,54.839233]},"properties":{"siteId":"64035","name":"CRUMMOCK BECK","catchment":"WAVER","area":"NORTH WEST - NORTH","totalSamples":11,"firstSample":"18/04/1995","lastSample":"27/11/2013","latestBmwp":69,"indicesAvailable":8}},{"type":"Feature","geometry":{"type":"Point","coordinates":[-3.182341,54.861151]},"properties":{"siteId":"65241","name":"CUDDYARCH SOUGH","catchment":"WAMPOOL","area":"NORTH WEST - NORTH","totalSamples":17,"firstSample":"03/05/1995","lastSample":"19/04/2024","latestBmwp":32,"indicesAvailable":8}},{"type":"Feature","geometry":{"type":"Point","coordinates":[-3.151535,54.707238]},"properties":{"siteId":"67214","name":"DALE GILL","catchment":"ELLEN","area":"NORTH WEST - NORTH","totalSamples":14,"firstSample":"13/03/1995","lastSample":"06/09/2007","latestBmwp":71,"indicesAvailable":8}},{"type":"Feature","geometry":{"type":"Point","coordinates":[-3.217947,54.667853]},"properties":{"siteId":"65238","name":"DASH BECK","catchment":"DERWENT (CUMBRIA)","area":"NORTH WEST - NORTH","totalSamples":15,"firstSample":"10/03/1995","lastSample":"14/10/2014","latestBmwp":105,"indicesAvailable":8}},{"type":"Feature","geometry":{"type":"Point","coordinates":[-3.192707,54.681181]},"properties":{"siteId":"142167","name":"DASH BECK","catchment":"DERWENT (CUMBRIA)","area":"NORTH WEST - NORTH","totalSamples":1,"firstSample":"13/06/2006","lastSample":"13/06/2006","latestBmwp":165,"indicesAvailable":8}},{"type":"Feature","geometry":{"type":"Point","coordinates":[-3.161223,54.686169]},"properties":{"siteId":"154675","name":"DASH BECK","catchment":"DERWENT (CUMBRIA)","area":"NORTH WEST - NORTH","totalSamples":1,"firstSample":"13/04/2010","lastSample":"13/04/2010","latestBmwp":152,"indicesAvailable":8}},{"type":"Feature","geometry":{"type":"Point","coordinates":[-3.142242,54.681973]},"properties":{"siteId":"154676","name":"DASH BECK","catchment":"DERWENT (CUMBRIA)","area":"NORTH WEST - NORTH","totalSamples":1,"firstSample":"13/04/2010","lastSample":"13/04/2010","latestBmwp":162,"indicesAvailable":8}},{"type":"Feature","geometry":{"type":"Point","coordinates":[-3.15255,54.68174]},"properties":{"siteId":"155417","name":"DASH BECK","catchment":"DERWENT (CUMBRIA)","area":"NORTH WEST - NORTH","totalSamples":17,"firstSample":"07/07/2010","lastSample":"13/10/2016","latestBmwp":94,"indicesAvailable":8}},{"type":"Feature","geometry":{"type":"Point","coordinates":[-3.156887,54.682589]},"properties":{"siteId":"155418","name":"DASH BECK","catchment":"DERWENT (CUMBRIA)","area":"NORTH WEST - NORTH","totalSamples":17,"firstSample":"07/07/2010","lastSample":"13/10/2016","latestBmwp":105,"indicesAvailable":8}},{"type":"Feature","geometry":{"type":"Point","coordinates":[-3.330186,54.497185]},"properties":{"siteId":"208833","name":"DEEP GILL","catchment":"EHEN","area":"NORTH WEST - NORTH","totalSamples":2,"firstSample":"08/04/2022","lastSample":"08/09/2022","latestBmwp":53,"indicesAvailable":8}},{"type":"Feature","geometry":{"type":"Point","coordinates":[-3.13419,54.139386]},"properties":{"siteId":"63362","name":"DEEP MEADOWS (GLEASTON) BECK","catchment":"FURNESS STREAMS","area":"NORTH WEST - NORTH","totalSamples":5,"firstSample":"11/12/1998","lastSample":"05/09/2000","latestBmwp":75,"indicesAvailable":8}},{"type":"Feature","geometry":{"type":"Point","coordinates":[-3.132659,54.139401]},"properties":{"siteId":"67055","name":"DEEP MEADOWS (GLEASTON) BECK","catchment":"FURNESS STREAMS","area":"NORTH WEST - NORTH","totalSamples":6,"firstSample":"04/06/1998","lastSample":"05/09/2000","latestBmwp":64,"indicesAvailable":8}},{"type":"Feature","geometry":{"type":"Point","coordinates":[-3.135922,54.1272]},"properties":{"siteId":"65048","name":"DEEP MEADOWS BECK","catchment":"FURNESS STREAMS","area":"NORTH WEST - NORTH","totalSamples":21,"firstSample":"04/06/1998","lastSample":"01/10/2013","latestBmwp":97,"indicesAvailable":8}},{"type":"Feature","geometry":{"type":"Point","coordinates":[-3.121146,54.109848]},"properties":{"siteId":"69561","name":"DEEP MEADOWS BECK","catchment":"FURNESS STREAMS","area":"NORTH WEST - NORTH","totalSamples":12,"firstSample":"07/04/1995","lastSample":"11/09/2006","latestBmwp":83,"indicesAvailable":8}},{"type":"Feature","geometry":{"type":"Point","coordinates":[-3.370458,54.663617]},"properties":{"siteId":"63811","name":"DERWENT (CUMBRIA)","catchment":"DERWENT (CUMBRIA)","area":"NORTH WEST - NORTH","totalSamples":5,"firstSample":"24/03/1998","lastSample":"27/11/2001","latestBmwp":149,"indicesAvailable":8}},{"type":"Feature","geometry":{"type":"Point","coordinates":[-3.424859,54.667483]},"properties":{"siteId":"63820","name":"DERWENT (CUMBRIA)","catchment":"DERWENT (CUMBRIA)","area":"NORTH WEST - NORTH","totalSamples":4,"firstSample":"24/03/1998","lastSample":"20/03/2000","latestBmwp":142,"indicesAvailable":8}},{"type":"Feature","geometry":{"type":"Point","coordinates":[-3.2422,54.677583]},"properties":{"siteId":"63860","name":"DERWENT (CUMBRIA)","catchment":"DERWENT (CUMBRIA)","area":"NORTH WEST - NORTH","totalSamples":18,"firstSample":"03/05/1995","lastSample":"28/05/2009","latestBmwp":91,"indicesAvailable":8}},{"type":"Feature","geometry":{"type":"Point","coordinates":[-3.536283,54.648137]},"properties":{"siteId":"64118","name":"DERWENT (CUMBRIA)","catchment":"DERWENT (CUMBRIA)","area":"NORTH WEST - NORTH","totalSamples":42,"firstSample":"18/05/1995","lastSample":"28/10/2019","latestBmwp":142,"indicesAvailable":8}},{"type":"Feature","geometry":{"type":"Point","coordinates":[-3.152937,54.548077]},"properties":{"siteId":"64287","name":"DERWENT (CUMBRIA)","catchment":"DERWENT (CUMBRIA)","area":"NORTH WEST - NORTH","totalSamples":22,"firstSample":"20/03/1995","lastSample":"28/10/2016","latestBmwp":148,"indicesAvailable":8}},{"type":"Feature","geometry":{"type":"Point","coordinates":[-3.298817,54.687522]},"properties":{"siteId":"64910","name":"DERWENT (CUMBRIA)","catchment":"DERWENT (CUMBRIA)","area":"NORTH WEST - NORTH","totalSamples":11,"firstSample":"24/03/1998","lastSample":"06/10/2016","latestBmwp":102,"indicesAvailable":8}},{"type":"Feature","geometry":{"type":"Point","coordinates":[-3.173439,54.623509]},"properties":{"siteId":"65072","name":"DERWENT (CUMBRIA)","catchment":"DERWENT (CUMBRIA)","area":"NORTH WEST - NORTH","totalSamples":21,"firstSample":"03/05/1995","lastSample":"19/09/2016","latestBmwp":160,"indicesAvailable":8}},{"type":"Feature","geometry":{"type":"Point","coordinates":[-3.184284,54.499314]},"properties":{"siteId":"65462","name":"DERWENT (CUMBRIA)","catchment":"DERWENT (CUMBRIA)","area":"NORTH WEST - NORTH","totalSamples":3,"firstSample":"01/11/2007","lastSample":"17/04/2008","latestBmwp":49,"indicesAvailable":8}},{"type":"Feature","geometry":{"type":"Point","coordinates":[-3.475474,54.659031]},"properties":{"siteId":"67219","name":"DERWENT (CUMBRIA)","catchment":"DERWENT (CUMBRIA)","area":"NORTH WEST - NORTH","totalSamples":4,"firstSample":"24/03/1998","lastSample":"20/03/2000","latestBmwp":156,"indicesAvailable":8}},{"type":"Feature","geometry":{"type":"Point","coordinates":[-3.185004,54.497509]},"properties":{"siteId":"68557","name":"DERWENT (CUMBRIA)","catchment":"DERWENT (CUMBRIA)","area":"NORTH WEST - NORTH","totalSamples":1,"firstSample":"01/11/2007","lastSample":"01/11/2007","latestBmwp":57,"indicesAvailable":8}},{"type":"Feature","geometry":{"type":"Point","coordinates":[-3.157386,54.525557]},"properties":{"siteId":"161081","name":"DERWENT (CUMBRIA)","catchment":"DERWENT (CUMBRIA)","area":"NORTH WEST - NORTH","totalSamples":7,"firstSample":"01/05/2013","lastSample":"31/10/2018","latestBmwp":93,"indicesAvailable":8}},{"type":"Feature","geometry":{"type":"Point","coordinates":[-3.50083,54.654657]},"properties":{"siteId":"201912","name":"DERWENT (CUMBRIA)","catchment":"DERWENT (CUMBRIA)","area":"NORTH WEST - NORTH","totalSamples":2,"firstSample":"04/05/2021","lastSample":"23/09/2021","latestBmwp":134,"indicesAvailable":8}},{"type":"Feature","geometry":{"type":"Point","coordinates":[-3.247566,54.685661]},"properties":{"siteId":"212331","name":"DERWENT (CUMBRIA)","catchment":"DERWENT (CUMBRIA)","area":"NORTH WEST - NORTH","totalSamples":3,"firstSample":"08/03/2023","lastSample":"30/09/2024","latestBmwp":131,"indicesAvailable":8}},{"type":"Feature","geometry":{"type":"Point","coordinates":[-3.556679,54.582409]},"properties":{"siteId":"64143","name":"DISTINGTON BECK","catchment":"SOLWAY FIRTH COASTAL STREAMS","area":"NORTH WEST - NORTH","totalSamples":9,"firstSample":"11/05/1998","lastSample":"11/10/2016","latestBmwp":110,"indicesAvailable":8}},{"type":"Feature","geometry":{"type":"Point","coordinates":[-3.529371,54.601497]},"properties":{"siteId":"64266","name":"DISTINGTON BECK","catchment":"SOLWAY FIRTH COASTAL STREAMS","area":"NORTH WEST - NORTH","totalSamples":7,"firstSample":"11/05/1998","lastSample":"11/01/2001","latestBmwp":79,"indicesAvailable":8}},{"type":"Feature","geometry":{"type":"Point","coordinates":[-3.521903,54.604647]},"properties":{"siteId":"64730","name":"DISTINGTON BECK","catchment":"SOLWAY FIRTH COASTAL STREAMS","area":"NORTH WEST - NORTH","totalSamples":1,"firstSample":"18/08/2000","lastSample":"18/08/2000","latestBmwp":64,"indicesAvailable":8}},{"type":"Feature","geometry":{"type":"Point","coordinates":[-3.524039,54.603811]},"properties":{"siteId":"64757","name":"DISTINGTON BECK","catchment":"SOLWAY FIRTH COASTAL STREAMS","area":"NORTH WEST - NORTH","totalSamples":7,"firstSample":"11/05/1998","lastSample":"11/01/2001","latestBmwp":97,"indicesAvailable":8}},{"type":"Feature","geometry":{"type":"Point","coordinates":[-3.521751,54.604739]},"properties":{"siteId":"64764","name":"DISTINGTON BECK","catchment":"SOLWAY FIRTH COASTAL STREAMS","area":"NORTH WEST - NORTH","totalSamples":6,"firstSample":"04/12/1998","lastSample":"11/01/2001","latestBmwp":145,"indicesAvailable":8}},{"type":"Feature","geometry":{"type":"Point","coordinates":[-3.509288,54.602648]},"properties":{"siteId":"64788","name":"DISTINGTON BECK","catchment":"SOLWAY FIRTH COASTAL STREAMS","area":"NORTH WEST - NORTH","totalSamples":6,"firstSample":"11/05/1998","lastSample":"11/01/2001","latestBmwp":136,"indicesAvailable":8}},{"type":"Feature","geometry":{"type":"Point","coordinates":[-3.534738,54.599308]},"properties":{"siteId":"68590","name":"DISTINGTON BECK","catchment":"SOLWAY FIRTH COASTAL STREAMS","area":"NORTH WEST - NORTH","totalSamples":18,"firstSample":"16/11/1994","lastSample":"19/10/2016","latestBmwp":115,"indicesAvailable":8}},{"type":"Feature","geometry":{"type":"Point","coordinates":[-3.057257,54.234908]},"properties":{"siteId":"215294","name":"DOCTOR'S BECK","catchment":"CRAKE","area":"NORTH WEST - NORTH","totalSamples":2,"firstSample":"23/04/2024","lastSample":"04/09/2024","latestBmwp":132,"indicesAvailable":8}},{"type":"Feature","geometry":{"type":"Point","coordinates":[-3.530543,54.537003]},"properties":{"siteId":"68098","name":"DUB BECK (EHEN)","catchment":"EHEN","area":"NORTH WEST - NORTH","totalSamples":6,"firstSample":"19/04/1999","lastSample":"21/11/2013","latestBmwp":113,"indicesAvailable":8}},{"type":"Feature","geometry":{"type":"Point","coordinates":[-3.271753,54.663939]},"properties":{"siteId":"65157","name":"DUBWATH BECK","catchment":"DERWENT (CUMBRIA)","area":"NORTH WEST - NORTH","totalSamples":17,"firstSample":"06/03/1995","lastSample":"03/10/2016","latestBmwp":167,"indicesAvailable":8}},{"type":"Feature","geometry":{"type":"Point","coordinates":[-3.244499,54.669093]},"properties":{"siteId":"65237","name":"DUBWATH BECK","catchment":"DERWENT (CUMBRIA)","area":"NORTH WEST - NORTH","totalSamples":15,"firstSample":"06/03/1995","lastSample":"23/09/2008","latestBmwp":85,"indicesAvailable":8}},{"type":"Feature","geometry":{"type":"Point","coordinates":[-3.194401,54.354738]},"properties":{"siteId":"68196","name":"DUDDON","catchment":"DUDDON","area":"NORTH WEST - NORTH","totalSamples":20,"firstSample":"11/04/1995","lastSample":"30/10/2018","latestBmwp":80,"indicesAvailable":8}},{"type":"Feature","geometry":{"type":"Point","coordinates":[-3.231861,54.282962]},"properties":{"siteId":"68570","name":"DUDDON","catchment":"DUDDON","area":"NORTH WEST - NORTH","totalSamples":44,"firstSample":"11/04/1995","lastSample":"22/10/2019","latestBmwp":146,"indicesAvailable":8}},{"type":"Feature","geometry":{"type":"Point","coordinates":[-3.236226,54.327129]},"properties":{"siteId":"68631","name":"DUDDON","catchment":"DUDDON","area":"NORTH WEST - NORTH","totalSamples":3,"firstSample":"01/11/2007","lastSample":"14/04/2008","latestBmwp":112,"indicesAvailable":8}},{"type":"Feature","geometry":{"type":"Point","coordinates":[-3.19704,54.354487]},"properties":{"siteId":"150453","name":"DUDDON","catchment":"DUDDON","area":"NORTH WEST - NORTH","totalSamples":5,"firstSample":"01/11/2007","lastSample":"06/05/2025","latestBmwp":144,"indicesAvailable":8}},{"type":"Feature","geometry":{"type":"Point","coordinates":[-3.426417,54.415619]},"properties":{"siteId":"216495","name":"EAST GOSFORTH TRIB (HARE BECK)","catchment":"BLENG","area":"NORTH WEST - NORTH","totalSamples":2,"firstSample":"12/03/2024","lastSample":"05/09/2024","latestBmwp":89,"indicesAvailable":8}},{"type":"Feature","geometry":{"type":"Point","coordinates":[-3.508436,54.705118]},"properties":{"siteId":"63858","name":"EEL SIKE","catchment":"ELLEN","area":"NORTH WEST - NORTH","totalSamples":1,"firstSample":"28/01/1999","lastSample":"28/01/1999","latestBmwp":67,"indicesAvailable":8}},{"type":"Feature","geometry":{"type":"Point","coordinates":[-3.508436,54.705118]},"properties":{"siteId":"64022","name":"EEL SIKE","catchment":"ELLEN","area":"NORTH WEST - NORTH","totalSamples":1,"firstSample":"28/01/1999","lastSample":"28/01/1999","latestBmwp":56,"indicesAvailable":8}},{"type":"Feature","geometry":{"type":"Point","coordinates":[-3.502197,54.704297]},"properties":{"siteId":"68622","name":"EEL SIKE","catchment":"ELLEN","area":"NORTH WEST - NORTH","totalSamples":1,"firstSample":"28/01/1999","lastSample":"28/01/1999","latestBmwp":31,"indicesAvailable":8}},{"type":"Feature","geometry":{"type":"Point","coordinates":[-3.529435,54.479261]},"properties":{"siteId":"63496","name":"EHEN","catchment":"EHEN","area":"NORTH WEST - NORTH","totalSamples":1,"firstSample":"20/04/1999","lastSample":"20/04/1999","latestBmwp":90,"indicesAvailable":8}},{"type":"Feature","geometry":{"type":"Point","coordinates":[-3.533358,54.460336]},"properties":{"siteId":"63523","name":"EHEN","catchment":"EHEN","area":"NORTH WEST - NORTH","totalSamples":1,"firstSample":"20/04/1999","lastSample":"20/04/1999","latestBmwp":97,"indicesAvailable":8}},{"type":"Feature","geometry":{"type":"Point","coordinates":[-3.532057,54.440373]},"properties":{"siteId":"63565","name":"EHEN","catchment":"EHEN","area":"NORTH WEST - NORTH","totalSamples":49,"firstSample":"08/03/1995","lastSample":"30/10/2019","latestBmwp":93,"indicesAvailable":8}},{"type":"Feature","geometry":{"type":"Point","coordinates":[-3.526116,54.473011]},"properties":{"siteId":"63991","name":"EHEN","catchment":"EHEN","area":"NORTH WEST - NORTH","totalSamples":1,"firstSample":"20/04/1999","lastSample":"20/04/1999","latestBmwp":89,"indicesAvailable":8}},{"type":"Feature","geometry":{"type":"Point","coordinates":[-3.525971,54.5027]},"properties":{"siteId":"63997","name":"EHEN","catchment":"EHEN","area":"NORTH WEST - NORTH","totalSamples":30,"firstSample":"21/03/1995","lastSample":"01/10/2008","latestBmwp":170,"indicesAvailable":8}},{"type":"Feature","geometry":{"type":"Point","coordinates":[-3.526283,54.477503]},"properties":{"siteId":"64005","name":"EHEN","catchment":"EHEN","area":"NORTH WEST - NORTH","totalSamples":1,"firstSample":"20/04/1999","lastSample":"20/04/1999","latestBmwp":71,"indicesAvailable":8}},{"type":"Feature","geometry":{"type":"Point","coordinates":[-3.527893,54.47928]},"properties":{"siteId":"64187","name":"EHEN","catchment":"EHEN","area":"NORTH WEST - NORTH","totalSamples":1,"firstSample":"20/04/1999","lastSample":"20/04/1999","latestBmwp":133,"indicesAvailable":8}},{"type":"Feature","geometry":{"type":"Point","coordinates":[-3.49748,54.515837]},"properties":{"siteId":"64188","name":"EHEN","catchment":"EHEN","area":"NORTH WEST - NORTH","totalSamples":57,"firstSample":"01/04/1998","lastSample":"11/07/2025","latestBmwp":75,"indicesAvailable":8}},{"type":"Feature","geometry":{"type":"Point","coordinates":[-3.526183,54.474808]},"properties":{"siteId":"64213","name":"EHEN","catchment":"EHEN","area":"NORTH WEST - NORTH","totalSamples":1,"firstSample":"20/04/1999","lastSample":"20/04/1999","latestBmwp":59,"indicesAvailable":8}},{"type":"Feature","geometry":{"type":"Point","coordinates":[-3.527706,54.499524]},"properties":{"siteId":"64364","name":"EHEN","catchment":"EHEN","area":"NORTH WEST - NORTH","totalSamples":30,"firstSample":"21/03/1995","lastSample":"01/10/2008","latestBmwp":182,"indicesAvailable":8}},{"type":"Feature","geometry":{"type":"Point","coordinates":[-3.421423,54.52462]},"properties":{"siteId":"64421","name":"EHEN","catchment":"EHEN","area":"NORTH WEST - NORTH","totalSamples":1,"firstSample":"18/11/1998","lastSample":"18/11/1998","latestBmwp":111,"indicesAvailable":8}},{"type":"Feature","geometry":{"type":"Point","coordinates":[-3.438273,54.527899]},"properties":{"siteId":"64697","name":"EHEN","catchment":"EHEN","area":"NORTH WEST - NORTH","totalSamples":42,"firstSample":"01/04/1998","lastSample":"30/05/2023","latestBmwp":142,"indicesAvailable":8}},{"type":"Feature","geometry":{"type":"Point","coordinates":[-3.434646,54.52716]},"properties":{"siteId":"65175","name":"EHEN","catchment":"EHEN","area":"NORTH WEST - NORTH","totalSamples":1,"firstSample":"18/11/1998","lastSample":"18/11/1998","latestBmwp":86,"indicesAvailable":8}},{"type":"Feature","geometry":{"type":"Point","coordinates":[-3.433086,54.526729]},"properties":{"siteId":"65177","name":"EHEN","catchment":"EHEN","area":"NORTH WEST - NORTH","totalSamples":1,"firstSample":"18/11/1998","lastSample":"18/11/1998","latestBmwp":80,"indicesAvailable":8}},{"type":"Feature","geometry":{"type":"Point","coordinates":[-3.431926,54.524496]},"properties":{"siteId":"65178","name":"EHEN","catchment":"EHEN","area":"NORTH WEST - NORTH","totalSamples":1,"firstSample":"18/11/1998","lastSample":"18/11/1998","latestBmwp":113,"indicesAvailable":8}},{"type":"Feature","geometry":{"type":"Point","coordinates":[-3.43146,54.524412]},"properties":{"siteId":"65179","name":"EHEN","catchment":"EHEN","area":"NORTH WEST - NORTH","totalSamples":1,"firstSample":"18/11/1998","lastSample":"18/11/1998","latestBmwp":111,"indicesAvailable":8}},{"type":"Feature","geometry":{"type":"Point","coordinates":[-3.507484,54.511893]},"properties":{"siteId":"78521","name":"EHEN","catchment":"EHEN","area":"NORTH WEST - NORTH","totalSamples":25,"firstSample":"05/05/1999","lastSample":"01/10/2008","latestBmwp":198,"indicesAvailable":8}},{"type":"Feature","geometry":{"type":"Point","coordinates":[-3.419897,54.523829]},"properties":{"siteId":"78696","name":"EHEN","catchment":"EHEN","area":"NORTH WEST - NORTH","totalSamples":42,"firstSample":"05/05/1999","lastSample":"14/09/2023","latestBmwp":123,"indicesAvailable":8}},{"type":"Feature","geometry":{"type":"Point","coordinates":[-3.410699,54.524593]},"properties":{"siteId":"154806","name":"EHEN","catchment":"EHEN","area":"NORTH WEST - NORTH","totalSamples":21,"firstSample":"19/04/2010","lastSample":"04/10/2018","latestBmwp":58,"indicesAvailable":8}},{"type":"Feature","geometry":{"type":"Point","coordinates":[-3.411054,54.525047]},"properties":{"siteId":"154807","name":"EHEN","catchment":"EHEN","area":"NORTH WEST - NORTH","totalSamples":21,"firstSample":"19/04/2010","lastSample":"04/10/2018","latestBmwp":52,"indicesAvailable":8}},{"type":"Feature","geometry":{"type":"Point","coordinates":[-3.412534,54.52538]},"properties":{"siteId":"154808","name":"EHEN","catchment":"EHEN","area":"NORTH WEST - NORTH","totalSamples":21,"firstSample":"19/04/2010","lastSample":"04/10/2018","latestBmwp":58,"indicesAvailable":8}},{"type":"Feature","geometry":{"type":"Point","coordinates":[-3.413583,54.525323]},"properties":{"siteId":"154809","name":"EHEN","catchment":"EHEN","area":"NORTH WEST - NORTH","totalSamples":22,"firstSample":"19/04/2010","lastSample":"04/10/2018","latestBmwp":61,"indicesAvailable":8}},{"type":"Feature","geometry":{"type":"Point","coordinates":[-3.414627,54.525149]},"properties":{"siteId":"154810","name":"EHEN","catchment":"EHEN","area":"NORTH WEST - NORTH","totalSamples":23,"firstSample":"19/04/2010","lastSample":"14/09/2023","latestBmwp":49,"indicesAvailable":8}},{"type":"Feature","geometry":{"type":"Point","coordinates":[-3.520221,54.506305]},"properties":{"siteId":"208831","name":"EHEN","catchment":"EHEN","area":"NORTH WEST - NORTH","totalSamples":3,"firstSample":"30/03/2022","lastSample":"16/10/2023","latestBmwp":116,"indicesAvailable":8}},{"type":"Feature","geometry":{"type":"Point","coordinates":[-3.404484,54.733501]},"properties":{"siteId":"63385","name":"ELLEN","catchment":"ELLEN","area":"NORTH WEST - NORTH","totalSamples":4,"firstSample":"19/10/1999","lastSample":"08/07/2013","latestBmwp":115,"indicesAvailable":8}},{"type":"Feature","geometry":{"type":"Point","coordinates":[-3.311176,54.759045]},"properties":{"siteId":"64017","name":"ELLEN","catchment":"ELLEN","area":"NORTH WEST - NORTH","totalSamples":15,"firstSample":"23/03/1995","lastSample":"15/11/2013","latestBmwp":171,"indicesAvailable":8}},{"type":"Feature","geometry":{"type":"Point","coordinates":[-3.198731,54.75346]},"properties":{"siteId":"64034","name":"ELLEN","catchment":"ELLEN","area":"NORTH WEST - NORTH","totalSamples":7,"firstSample":"20/05/1999","lastSample":"13/09/2023","latestBmwp":99,"indicesAvailable":8}},{"type":"Feature","geometry":{"type":"Point","coordinates":[-3.440765,54.722569]},"properties":{"siteId":"64307","name":"ELLEN","catchment":"ELLEN","area":"NORTH WEST - NORTH","totalSamples":3,"firstSample":"20/05/1999","lastSample":"08/05/2000","latestBmwp":108,"indicesAvailable":8}},{"type":"Feature","geometry":{"type":"Point","coordinates":[-3.161308,54.717929]},"properties":{"siteId":"64342","name":"ELLEN","catchment":"ELLEN","area":"NORTH WEST - NORTH","totalSamples":1,"firstSample":"11/01/2001","lastSample":"11/01/2001","latestBmwp":89,"indicesAvailable":8}},{"type":"Feature","geometry":{"type":"Point","coordinates":[-3.246213,54.757888]},"properties":{"siteId":"64425","name":"ELLEN","catchment":"ELLEN","area":"NORTH WEST - NORTH","totalSamples":1,"firstSample":"28/09/1999","lastSample":"28/09/1999","latestBmwp":108,"indicesAvailable":8}},{"type":"Feature","geometry":{"type":"Point","coordinates":[-3.245926,54.748544]},"properties":{"siteId":"64662","name":"ELLEN","catchment":"ELLEN","area":"NORTH WEST - NORTH","totalSamples":1,"firstSample":"27/03/2000","lastSample":"27/03/2000","latestBmwp":93,"indicesAvailable":8}},{"type":"Feature","geometry":{"type":"Point","coordinates":[-3.353173,54.749911]},"properties":{"siteId":"64796","name":"ELLEN","catchment":"ELLEN","area":"NORTH WEST - NORTH","totalSamples":2,"firstSample":"28/09/1999","lastSample":"10/04/2000","latestBmwp":89,"indicesAvailable":8}},{"type":"Feature","geometry":{"type":"Point","coordinates":[-3.152591,54.717114]},"properties":{"siteId":"64803","name":"ELLEN","catchment":"ELLEN","area":"NORTH WEST - NORTH","totalSamples":4,"firstSample":"18/05/1999","lastSample":"11/01/2001","latestBmwp":96,"indicesAvailable":8}},{"type":"Feature","geometry":{"type":"Point","coordinates":[-3.280548,54.762563]},"properties":{"siteId":"64945","name":"ELLEN","catchment":"ELLEN","area":"NORTH WEST - NORTH","totalSamples":2,"firstSample":"28/09/1999","lastSample":"27/03/2000","latestBmwp":85,"indicesAvailable":8}},{"type":"Feature","geometry":{"type":"Point","coordinates":[-3.17893,54.742025]},"properties":{"siteId":"65099","name":"ELLEN","catchment":"ELLEN","area":"NORTH WEST - NORTH","totalSamples":2,"firstSample":"28/09/1999","lastSample":"15/03/2000","latestBmwp":81,"indicesAvailable":8}},{"type":"Feature","geometry":{"type":"Point","coordinates":[-3.49195,54.714328]},"properties":{"siteId":"65141","name":"ELLEN","catchment":"ELLEN","area":"NORTH WEST - NORTH","totalSamples":24,"firstSample":"23/03/1995","lastSample":"28/11/2013","latestBmwp":105,"indicesAvailable":8}},{"type":"Feature","geometry":{"type":"Point","coordinates":[-3.470074,54.717274]},"properties":{"siteId":"65199","name":"ELLEN","catchment":"ELLEN","area":"NORTH WEST - NORTH","totalSamples":2,"firstSample":"19/10/1999","lastSample":"08/05/2000","latestBmwp":92,"indicesAvailable":8}},{"type":"Feature","geometry":{"type":"Point","coordinates":[-3.171739,54.720013]},"properties":{"siteId":"65499","name":"ELLEN","catchment":"ELLEN","area":"NORTH WEST - NORTH","totalSamples":12,"firstSample":"16/03/1998","lastSample":"21/10/2013","latestBmwp":113,"indicesAvailable":8}},{"type":"Feature","geometry":{"type":"Point","coordinates":[-3.162129,54.717849]},"properties":{"siteId":"161374","name":"ELLEN","catchment":"ELLEN","area":"NORTH WEST - NORTH","totalSamples":8,"firstSample":"04/04/2013","lastSample":"27/09/2023","latestBmwp":78,"indicesAvailable":8}},{"type":"Feature","geometry":{"type":"Point","coordinates":[-3.2974,54.760766]},"properties":{"siteId":"163679","name":"ELLEN","catchment":"ELLEN","area":"NORTH WEST - NORTH","totalSamples":1,"firstSample":"01/05/2013","lastSample":"01/05/2013","latestBmwp":136,"indicesAvailable":8}},{"type":"Feature","geometry":{"type":"Point","coordinates":[-3.292026,54.760851]},"properties":{"siteId":"163680","name":"ELLEN","catchment":"ELLEN","area":"NORTH WEST - NORTH","totalSamples":1,"firstSample":"01/05/2013","lastSample":"01/05/2013","latestBmwp":132,"indicesAvailable":8}},{"type":"Feature","geometry":{"type":"Point","coordinates":[-3.280815,54.761176]},"properties":{"siteId":"163681","name":"ELLEN","catchment":"ELLEN","area":"NORTH WEST - NORTH","totalSamples":1,"firstSample":"01/05/2013","lastSample":"01/05/2013","latestBmwp":130,"indicesAvailable":8}},{"type":"Feature","geometry":{"type":"Point","coordinates":[-3.282548,54.761419]},"properties":{"siteId":"163682","name":"ELLEN","catchment":"ELLEN","area":"NORTH WEST - NORTH","totalSamples":1,"firstSample":"01/05/2013","lastSample":"01/05/2013","latestBmwp":140,"indicesAvailable":8}},{"type":"Feature","geometry":{"type":"Point","coordinates":[-3.556062,54.618602]},"properties":{"siteId":"64688","name":"ELLER BECK (WORKINGTON)","catchment":"SOLWAY FIRTH COASTAL STREAMS","area":"NORTH WEST - NORTH","totalSamples":19,"firstSample":"25/05/1994","lastSample":"24/09/2025","latestBmwp":129,"indicesAvailable":8}},{"type":"Feature","geometry":{"type":"Point","coordinates":[-3.553903,54.465925]},"properties":{"siteId":"201916","name":"ELLERGILL BECK (ST BEES HEAD)","catchment":"SOLWAY FIRTH COASTAL STREAMS","area":"NORTH WEST - NORTH","totalSamples":4,"firstSample":"16/03/2021","lastSample":"29/09/2022","latestBmwp":28,"indicesAvailable":8}},{"type":"Feature","geometry":{"type":"Point","coordinates":[-3.224485,54.3972]},"properties":{"siteId":"64600","name":"ESK (ESK)","catchment":"ESK (NW NORTH)","area":"NORTH WEST - NORTH","totalSamples":27,"firstSample":"14/03/1995","lastSample":"24/10/2022","latestBmwp":65,"indicesAvailable":8}},{"type":"Feature","geometry":{"type":"Point","coordinates":[-3.340353,54.368502]},"properties":{"siteId":"64616","name":"ESK (ESK)","catchment":"ESK (NW NORTH)","area":"NORTH WEST - NORTH","totalSamples":43,"firstSample":"03/03/1995","lastSample":"23/09/2025","latestBmwp":171,"indicesAvailable":8}},{"type":"Feature","geometry":{"type":"Point","coordinates":[-3.311843,54.383852]},"properties":{"siteId":"65710","name":"ESK (ESK)","catchment":"ESK (NW NORTH)","area":"NORTH WEST - NORTH","totalSamples":5,"firstSample":"01/11/2007","lastSample":"06/09/2021","latestBmwp":91,"indicesAvailable":8}},{"type":"Feature","geometry":{"type":"Point","coordinates":[-3.28282,54.391354]},"properties":{"siteId":"65999","name":"ESK (ESK)","catchment":"ESK (NW NORTH)","area":"NORTH WEST - NORTH","totalSamples":3,"firstSample":"20/03/1998","lastSample":"01/09/1999","latestBmwp":96,"indicesAvailable":8}},{"type":"Feature","geometry":{"type":"Point","coordinates":[-3.215341,54.40104]},"properties":{"siteId":"67046","name":"ESK (ESK)","catchment":"ESK (NW NORTH)","area":"NORTH WEST - NORTH","totalSamples":2,"firstSample":"31/10/2007","lastSample":"17/02/2008","latestBmwp":46,"indicesAvailable":8}},{"type":"Feature","geometry":{"type":"Point","coordinates":[-3.27515,54.392335]},"properties":{"siteId":"68564","name":"ESK (ESK)","catchment":"ESK (NW NORTH)","area":"NORTH WEST - NORTH","totalSamples":2,"firstSample":"31/10/2007","lastSample":"17/02/2008","latestBmwp":77,"indicesAvailable":8}},{"type":"Feature","geometry":{"type":"Point","coordinates":[-3.249888,54.395771]},"properties":{"siteId":"68567","name":"ESK (ESK)","catchment":"ESK (NW NORTH)","area":"NORTH WEST - NORTH","totalSamples":3,"firstSample":"31/10/2007","lastSample":"14/04/2008","latestBmwp":79,"indicesAvailable":8}},{"type":"Feature","geometry":{"type":"Point","coordinates":[-3.316231,54.376614]},"properties":{"siteId":"67997","name":"FISHER BECK","catchment":"ESK (NW NORTH)","area":"NORTH WEST - NORTH","totalSamples":3,"firstSample":"01/11/2007","lastSample":"16/04/2008","latestBmwp":99,"indicesAvailable":8}},{"type":"Feature","geometry":{"type":"Point","coordinates":[-3.478339,54.688413]},"properties":{"siteId":"63389","name":"FURNACE GILL","catchment":"SOLWAY FIRTH COASTAL STREAMS","area":"NORTH WEST - NORTH","totalSamples":6,"firstSample":"03/04/1995","lastSample":"19/10/2000","latestBmwp":63,"indicesAvailable":8}},{"type":"Feature","geometry":{"type":"Point","coordinates":[-3.51579,54.694241]},"properties":{"siteId":"65195","name":"FURNACE GILL","catchment":"SOLWAY FIRTH COASTAL STREAMS","area":"NORTH WEST - NORTH","totalSamples":7,"firstSample":"03/04/1995","lastSample":"25/10/2004","latestBmwp":16,"indicesAvailable":8}},{"type":"Feature","geometry":{"type":"Point","coordinates":[-3.144699,54.408921]},"properties":{"siteId":"67912","name":"GAITSCALE GILL","catchment":"DUDDON","area":"NORTH WEST - NORTH","totalSamples":2,"firstSample":"31/10/2007","lastSample":"17/02/2008","latestBmwp":71,"indicesAvailable":8}},{"type":"Feature","geometry":{"type":"Point","coordinates":[-3.193004,54.268244]},"properties":{"siteId":"65044","name":"GALLOPER POOL","catchment":"FURNESS STREAMS","area":"NORTH WEST - NORTH","totalSamples":12,"firstSample":"18/04/1995","lastSample":"11/09/2006","latestBmwp":92,"indicesAvailable":8}},{"type":"Feature","geometry":{"type":"Point","coordinates":[-3.247568,54.523753]},"properties":{"siteId":"64618","name":"GATESGARTHDALE BECK","catchment":"DERWENT (CUMBRIA)","area":"NORTH WEST - NORTH","totalSamples":4,"firstSample":"19/03/1998","lastSample":"23/09/1999","latestBmwp":73,"indicesAvailable":8}},{"type":"Feature","geometry":{"type":"Point","coordinates":[-3.233637,54.522907]},"properties":{"siteId":"65723","name":"GATESGARTHDALE BECK","catchment":"DERWENT (CUMBRIA)","area":"NORTH WEST - NORTH","totalSamples":7,"firstSample":"01/11/2007","lastSample":"06/10/2016","latestBmwp":125,"indicesAvailable":8}},{"type":"Feature","geometry":{"type":"Point","coordinates":[-3.051519,54.834756]},"properties":{"siteId":"153860","name":"GILL BECK","catchment":"WAMPOOL","area":"NORTH WEST - NORTH","totalSamples":4,"firstSample":"10/05/2013","lastSample":"15/10/2014","latestBmwp":148,"indicesAvailable":8}},{"type":"Feature","geometry":{"type":"Point","coordinates":[-3.321884,54.695613]},"properties":{"siteId":"64556","name":"GILL BECK (DERWENT)","catchment":"DERWENT (CUMBRIA)","area":"NORTH WEST - NORTH","totalSamples":14,"firstSample":"10/03/1995","lastSample":"28/09/2006","latestBmwp":105,"indicesAvailable":8}},{"type":"Feature","geometry":{"type":"Point","coordinates":[-3.178956,54.742923]},"properties":{"siteId":"64076","name":"GILL BECK (ELLEN)","catchment":"ELLEN","area":"NORTH WEST - NORTH","totalSamples":2,"firstSample":"28/09/1999","lastSample":"15/03/2000","latestBmwp":84,"indicesAvailable":8}},{"type":"Feature","geometry":{"type":"Point","coordinates":[-3.161744,54.738596]},"properties":{"siteId":"67009","name":"GILL BECK (ELLEN)","catchment":"ELLEN","area":"NORTH WEST - NORTH","totalSamples":1,"firstSample":"11/10/1999","lastSample":"11/10/1999","latestBmwp":130,"indicesAvailable":8}},{"type":"Feature","geometry":{"type":"Point","coordinates":[-3.166454,54.740348]},"properties":{"siteId":"68402","name":"GILL BECK (ELLEN)","catchment":"ELLEN","area":"NORTH WEST - NORTH","totalSamples":1,"firstSample":"11/10/1999","lastSample":"11/10/1999","latestBmwp":73,"indicesAvailable":8}},{"type":"Feature","geometry":{"type":"Point","coordinates":[-3.311238,54.759027]},"properties":{"siteId":"65228","name":"GILL GOODEN","catchment":"ELLEN","area":"NORTH WEST - NORTH","totalSamples":15,"firstSample":"23/03/1995","lastSample":"08/07/2013","latestBmwp":82,"indicesAvailable":8}},{"type":"Feature","geometry":{"type":"Point","coordinates":[-3.09131,54.71858]},"properties":{"siteId":"64521","name":"GLENDERAMACKIN","catchment":"DERWENT (CUMBRIA)","area":"NORTH WEST - NORTH","totalSamples":1,"firstSample":"12/06/2007","lastSample":"12/06/2007","latestBmwp":111,"indicesAvailable":8}},{"type":"Feature","geometry":{"type":"Point","coordinates":[-3.055685,54.614123]},"properties":{"siteId":"64720","name":"GLENDERAMACKIN","catchment":"DERWENT (CUMBRIA)","area":"NORTH WEST - NORTH","totalSamples":10,"firstSample":"19/03/1998","lastSample":"19/09/2016","latestBmwp":113,"indicesAvailable":8}},{"type":"Feature","geometry":{"type":"Point","coordinates":[-3.007466,54.655497]},"properties":{"siteId":"68549","name":"GLENDERAMACKIN","catchment":"DERWENT (CUMBRIA)","area":"NORTH WEST - NORTH","totalSamples":1,"firstSample":"05/07/2005","lastSample":"05/07/2005","latestBmwp":64,"indicesAvailable":8}},{"type":"Feature","geometry":{"type":"Point","coordinates":[-3.013448,54.650496]},"properties":{"siteId":"132226","name":"GLENDERAMACKIN","catchment":"DERWENT (CUMBRIA)","area":"NORTH WEST - NORTH","totalSamples":1,"firstSample":"05/07/2005","lastSample":"05/07/2005","latestBmwp":79,"indicesAvailable":8}},{"type":"Feature","geometry":{"type":"Point","coordinates":[-3.006872,54.656572]},"properties":{"siteId":"132228","name":"GLENDERAMACKIN","catchment":"DERWENT (CUMBRIA)","area":"NORTH WEST - NORTH","totalSamples":1,"firstSample":"05/07/2005","lastSample":"05/07/2005","latestBmwp":56,"indicesAvailable":8}},{"type":"Feature","geometry":{"type":"Point","coordinates":[-3.086947,54.613469]},"properties":{"siteId":"65256","name":"GLENDERATERRA BECK","catchment":"DERWENT (CUMBRIA)","area":"NORTH WEST - NORTH","totalSamples":6,"firstSample":"07/05/2013","lastSample":"19/09/2016","latestBmwp":131,"indicesAvailable":8}},{"type":"Feature","geometry":{"type":"Point","coordinates":[-3.200617,54.160313]},"properties":{"siteId":"66539","name":"GOLDMIRE BECK","catchment":"FURNESS STREAMS","area":"NORTH WEST - NORTH","totalSamples":1,"firstSample":"02/02/1999","lastSample":"02/02/1999","latestBmwp":34,"indicesAvailable":8}},{"type":"Feature","geometry":{"type":"Point","coordinates":[-3.198748,54.148647]},"properties":{"siteId":"66707","name":"GOLDMIRE BECK","catchment":"FURNESS STREAMS","area":"NORTH WEST - NORTH","totalSamples":3,"firstSample":"02/02/1999","lastSample":"06/09/2000","latestBmwp":46,"indicesAvailable":8}},{"type":"Feature","geometry":{"type":"Point","coordinates":[-3.198696,54.14685]},"properties":{"siteId":"67737","name":"GOLDMIRE BECK","catchment":"FURNESS STREAMS","area":"NORTH WEST - NORTH","totalSamples":12,"firstSample":"13/03/1995","lastSample":"21/11/2005","latestBmwp":35,"indicesAvailable":8}},{"type":"Feature","geometry":{"type":"Point","coordinates":[-3.359486,54.880237]},"properties":{"siteId":"65466","name":"GREAT GUTTER","catchment":"SOLWAY FIRTH COASTAL STREAMS","area":"NORTH WEST - NORTH","totalSamples":13,"firstSample":"16/05/1995","lastSample":"06/10/2005","latestBmwp":14,"indicesAvailable":8}},{"type":"Feature","geometry":{"type":"Point","coordinates":[-3.037667,54.433462]},"properties":{"siteId":"63497","name":"GREAT LANGDALE BECK","catchment":"LEVEN (NW - NORTH)","area":"NORTH WEST - NORTH","totalSamples":21,"firstSample":"11/04/1995","lastSample":"30/10/2022","latestBmwp":141,"indicesAvailable":8}},{"type":"Feature","geometry":{"type":"Point","coordinates":[-3.104051,54.444351]},"properties":{"siteId":"65144","name":"GREAT LANGDALE BECK","catchment":"LEVEN (NW - NORTH)","area":"NORTH WEST - NORTH","totalSamples":2,"firstSample":"07/11/2007","lastSample":"14/04/2008","latestBmwp":49,"indicesAvailable":8}},{"type":"Feature","geometry":{"type":"Point","coordinates":[-3.039025,54.434143]},"properties":{"siteId":"69511","name":"GREAT LANGDALE BECK","catchment":"LEVEN (NW - NORTH)","area":"NORTH WEST - NORTH","totalSamples":4,"firstSample":"17/12/1997","lastSample":"05/01/2000","latestBmwp":80,"indicesAvailable":8}},{"type":"Feature","geometry":{"type":"Point","coordinates":[-3.40972,54.724623]},"properties":{"siteId":"212311","name":"GREENGILL BECK","catchment":"ELLEN","area":"NORTH WEST - NORTH","totalSamples":2,"firstSample":"31/05/2023","lastSample":"15/09/2023","latestBmwp":118,"indicesAvailable":8}},{"type":"Feature","geometry":{"type":"Point","coordinates":[-3.122731,54.507091]},"properties":{"siteId":"67630","name":"GREENUP GILL","catchment":"DERWENT (CUMBRIA)","area":"NORTH WEST - NORTH","totalSamples":8,"firstSample":"20/03/1995","lastSample":"19/09/2000","latestBmwp":103,"indicesAvailable":8}},{"type":"Feature","geometry":{"type":"Point","coordinates":[-3.143948,54.603057]},"properties":{"siteId":"64621","name":"GRETA (DERWENT)","catchment":"DERWENT (CUMBRIA)","area":"NORTH WEST - NORTH","totalSamples":23,"firstSample":"03/05/1995","lastSample":"28/10/2016","latestBmwp":145,"indicesAvailable":8}},{"type":"Feature","geometry":{"type":"Point","coordinates":[-3.103068,54.610106]},"properties":{"siteId":"205911","name":"GRETA (DERWENT)","catchment":"DERWENT (CUMBRIA)","area":"NORTH WEST - NORTH","totalSamples":4,"firstSample":"15/03/2022","lastSample":"05/09/2023","latestBmwp":113,"indicesAvailable":8}},{"type":"Feature","geometry":{"type":"Point","coordinates":[-3.025879,54.339886]},"properties":{"siteId":"65056","name":"GRIZEDALE BECK","catchment":"CRAKE","area":"NORTH WEST - NORTH","totalSamples":4,"firstSample":"20/03/1998","lastSample":"19/01/2000","latestBmwp":150,"indicesAvailable":8}},{"type":"Feature","geometry":{"type":"Point","coordinates":[-3.020707,54.32049]},"properties":{"siteId":"65442","name":"GRIZEDALE BECK","catchment":"CRAKE","area":"NORTH WEST - NORTH","totalSamples":10,"firstSample":"20/03/1998","lastSample":"17/10/2017","latestBmwp":156,"indicesAvailable":8}},{"type":"Feature","geometry":{"type":"Point","coordinates":[-3.137859,54.451209]},"properties":{"siteId":"223978","name":"GRUNTING GILL","catchment":"LEVEN (NW - NORTH)","area":"NORTH WEST - NORTH","totalSamples":1,"firstSample":"21/03/2025","lastSample":"21/03/2025","latestBmwp":95,"indicesAvailable":8}},{"type":"Feature","geometry":{"type":"Point","coordinates":[-3.215288,54.399243]},"properties":{"siteId":"68609","name":"HARDKNOTT GILL (ESK)","catchment":"ESK (NW NORTH)","area":"NORTH WEST - NORTH","totalSamples":1,"firstSample":"17/02/2008","lastSample":"17/02/2008","latestBmwp":97,"indicesAvailable":8}},{"type":"Feature","geometry":{"type":"Point","coordinates":[-3.292348,54.204304]},"properties":{"siteId":"63894","name":"HAVERIGG POOL","catchment":"DUDDON","area":"NORTH WEST - NORTH","totalSamples":10,"firstSample":"24/05/2002","lastSample":"13/10/2006","latestBmwp":52,"indicesAvailable":8}},{"type":"Feature","geometry":{"type":"Point","coordinates":[-3.55946,54.572181]},"properties":{"siteId":"223391","name":"HAWKESTONE BECK","catchment":"SOLWAY FIRTH COASTAL STREAMS","area":"NORTH WEST - NORTH","totalSamples":1,"firstSample":"08/10/2025","lastSample":"08/10/2025","latestBmwp":153,"indicesAvailable":8}},{"type":"Feature","geometry":{"type":"Point","coordinates":[-3.059223,54.555971]},"properties":{"siteId":"142179","name":"HELVELLYN GILL","catchment":"DERWENT (CUMBRIA)","area":"NORTH WEST - NORTH","totalSamples":25,"firstSample":"19/07/2007","lastSample":"04/10/2018","latestBmwp":138,"indicesAvailable":8}},{"type":"Feature","geometry":{"type":"Point","coordinates":[-3.058142,54.548854]},"properties":{"siteId":"142180","name":"HELVELLYN GILL","catchment":"DERWENT (CUMBRIA)","area":"NORTH WEST - NORTH","totalSamples":26,"firstSample":"19/07/2007","lastSample":"04/10/2018","latestBmwp":151,"indicesAvailable":8}},{"type":"Feature","geometry":{"type":"Point","coordinates":[-3.057241,54.542732]},"properties":{"siteId":"147138","name":"HELVELLYN GILL","catchment":"DERWENT (CUMBRIA)","area":"NORTH WEST - NORTH","totalSamples":25,"firstSample":"19/07/2007","lastSample":"04/10/2018","latestBmwp":126,"indicesAvailable":8}},{"type":"Feature","geometry":{"type":"Point","coordinates":[-3.059141,54.561769]},"properties":{"siteId":"154668","name":"HELVELLYN GILL","catchment":"DERWENT (CUMBRIA)","area":"NORTH WEST - NORTH","totalSamples":23,"firstSample":"13/04/2010","lastSample":"04/10/2018","latestBmwp":185,"indicesAvailable":8}},{"type":"Feature","geometry":{"type":"Point","coordinates":[-3.480051,54.515342]},"properties":{"siteId":"196493","name":"HIGH MEREBECK","catchment":"EHEN","area":"NORTH WEST - NORTH","totalSamples":3,"firstSample":"28/05/2019","lastSample":"04/09/2019","latestBmwp":111,"indicesAvailable":8}},{"type":"Feature","geometry":{"type":"Point","coordinates":[-3.491619,54.517797]},"properties":{"siteId":"196494","name":"HIGH MEREBECK","catchment":"EHEN","area":"NORTH WEST - NORTH","totalSamples":3,"firstSample":"28/05/2019","lastSample":"04/09/2019","latestBmwp":131,"indicesAvailable":8}},{"type":"Feature","geometry":{"type":"Point","coordinates":[-3.458251,54.517]},"properties":{"siteId":"196495","name":"HIGH MEREBECK","catchment":"EHEN","area":"NORTH WEST - NORTH","totalSamples":3,"firstSample":"28/05/2019","lastSample":"04/09/2019","latestBmwp":160,"indicesAvailable":8}},{"type":"Feature","geometry":{"type":"Point","coordinates":[-3.386318,54.437064]},"properties":{"siteId":"216494","name":"HOLLOW MOOR BECK","catchment":"IRT","area":"NORTH WEST - NORTH","totalSamples":2,"firstSample":"06/03/2024","lastSample":"23/09/2024","latestBmwp":94,"indicesAvailable":8}},{"type":"Feature","geometry":{"type":"Point","coordinates":[-3.299231,54.826138]},"properties":{"siteId":"65230","name":"HOLME DUB","catchment":"WAVER","area":"NORTH WEST - NORTH","totalSamples":14,"firstSample":"18/04/1995","lastSample":"14/09/2016","latestBmwp":53,"indicesAvailable":8}},{"type":"Feature","geometry":{"type":"Point","coordinates":[-3.349879,54.793788]},"properties":{"siteId":"216636","name":"HOLME DUB","catchment":"WAVER","area":"NORTH WEST - NORTH","totalSamples":2,"firstSample":"12/03/2024","lastSample":"09/09/2024","latestBmwp":61,"indicesAvailable":8}},{"type":"Feature","geometry":{"type":"Point","coordinates":[-3.461934,54.534023]},"properties":{"siteId":"87998","name":"HORSE GILL","catchment":"EHEN","area":"NORTH WEST - NORTH","totalSamples":2,"firstSample":"15/05/2000","lastSample":"04/01/2001","latestBmwp":159,"indicesAvailable":8}},{"type":"Feature","geometry":{"type":"Point","coordinates":[-3.460514,54.531928]},"properties":{"siteId":"153081","name":"HORSE GILL","catchment":"EHEN","area":"NORTH WEST - NORTH","totalSamples":1,"firstSample":"28/05/2009","lastSample":"28/05/2009","latestBmwp":171,"indicesAvailable":8}},{"type":"Feature","geometry":{"type":"Point","coordinates":[-3.461951,54.536234]},"properties":{"siteId":"153082","name":"HORSE GILL","catchment":"EHEN","area":"NORTH WEST - NORTH","totalSamples":1,"firstSample":"28/05/2009","lastSample":"28/05/2009","latestBmwp":86,"indicesAvailable":8}},{"type":"Feature","geometry":{"type":"Point","coordinates":[-3.461706,54.534556]},"properties":{"siteId":"153083","name":"HORSE GILL","catchment":"EHEN","area":"NORTH WEST - NORTH","totalSamples":1,"firstSample":"28/05/2009","lastSample":"28/05/2009","latestBmwp":103,"indicesAvailable":8}},{"type":"Feature","geometry":{"type":"Point","coordinates":[-3.461237,54.533564]},"properties":{"siteId":"153084","name":"HORSE GILL","catchment":"EHEN","area":"NORTH WEST - NORTH","totalSamples":1,"firstSample":"28/05/2009","lastSample":"28/05/2009","latestBmwp":137,"indicesAvailable":8}},{"type":"Feature","geometry":{"type":"Point","coordinates":[-3.417315,54.382732]},"properties":{"siteId":"64605","name":"IRT","catchment":"IRT","area":"NORTH WEST - NORTH","totalSamples":46,"firstSample":"22/03/1995","lastSample":"17/10/2025","latestBmwp":137,"indicesAvailable":8}},{"type":"Feature","geometry":{"type":"Point","coordinates":[-3.345478,54.421653]},"properties":{"siteId":"64617","name":"IRT","catchment":"IRT","area":"NORTH WEST - NORTH","totalSamples":25,"firstSample":"20/03/1998","lastSample":"13/10/2025","latestBmwp":109,"indicesAvailable":8}},{"type":"Feature","geometry":{"type":"Point","coordinates":[-3.372475,54.401154]},"properties":{"siteId":"66552","name":"IRT","catchment":"IRT","area":"NORTH WEST - NORTH","totalSamples":5,"firstSample":"20/03/1998","lastSample":"26/03/2002","latestBmwp":152,"indicesAvailable":8}},{"type":"Feature","geometry":{"type":"Point","coordinates":[-3.325248,54.424708]},"properties":{"siteId":"161385","name":"IRT","catchment":"IRT","area":"NORTH WEST - NORTH","totalSamples":2,"firstSample":"31/05/2013","lastSample":"10/07/2013","latestBmwp":97,"indicesAvailable":8}},{"type":"Feature","geometry":{"type":"Point","coordinates":[-3.416468,54.379156]},"properties":{"siteId":"216492","name":"IRT","catchment":"IRT","area":"NORTH WEST - NORTH","totalSamples":3,"firstSample":"29/04/2024","lastSample":"14/05/2025","latestBmwp":164,"indicesAvailable":8}},{"type":"Feature","geometry":{"type":"Point","coordinates":[-3.514511,54.576518]},"properties":{"siteId":"63529","name":"KEEKLE","catchment":"EHEN","area":"NORTH WEST - NORTH","totalSamples":4,"firstSample":"12/03/1999","lastSample":"24/11/2000","latestBmwp":132,"indicesAvailable":8}},{"type":"Feature","geometry":{"type":"Point","coordinates":[-3.527221,54.502658]},"properties":{"siteId":"63584","name":"KEEKLE","catchment":"EHEN","area":"NORTH WEST - NORTH","totalSamples":23,"firstSample":"21/03/1995","lastSample":"17/10/2014","latestBmwp":101,"indicesAvailable":8}},{"type":"Feature","geometry":{"type":"Point","coordinates":[-3.535294,54.553193]},"properties":{"siteId":"63715","name":"KEEKLE","catchment":"EHEN","area":"NORTH WEST - NORTH","totalSamples":19,"firstSample":"21/03/1995","lastSample":"06/04/2018","latestBmwp":127,"indicesAvailable":8}},{"type":"Feature","geometry":{"type":"Point","coordinates":[-3.537393,54.526796]},"properties":{"siteId":"67210","name":"KEEKLE","catchment":"EHEN","area":"NORTH WEST - NORTH","totalSamples":12,"firstSample":"12/05/1994","lastSample":"18/11/2005","latestBmwp":136,"indicesAvailable":8}},{"type":"Feature","geometry":{"type":"Point","coordinates":[-3.506845,54.578411]},"properties":{"siteId":"68586","name":"KEEKLE","catchment":"EHEN","area":"NORTH WEST - NORTH","totalSamples":13,"firstSample":"25/05/1994","lastSample":"20/09/2007","latestBmwp":156,"indicesAvailable":8}},{"type":"Feature","geometry":{"type":"Point","coordinates":[-3.532225,54.553825]},"properties":{"siteId":"68633","name":"KEEKLE","catchment":"EHEN","area":"NORTH WEST - NORTH","totalSamples":5,"firstSample":"25/05/1994","lastSample":"24/11/2000","latestBmwp":144,"indicesAvailable":8}},{"type":"Feature","geometry":{"type":"Point","coordinates":[-3.541358,54.549584]},"properties":{"siteId":"191091","name":"KEEKLE","catchment":"EHEN","area":"NORTH WEST - NORTH","totalSamples":1,"firstSample":"06/04/2018","lastSample":"06/04/2018","latestBmwp":160,"indicesAvailable":8}},{"type":"Feature","geometry":{"type":"Point","coordinates":[-3.540437,54.544005]},"properties":{"siteId":"191092","name":"KEEKLE","catchment":"EHEN","area":"NORTH WEST - NORTH","totalSamples":1,"firstSample":"06/04/2018","lastSample":"06/04/2018","latestBmwp":172,"indicesAvailable":8}},{"type":"Feature","geometry":{"type":"Point","coordinates":[-3.532828,54.541046]},"properties":{"siteId":"191093","name":"KEEKLE","catchment":"EHEN","area":"NORTH WEST - NORTH","totalSamples":1,"firstSample":"06/04/2018","lastSample":"06/04/2018","latestBmwp":155,"indicesAvailable":8}},{"type":"Feature","geometry":{"type":"Point","coordinates":[-3.531332,54.537838]},"properties":{"siteId":"191094","name":"KEEKLE","catchment":"EHEN","area":"NORTH WEST - NORTH","totalSamples":1,"firstSample":"06/04/2018","lastSample":"06/04/2018","latestBmwp":139,"indicesAvailable":8}},{"type":"Feature","geometry":{"type":"Point","coordinates":[-3.367182,54.427279]},"properties":{"siteId":"64109","name":"KID BECK","catchment":"IRT","area":"NORTH WEST - NORTH","totalSamples":4,"firstSample":"20/03/1998","lastSample":"07/09/1999","latestBmwp":181,"indicesAvailable":8}},{"type":"Feature","geometry":{"type":"Point","coordinates":[-3.371808,54.288812]},"properties":{"siteId":"67188","name":"KINMONT BECK","catchment":"ANNAS","area":"NORTH WEST - NORTH","totalSamples":17,"firstSample":"03/03/1995","lastSample":"19/11/2008","latestBmwp":163,"indicesAvailable":8}},{"type":"Feature","geometry":{"type":"Point","coordinates":[-3.525411,54.439962]},"properties":{"siteId":"67920","name":"KIRK BECK (EHEN)","catchment":"EHEN","area":"NORTH WEST - NORTH","totalSamples":13,"firstSample":"21/03/1995","lastSample":"20/11/2014","latestBmwp":147,"indicesAvailable":8}},{"type":"Feature","geometry":{"type":"Point","coordinates":[-3.500725,54.463622]},"properties":{"siteId":"145561","name":"KIRK BECK (EHEN)","catchment":"EHEN","area":"NORTH WEST - NORTH","totalSamples":1,"firstSample":"21/05/2007","lastSample":"21/05/2007","latestBmwp":151,"indicesAvailable":8}},{"type":"Feature","geometry":{"type":"Point","coordinates":[-3.500196,54.463081]},"properties":{"siteId":"145562","name":"KIRK BECK (EHEN)","catchment":"EHEN","area":"NORTH WEST - NORTH","totalSamples":1,"firstSample":"21/05/2007","lastSample":"21/05/2007","latestBmwp":121,"indicesAvailable":8}},{"type":"Feature","geometry":{"type":"Point","coordinates":[-3.497864,54.465977]},"properties":{"siteId":"216715","name":"KIRK BECK (EHEN)","catchment":"EHEN","area":"NORTH WEST - NORTH","totalSamples":3,"firstSample":"03/04/2024","lastSample":"18/03/2025","latestBmwp":65,"indicesAvailable":8}},{"type":"Feature","geometry":{"type":"Point","coordinates":[-3.16621,54.298166]},"properties":{"siteId":"65432","name":"KIRKBY POOL","catchment":"FURNESS STREAMS","area":"NORTH WEST - NORTH","totalSamples":3,"firstSample":"17/12/1998","lastSample":"26/01/2000","latestBmwp":94,"indicesAvailable":8}},{"type":"Feature","geometry":{"type":"Point","coordinates":[-3.181115,54.265431]},"properties":{"siteId":"66752","name":"KIRKBY POOL","catchment":"FURNESS STREAMS","area":"NORTH WEST - NORTH","totalSamples":21,"firstSample":"18/04/1995","lastSample":"15/09/2015","latestBmwp":85,"indicesAvailable":8}},{"type":"Feature","geometry":{"type":"Point","coordinates":[-3.160191,54.73861]},"properties":{"siteId":"67008","name":"KITTY BECK","catchment":"ELLEN","area":"NORTH WEST - NORTH","totalSamples":1,"firstSample":"11/10/1999","lastSample":"11/10/1999","latestBmwp":126,"indicesAvailable":8}},{"type":"Feature","geometry":{"type":"Point","coordinates":[-3.365317,54.339623]},"properties":{"siteId":"160798","name":"LATTERBARROW BECK","catchment":"ESK (NW NORTH)","area":"NORTH WEST - NORTH","totalSamples":3,"firstSample":"30/04/2013","lastSample":"14/05/2015","latestBmwp":162,"indicesAvailable":8}},{"type":"Feature","geometry":{"type":"Point","coordinates":[-3.438351,54.485278]},"properties":{"siteId":"201913","name":"LATTERBARROW BECK","catchment":"CALDER (CUMBRIA)","area":"NORTH WEST - NORTH","totalSamples":4,"firstSample":"10/03/2021","lastSample":"08/09/2022","latestBmwp":87,"indicesAvailable":8}},{"type":"Feature","geometry":{"type":"Point","coordinates":[-3.374528,54.738167]},"properties":{"siteId":"80516","name":"LEATHERSGILL BECK","catchment":"ELLEN","area":"NORTH WEST - NORTH","totalSamples":1,"firstSample":"18/02/2002","lastSample":"18/02/2002","latestBmwp":178,"indicesAvailable":8}},{"type":"Feature","geometry":{"type":"Point","coordinates":[-3.005955,54.244506]},"properties":{"siteId":"69182","name":"LEVEN","catchment":"LEVEN (NW - NORTH)","area":"NORTH WEST - NORTH","totalSamples":35,"firstSample":"06/04/1995","lastSample":"31/10/2019","latestBmwp":132,"indicesAvailable":8}},{"type":"Feature","geometry":{"type":"Point","coordinates":[-3.102266,54.377859]},"properties":{"siteId":"67646","name":"LEVERS WATER BECK","catchment":"CRAKE","area":"NORTH WEST - NORTH","totalSamples":11,"firstSample":"25/04/1995","lastSample":"12/04/2007","latestBmwp":48,"indicesAvailable":8}},{"type":"Feature","geometry":{"type":"Point","coordinates":[-3.107139,54.381589]},"properties":{"siteId":"154258","name":"LEVERS WATER BECK","catchment":"CRAKE","area":"NORTH WEST - NORTH","totalSamples":2,"firstSample":"24/08/2009","lastSample":"08/10/2015","latestBmwp":64,"indicesAvailable":8}},{"type":"Feature","geometry":{"type":"Point","coordinates":[-3.102876,54.377674]},"properties":{"siteId":"154259","name":"LEVERS WATER BECK","catchment":"CRAKE","area":"NORTH WEST - NORTH","totalSamples":2,"firstSample":"24/08/2009","lastSample":"08/10/2015","latestBmwp":44,"indicesAvailable":8}},{"type":"Feature","geometry":{"type":"Point","coordinates":[-3.090951,54.375005]},"properties":{"siteId":"154598","name":"LEVERS WATER BECK","catchment":"CRAKE","area":"NORTH WEST - NORTH","totalSamples":2,"firstSample":"26/06/2009","lastSample":"08/10/2015","latestBmwp":57,"indicesAvailable":8}},{"type":"Feature","geometry":{"type":"Point","coordinates":[-3.099205,54.377411]},"properties":{"siteId":"154624","name":"LEVERS WATER BECK","catchment":"CRAKE","area":"NORTH WEST - NORTH","totalSamples":2,"firstSample":"26/06/2009","lastSample":"08/10/2015","latestBmwp":77,"indicesAvailable":8}},{"type":"Feature","geometry":{"type":"Point","coordinates":[-3.076721,54.19048]},"properties":{"siteId":"69181","name":"LEVY (DRAGLEY) BECK","catchment":"LEVY (DRAGLEY) BECK","area":"NORTH WEST - NORTH","totalSamples":40,"firstSample":"07/04/1995","lastSample":"19/09/2019","latestBmwp":112,"indicesAvailable":8}},{"type":"Feature","geometry":{"type":"Point","coordinates":[-3.140423,54.193516]},"properties":{"siteId":"186185","name":"LEVY (PENNINGTON) BECK","catchment":"LEVY (DRAGLEY) BECK","area":"NORTH WEST - NORTH","totalSamples":7,"firstSample":"31/10/2016","lastSample":"07/11/2018","latestBmwp":136,"indicesAvailable":8}},{"type":"Feature","geometry":{"type":"Point","coordinates":[-3.11256,54.189022]},"properties":{"siteId":"64055","name":"LEVY BECK","catchment":"LEVY (DRAGLEY) BECK","area":"NORTH WEST - NORTH","totalSamples":3,"firstSample":"22/05/1998","lastSample":"19/01/2000","latestBmwp":108,"indicesAvailable":8}},{"type":"Feature","geometry":{"type":"Point","coordinates":[-3.086513,54.18926]},"properties":{"siteId":"64650","name":"LEVY BECK","catchment":"LEVY (DRAGLEY) BECK","area":"NORTH WEST - NORTH","totalSamples":2,"firstSample":"21/05/1998","lastSample":"09/04/1999","latestBmwp":103,"indicesAvailable":8}},{"type":"Feature","geometry":{"type":"Point","coordinates":[-3.088045,54.189246]},"properties":{"siteId":"69596","name":"LEVY BECK","catchment":"LEVY (DRAGLEY) BECK","area":"NORTH WEST - NORTH","totalSamples":2,"firstSample":"21/05/1998","lastSample":"09/04/1999","latestBmwp":114,"indicesAvailable":8}},{"type":"Feature","geometry":{"type":"Point","coordinates":[-3.208722,54.297963]},"properties":{"siteId":"65071","name":"LICKLE","catchment":"DUDDON","area":"NORTH WEST - NORTH","totalSamples":14,"firstSample":"12/04/1995","lastSample":"05/11/2013","latestBmwp":143,"indicesAvailable":8}},{"type":"Feature","geometry":{"type":"Point","coordinates":[-3.323781,54.372038]},"properties":{"siteId":"65720","name":"LINBECK GILL","catchment":"ESK (NW NORTH)","area":"NORTH WEST - NORTH","totalSamples":3,"firstSample":"01/11/2007","lastSample":"16/04/2008","latestBmwp":129,"indicesAvailable":8}},{"type":"Feature","geometry":{"type":"Point","coordinates":[-3.241267,54.470377]},"properties":{"siteId":"201914","name":"LINGMELL BECK","catchment":"IRT","area":"NORTH WEST - NORTH","totalSamples":2,"firstSample":"16/04/2021","lastSample":"08/09/2021","latestBmwp":33,"indicesAvailable":8}},{"type":"Feature","geometry":{"type":"Point","coordinates":[-3.210097,54.797438]},"properties":{"siteId":"65522","name":"LITTLE WAVER","catchment":"WAVER","area":"NORTH WEST - NORTH","totalSamples":9,"firstSample":"03/05/1995","lastSample":"10/09/2004","latestBmwp":139,"indicesAvailable":8}},{"type":"Feature","geometry":{"type":"Point","coordinates":[-3.185764,54.77548]},"properties":{"siteId":"223896","name":"LITTLE WAVER","catchment":"WAVER","area":"NORTH WEST - NORTH","totalSamples":1,"firstSample":"01/04/2025","lastSample":"01/04/2025","latestBmwp":124,"indicesAvailable":8}},{"type":"Feature","geometry":{"type":"Point","coordinates":[-3.339208,54.514773]},"properties":{"siteId":"63372","name":"LIZA","catchment":"EHEN","area":"NORTH WEST - NORTH","totalSamples":31,"firstSample":"22/03/1995","lastSample":"22/09/2021","latestBmwp":136,"indicesAvailable":8}},{"type":"Feature","geometry":{"type":"Point","coordinates":[-3.141581,54.712005]},"properties":{"siteId":"63687","name":"LONGLANDS BECK","catchment":"ELLEN","area":"NORTH WEST - NORTH","totalSamples":1,"firstSample":"11/01/2001","lastSample":"11/01/2001","latestBmwp":120,"indicesAvailable":8}},{"type":"Feature","geometry":{"type":"Point","coordinates":[-3.144234,54.71252]},"properties":{"siteId":"63968","name":"LONGLANDS BECK","catchment":"ELLEN","area":"NORTH WEST - NORTH","totalSamples":1,"firstSample":"11/01/2001","lastSample":"11/01/2001","latestBmwp":109,"indicesAvailable":8}},{"type":"Feature","geometry":{"type":"Point","coordinates":[-3.465324,54.648396]},"properties":{"siteId":"68613","name":"LOSTRIGG BECK","catchment":"DERWENT (CUMBRIA)","area":"NORTH WEST - NORTH","totalSamples":15,"firstSample":"14/03/1995","lastSample":"03/10/2016","latestBmwp":122,"indicesAvailable":8}},{"type":"Feature","geometry":{"type":"Point","coordinates":[-3.479659,54.620216]},"properties":{"siteId":"216712","name":"LOSTRIGG BECK","catchment":"DERWENT (CUMBRIA)","area":"NORTH WEST - NORTH","totalSamples":2,"firstSample":"08/03/2024","lastSample":"12/09/2024","latestBmwp":137,"indicesAvailable":8}},{"type":"Feature","geometry":{"type":"Point","coordinates":[-3.103805,54.377845]},"properties":{"siteId":"67634","name":"LOW WATER BECK","catchment":"CRAKE","area":"NORTH WEST - NORTH","totalSamples":2,"firstSample":"14/04/1998","lastSample":"07/06/1999","latestBmwp":35,"indicesAvailable":8}},{"type":"Feature","geometry":{"type":"Point","coordinates":[-3.10349,54.377578]},"properties":{"siteId":"154257","name":"LOW WATER BECK","catchment":"CRAKE","area":"NORTH WEST - NORTH","totalSamples":1,"firstSample":"08/10/2015","lastSample":"08/10/2015","latestBmwp":79,"indicesAvailable":8}},{"type":"Feature","geometry":{"type":"Point","coordinates":[-3.580971,54.574769]},"properties":{"siteId":"65171","name":"LOWCA BECK","catchment":"SOLWAY FIRTH COASTAL STREAMS","area":"NORTH WEST - NORTH","totalSamples":10,"firstSample":"06/03/1995","lastSample":"11/10/2004","latestBmwp":62,"indicesAvailable":8}},{"type":"Feature","geometry":{"type":"Point","coordinates":[-3.086607,54.192854]},"properties":{"siteId":"64651","name":"LUND BECK","catchment":"LEVY (DRAGLEY) BECK","area":"NORTH WEST - NORTH","totalSamples":2,"firstSample":"22/05/1998","lastSample":"08/04/1999","latestBmwp":138,"indicesAvailable":8}},{"type":"Feature","geometry":{"type":"Point","coordinates":[-3.088163,54.193739]},"properties":{"siteId":"69597","name":"LUND BECK","catchment":"LEVY (DRAGLEY) BECK","area":"NORTH WEST - NORTH","totalSamples":2,"firstSample":"22/05/1998","lastSample":"08/04/1999","latestBmwp":149,"indicesAvailable":8}},{"type":"Feature","geometry":{"type":"Point","coordinates":[-3.464542,54.649934]},"properties":{"siteId":"63621","name":"MARRON","catchment":"DERWENT (CUMBRIA)","area":"NORTH WEST - NORTH","totalSamples":21,"firstSample":"14/03/1995","lastSample":"19/09/2008","latestBmwp":157,"indicesAvailable":8}},{"type":"Feature","geometry":{"type":"Point","coordinates":[-3.443532,54.58188]},"properties":{"siteId":"63720","name":"MARRON","catchment":"DERWENT (CUMBRIA)","area":"NORTH WEST - NORTH","totalSamples":14,"firstSample":"14/03/1995","lastSample":"19/09/2008","latestBmwp":137,"indicesAvailable":8}},{"type":"Feature","geometry":{"type":"Point","coordinates":[-3.458956,54.635459]},"properties":{"siteId":"134521","name":"MARRON","catchment":"DERWENT (CUMBRIA)","area":"NORTH WEST - NORTH","totalSamples":5,"firstSample":"18/03/2013","lastSample":"03/10/2016","latestBmwp":144,"indicesAvailable":8}},{"type":"Feature","geometry":{"type":"Point","coordinates":[-3.34435,54.25378]},"properties":{"siteId":"201890","name":"MILLERGILL BECK","catchment":"ANNAS","area":"NORTH WEST - NORTH","totalSamples":3,"firstSample":"15/03/2021","lastSample":"29/09/2025","latestBmwp":81,"indicesAvailable":8}},{"type":"Feature","geometry":{"type":"Point","coordinates":[-3.385423,54.762031]},"properties":{"siteId":"163619","name":"MISC TRIBUTARY OF PATTEN BECK","catchment":"SOLWAY FIRTH COASTAL STREAMS","area":"NORTH WEST - NORTH","totalSamples":1,"firstSample":"25/04/2013","lastSample":"25/04/2013","latestBmwp":83,"indicesAvailable":8}},{"type":"Feature","geometry":{"type":"Point","coordinates":[-3.391007,54.761715]},"properties":{"siteId":"163620","name":"MISC TRIBUTARY OF PATTEN BECK","catchment":"SOLWAY FIRTH COASTAL STREAMS","area":"NORTH WEST - NORTH","totalSamples":1,"firstSample":"25/04/2013","lastSample":"25/04/2013","latestBmwp":71,"indicesAvailable":8}},{"type":"Feature","geometry":{"type":"Point","coordinates":[-3.095253,54.379909]},"properties":{"siteId":"154620","name":"MISCELLANEOUS TRIBUTARY OF RED DELL BECK","catchment":"CRAKE","area":"NORTH WEST - NORTH","totalSamples":1,"firstSample":"08/10/2015","lastSample":"08/10/2015","latestBmwp":31,"indicesAvailable":8}},{"type":"Feature","geometry":{"type":"Point","coordinates":[-3.394415,54.366748]},"properties":{"siteId":"64528","name":"MITE","catchment":"MITE","area":"NORTH WEST - NORTH","totalSamples":18,"firstSample":"03/03/1995","lastSample":"13/10/2006","latestBmwp":119,"indicesAvailable":8}},{"type":"Feature","geometry":{"type":"Point","coordinates":[-3.367249,54.383912]},"properties":{"siteId":"160794","name":"MITE","catchment":"MITE","area":"NORTH WEST - NORTH","totalSamples":4,"firstSample":"29/04/2013","lastSample":"29/09/2015","latestBmwp":114,"indicesAvailable":8}},{"type":"Feature","geometry":{"type":"Point","coordinates":[-3.163081,54.40515]},"properties":{"siteId":"67910","name":"MOASDALE BECK","catchment":"DUDDON","area":"NORTH WEST - NORTH","totalSamples":2,"firstSample":"31/10/2007","lastSample":"17/02/2008","latestBmwp":38,"indicesAvailable":8}},{"type":"Feature","geometry":{"type":"Point","coordinates":[-3.162749,54.405908]},"properties":{"siteId":"208812","name":"MOASDALE BECK","catchment":"DUDDON","area":"NORTH WEST - NORTH","totalSamples":2,"firstSample":"25/03/2022","lastSample":"31/10/2022","latestBmwp":62,"indicesAvailable":8}},{"type":"Feature","geometry":{"type":"Point","coordinates":[-3.002109,54.626783]},"properties":{"siteId":"64678","name":"MOSEDALE BECK (DERWENT)","catchment":"DERWENT (CUMBRIA)","area":"NORTH WEST - NORTH","totalSamples":13,"firstSample":"10/03/1995","lastSample":"03/10/2007","latestBmwp":128,"indicesAvailable":8}},{"type":"Feature","geometry":{"type":"Point","coordinates":[-3.336542,54.57502]},"properties":{"siteId":"67719","name":"MOSEDALE BECK (DERWENT)","catchment":"DERWENT (CUMBRIA)","area":"NORTH WEST - NORTH","totalSamples":10,"firstSample":"14/03/1995","lastSample":"13/10/2004","latestBmwp":154,"indicesAvailable":8}},{"type":"Feature","geometry":{"type":"Point","coordinates":[-3.335281,54.559647]},"properties":{"siteId":"201915","name":"MOSEDALE BECK (DERWENT)","catchment":"DERWENT (CUMBRIA)","area":"NORTH WEST - NORTH","totalSamples":4,"firstSample":"15/04/2021","lastSample":"31/10/2022","latestBmwp":99,"indicesAvailable":8}},{"type":"Feature","geometry":{"type":"Point","coordinates":[-3.00042,54.59962]},"properties":{"siteId":"205912","name":"MOSEDALE BECK (DERWENT)","catchment":"DERWENT (CUMBRIA)","area":"NORTH WEST - NORTH","totalSamples":2,"firstSample":"28/03/2022","lastSample":"21/09/2022","latestBmwp":99,"indicesAvailable":8}},{"type":"Feature","geometry":{"type":"Point","coordinates":[-3.260363,54.462594]},"properties":{"siteId":"63638","name":"MOSEDALE BECK (IRT)","catchment":"IRT","area":"NORTH WEST - NORTH","totalSamples":19,"firstSample":"14/03/1995","lastSample":"12/09/2025","latestBmwp":92,"indicesAvailable":8}},{"type":"Feature","geometry":{"type":"Point","coordinates":[-3.08516,54.604498]},"properties":{"siteId":"63856","name":"NADDLE BECK (DERWENT)","catchment":"DERWENT (CUMBRIA)","area":"NORTH WEST - NORTH","totalSamples":18,"firstSample":"06/03/1995","lastSample":"28/10/2016","latestBmwp":170,"indicesAvailable":8}},{"type":"Feature","geometry":{"type":"Point","coordinates":[-3.083995,54.576396]},"properties":{"siteId":"158913","name":"NADDLE BECK (DERWENT)","catchment":"DERWENT (CUMBRIA)","area":"NORTH WEST - NORTH","totalSamples":1,"firstSample":"30/08/2011","lastSample":"30/08/2011","latestBmwp":104,"indicesAvailable":8}},{"type":"Feature","geometry":{"type":"Point","coordinates":[-3.086425,54.585182]},"properties":{"siteId":"158914","name":"NADDLE BECK (DERWENT)","catchment":"DERWENT (CUMBRIA)","area":"NORTH WEST - NORTH","totalSamples":1,"firstSample":"30/08/2011","lastSample":"30/08/2011","latestBmwp":139,"indicesAvailable":8}},{"type":"Feature","geometry":{"type":"Point","coordinates":[-3.091963,54.592025]},"properties":{"siteId":"158915","name":"NADDLE BECK (DERWENT)","catchment":"DERWENT (CUMBRIA)","area":"NORTH WEST - NORTH","totalSamples":1,"firstSample":"30/08/2011","lastSample":"30/08/2011","latestBmwp":90,"indicesAvailable":8}},{"type":"Feature","geometry":{"type":"Point","coordinates":[-3.500578,54.407719]},"properties":{"siteId":"67898","name":"NEW MILLS BECK","catchment":"CALDER (CUMBRIA)","area":"NORTH WEST - NORTH","totalSamples":11,"firstSample":"07/03/1995","lastSample":"03/11/2004","latestBmwp":134,"indicesAvailable":8}},{"type":"Feature","geometry":{"type":"Point","coordinates":[-3.071146,54.208991]},"properties":{"siteId":"64917","name":"NEWLAND BECK","catchment":"CRAKE","area":"NORTH WEST - NORTH","totalSamples":41,"firstSample":"07/04/1995","lastSample":"17/10/2019","latestBmwp":137,"indicesAvailable":8}},{"type":"Feature","geometry":{"type":"Point","coordinates":[-3.045272,54.373091]},"properties":{"siteId":"217194","name":"NEWLAND BECK","catchment":"CRAKE","area":"NORTH WEST - NORTH","totalSamples":2,"firstSample":"15/03/2024","lastSample":"13/09/2024","latestBmwp":130,"indicesAvailable":8}},{"type":"Feature","geometry":{"type":"Point","coordinates":[-3.183535,54.580208]},"properties":{"siteId":"65480","name":"NEWLANDS BECK","catchment":"DERWENT (CUMBRIA)","area":"NORTH WEST - NORTH","totalSamples":5,"firstSample":"17/03/1998","lastSample":"14/08/2003","latestBmwp":147,"indicesAvailable":8}},{"type":"Feature","geometry":{"type":"Point","coordinates":[-3.176715,54.602321]},"properties":{"siteId":"65698","name":"NEWLANDS BECK","catchment":"DERWENT (CUMBRIA)","area":"NORTH WEST - NORTH","totalSamples":27,"firstSample":"06/03/1995","lastSample":"19/09/2016","latestBmwp":94,"indicesAvailable":8}},{"type":"Feature","geometry":{"type":"Point","coordinates":[-3.18629,54.568498]},"properties":{"siteId":"90583","name":"NEWLANDS BECK","catchment":"DERWENT (CUMBRIA)","area":"NORTH WEST - NORTH","totalSamples":1,"firstSample":"14/08/2003","lastSample":"14/08/2003","latestBmwp":119,"indicesAvailable":8}},{"type":"Feature","geometry":{"type":"Point","coordinates":[-3.184756,54.568962]},"properties":{"siteId":"90584","name":"NEWLANDS BECK","catchment":"DERWENT (CUMBRIA)","area":"NORTH WEST - NORTH","totalSamples":1,"firstSample":"14/08/2003","lastSample":"14/08/2003","latestBmwp":101,"indicesAvailable":8}},{"type":"Feature","geometry":{"type":"Point","coordinates":[-3.189825,54.564032]},"properties":{"siteId":"159103","name":"NEWLANDS BECK","catchment":"DERWENT (CUMBRIA)","area":"NORTH WEST - NORTH","totalSamples":1,"firstSample":"07/11/2012","lastSample":"07/11/2012","latestBmwp":120,"indicesAvailable":8}},{"type":"Feature","geometry":{"type":"Point","coordinates":[-3.325044,54.572549]},"properties":{"siteId":"65222","name":"PARK BECK (DERWENT)","catchment":"DERWENT (CUMBRIA)","area":"NORTH WEST - NORTH","totalSamples":18,"firstSample":"14/03/1995","lastSample":"10/10/2016","latestBmwp":70,"indicesAvailable":8}},{"type":"Feature","geometry":{"type":"Point","coordinates":[-3.389517,54.767655]},"properties":{"siteId":"64565","name":"PATTEN BECK","catchment":"SOLWAY FIRTH COASTAL STREAMS","area":"NORTH WEST - NORTH","totalSamples":9,"firstSample":"03/04/1995","lastSample":"07/11/2006","latestBmwp":43,"indicesAvailable":8}},{"type":"Feature","geometry":{"type":"Point","coordinates":[-3.386281,54.762578]},"properties":{"siteId":"163561","name":"PATTEN BECK","catchment":"SOLWAY FIRTH COASTAL STREAMS","area":"NORTH WEST - NORTH","totalSamples":1,"firstSample":"25/04/2013","lastSample":"25/04/2013","latestBmwp":135,"indicesAvailable":8}},{"type":"Feature","geometry":{"type":"Point","coordinates":[-3.196181,54.112721]},"properties":{"siteId":"64113","name":"POAKA BECK","catchment":"FURNESS STREAMS","area":"NORTH WEST - NORTH","totalSamples":24,"firstSample":"23/06/1992","lastSample":"11/10/2006","latestBmwp":30,"indicesAvailable":8}},{"type":"Feature","geometry":{"type":"Point","coordinates":[-3.197226,54.147368]},"properties":{"siteId":"67545","name":"POAKA BECK","catchment":"FURNESS STREAMS","area":"NORTH WEST - NORTH","totalSamples":22,"firstSample":"13/03/1995","lastSample":"25/10/2016","latestBmwp":91,"indicesAvailable":8}},{"type":"Feature","geometry":{"type":"Point","coordinates":[-3.196402,54.116152]},"properties":{"siteId":"69447","name":"POAKA BECK","catchment":"FURNESS STREAMS","area":"NORTH WEST - NORTH","totalSamples":7,"firstSample":"04/06/1998","lastSample":"27/11/2001","latestBmwp":46,"indicesAvailable":8}},{"type":"Feature","geometry":{"type":"Point","coordinates":[-3.163022,54.191017]},"properties":{"siteId":"69666","name":"POAKA BECK","catchment":"FURNESS STREAMS","area":"NORTH WEST - NORTH","totalSamples":10,"firstSample":"26/04/1995","lastSample":"12/10/2004","latestBmwp":153,"indicesAvailable":8}},{"type":"Feature","geometry":{"type":"Point","coordinates":[-3.166262,54.188514]},"properties":{"siteId":"161386","name":"POAKA BECK (MILL BECK)","catchment":"FURNESS STREAMS","area":"NORTH WEST - NORTH","totalSamples":3,"firstSample":"15/03/2013","lastSample":"07/10/2013","latestBmwp":126,"indicesAvailable":8}},{"type":"Feature","geometry":{"type":"Point","coordinates":[-3.591737,54.493736]},"properties":{"siteId":"64445","name":"POW BECK","catchment":"SOLWAY FIRTH COASTAL STREAMS","area":"NORTH WEST - NORTH","totalSamples":5,"firstSample":"02/03/1999","lastSample":"02/11/2001","latestBmwp":108,"indicesAvailable":8}},{"type":"Feature","geometry":{"type":"Point","coordinates":[-3.570855,54.512884]},