{"type":"FeatureCollection","features":[{"type":"Feature","geometry":{"type":"Point","coordinates":[1.738546,53.369834]},"properties":{"siteId":"1677","name":"Carlton Coalville","waterbody":"GB105034045900","region":"Anglian","area":"Eastern","totalSurveys":4,"speciesCount":8,"firstSurvey":"13/10/1987","lastSurvey":"30/09/1999"}},{"type":"Feature","geometry":{"type":"Point","coordinates":[1.637137,53.362178]},"properties":{"siteId":"1671","name":"D/S A146 Bridge","waterbody":"GB105034045900","region":"Anglian","area":"Eastern","totalSurveys":3,"speciesCount":8,"firstSurvey":"15/10/1987","lastSurvey":"01/10/1999"}},{"type":"Feature","geometry":{"type":"Point","coordinates":[1.719806,53.413591]},"properties":{"siteId":"1681","name":"D/S Landspring Beck","waterbody":"GB105034050990","region":"Anglian","area":"Eastern","totalSurveys":4,"speciesCount":6,"firstSurvey":"12/10/1987","lastSurvey":"29/09/1999"}},{"type":"Feature","geometry":{"type":"Point","coordinates":[1.640902,53.371057]},"properties":{"siteId":"1672","name":"D/S Pink House","waterbody":"GB105034045900","region":"Anglian","area":"Eastern","totalSurveys":3,"speciesCount":8,"firstSurvey":"15/10/1987","lastSurvey":"01/10/1999"}},{"type":"Feature","geometry":{"type":"Point","coordinates":[1.683856,53.363442]},"properties":{"siteId":"1675","name":"D/S Worlingham Road End","waterbody":"GB105034045900","region":"Anglian","area":"Eastern","totalSurveys":3,"speciesCount":9,"firstSurvey":"14/10/1987","lastSurvey":"05/10/1999"}},{"type":"Feature","geometry":{"type":"Point","coordinates":[1.697041,53.359436]},"properties":{"siteId":"1676","name":"North Cove","waterbody":"GB105034045900","region":"Anglian","area":"Eastern","totalSurveys":3,"speciesCount":7,"firstSurvey":"14/10/1987","lastSurvey":"30/09/1999"}},{"type":"Feature","geometry":{"type":"Point","coordinates":[1.759307,53.383572]},"properties":{"siteId":"1679","name":"Oulton Dyke","waterbody":"GB105034045900","region":"Anglian","area":"Eastern","totalSurveys":3,"speciesCount":10,"firstSurvey":"13/10/1987","lastSurvey":"30/09/1999"}},{"type":"Feature","geometry":{"type":"Point","coordinates":[1.656132,53.373289]},"properties":{"siteId":"1673","name":"Truckers Knoll","waterbody":"GB105034045900","region":"Anglian","area":"Eastern","totalSurveys":4,"speciesCount":7,"firstSurvey":"14/10/1987","lastSurvey":"05/10/1999"}},{"type":"Feature","geometry":{"type":"Point","coordinates":[1.704072,53.423075]},"properties":{"siteId":"1682","name":"U/S Haddiscoe Bridge","waterbody":"GB105034050980","region":"Anglian","area":"Eastern","totalSurveys":4,"speciesCount":5,"firstSurvey":"12/10/1987","lastSurvey":"29/09/1999"}},{"type":"Feature","geometry":{"type":"Point","coordinates":[1.753148,53.381967]},"properties":{"siteId":"1678","name":"U/S Oulton Dyke","waterbody":null,"region":"Anglian","area":"Eastern","totalSurveys":4,"speciesCount":8,"firstSurvey":"13/10/1987","lastSurvey":"30/09/1999"}},{"type":"Feature","geometry":{"type":"Point","coordinates":[1.688487,53.434351]},"properties":{"siteId":"1667","name":"335","waterbody":null,"region":"Anglian","area":"Eastern","totalSurveys":1,"speciesCount":4,"firstSurvey":"05/10/1987","lastSurvey":"05/10/1987"}},{"type":"Feature","geometry":{"type":"Point","coordinates":[1.572891,53.438768]},"properties":{"siteId":"1665","name":"Hardley Marshes","waterbody":"GB105034051190","region":"Anglian","area":"Eastern","totalSurveys":3,"speciesCount":6,"firstSurvey":"06/10/1987","lastSurvey":"18/11/1994"}}]}