{"type":"FeatureCollection","features":[{"type":"Feature","geometry":{"type":"Point","coordinates":[-0.080404,52.089524]},"properties":{"siteId":"43063","name":"Boy Bridge","waterbody":"GB105033038030","region":"Anglian","area":"Central","totalSurveys":1,"speciesCount":2,"firstSurvey":"22/06/2012","lastSurvey":"22/06/2012"}},{"type":"Feature","geometry":{"type":"Point","coordinates":[-0.063903,52.075848]},"properties":{"siteId":"43062","name":"Brook Bridge","waterbody":"GB105033038030","region":"Anglian","area":"Central","totalSurveys":1,"speciesCount":3,"firstSurvey":"22/06/2012","lastSurvey":"22/06/2012"}},{"type":"Feature","geometry":{"type":"Point","coordinates":[-0.07241,52.110057]},"properties":{"siteId":"4505","name":"Wendy Road Bridge","waterbody":"GB105033038100","region":"Anglian","area":"Central","totalSurveys":6,"speciesCount":14,"firstSurvey":"20/02/1990","lastSurvey":"17/04/2013"}},{"type":"Feature","geometry":{"type":"Point","coordinates":[-0.147522,52.093386]},"properties":{"siteId":"42685","name":"Bury Holme Farm","waterbody":"GB105033038100","region":"Anglian","area":"Central","totalSurveys":3,"speciesCount":9,"firstSurvey":"22/05/2012","lastSurvey":"24/07/2019"}},{"type":"Feature","geometry":{"type":"Point","coordinates":[-0.066456,52.112657]},"properties":{"siteId":"4504","name":"Wendy","waterbody":"GB105033038100","region":"Anglian","area":"Central","totalSurveys":10,"speciesCount":13,"firstSurvey":"02/04/1991","lastSurvey":"31/07/2019"}},{"type":"Feature","geometry":{"type":"Point","coordinates":[-0.158723,52.080182]},"properties":{"siteId":"42683","name":"Whitegate Bridge","waterbody":"GB105033038100","region":"Anglian","area":"Central","totalSurveys":1,"speciesCount":3,"firstSurvey":"22/05/2012","lastSurvey":"22/05/2012"}},{"type":"Feature","geometry":{"type":"Point","coordinates":[-0.054507,52.118755]},"properties":{"siteId":"4506","name":"Wimpole","waterbody":"GB105033037610","region":"Anglian","area":"Central","totalSurveys":4,"speciesCount":14,"firstSurvey":"05/04/1991","lastSurvey":"23/02/1998"}},{"type":"Feature","geometry":{"type":"Point","coordinates":[-0.017313,52.100107]},"properties":{"siteId":"42842","name":"Whaddon","waterbody":"GB105033038020","region":"Anglian","area":"Central","totalSurveys":2,"speciesCount":5,"firstSurvey":"31/01/1990","lastSurvey":"07/06/2012"}},{"type":"Feature","geometry":{"type":"Point","coordinates":[-0.00382,52.324114]},"properties":{"siteId":"41933","name":"Pike & Eel","waterbody":null,"region":"Anglian","area":"Central","totalSurveys":3,"speciesCount":2,"firstSurvey":"17/11/2010","lastSurvey":"19/11/2010"}},{"type":"Feature","geometry":{"type":"Point","coordinates":[-0.023543,52.315535]},"properties":{"siteId":"42145","name":"DS Holywell","waterbody":null,"region":"Anglian","area":"Central","totalSurveys":27,"speciesCount":5,"firstSurvey":"24/06/2008","lastSurvey":"03/09/2008"}},{"type":"Feature","geometry":{"type":"Point","coordinates":[-0.200292,52.379124]},"properties":{"siteId":"10980","name":"Brooklands Lake","waterbody":"GB105033043140","region":"Anglian","area":"Central","totalSurveys":1,"speciesCount":7,"firstSurvey":"22/10/2003","lastSurvey":"22/10/2003"}},{"type":"Feature","geometry":{"type":"Point","coordinates":[-0.278258,52.061686]},"properties":{"siteId":"40546","name":"Broom Lake","waterbody":null,"region":"Anglian","area":"Central","totalSurveys":1,"speciesCount":3,"firstSurvey":"09/11/2011","lastSurvey":"09/11/2011"}},{"type":"Feature","geometry":{"type":"Point","coordinates":[-0.077147,52.216093]},"properties":{"siteId":"68803","name":"Ewatts lake","waterbody":null,"region":"Anglian","area":"Central","totalSurveys":1,"speciesCount":6,"firstSurvey":"06/02/2017","lastSurvey":"06/02/2017"}},{"type":"Feature","geometry":{"type":"Point","coordinates":[-0.761738,52.10872]},"properties":{"siteId":"54843","name":"Gayhurst Court","waterbody":null,"region":"Anglian","area":"Central","totalSurveys":1,"speciesCount":9,"firstSurvey":"07/02/2014","lastSurvey":"07/02/2014"}},{"type":"Feature","geometry":{"type":"Point","coordinates":[-0.928632,52.142641]},"properties":{"siteId":"62423","name":"Monastery Fishery","waterbody":null,"region":"Anglian","area":"Central","totalSurveys":1,"speciesCount":5,"firstSurvey":"26/01/2015","lastSurvey":"26/01/2015"}},{"type":"Feature","geometry":{"type":"Point","coordinates":[-0.278255,52.038613]},"properties":{"siteId":"7451","name":"Poppy Hill","waterbody":"GB105033037780","region":"Anglian","area":"Central","totalSurveys":1,"speciesCount":10,"firstSurvey":"23/10/2002","lastSurvey":"23/10/2002"}},{"type":"Feature","geometry":{"type":"Point","coordinates":[-0.523817,52.216618]},"properties":{"siteId":"54623","name":"Sharnbrook Pit No. 5","waterbody":null,"region":"Anglian","area":"Central","totalSurveys":1,"speciesCount":5,"firstSurvey":"21/01/2014","lastSurvey":"21/01/2014"}},{"type":"Feature","geometry":{"type":"Point","coordinates":[-0.441136,52.011586]},"properties":{"siteId":"19017","name":"Silso Conservation Pond","waterbody":"GB105033037530","region":"Anglian","area":"Central","totalSurveys":1,"speciesCount":5,"firstSurvey":"13/03/2006","lastSurvey":"13/03/2006"}},{"type":"Feature","geometry":{"type":"Point","coordinates":[-0.109106,52.553029]},"properties":{"siteId":"4955","name":"Whittlesey Lake","waterbody":"GB105033047690","region":"Anglian","area":"Central","totalSurveys":1,"speciesCount":6,"firstSurvey":"15/02/2001","lastSurvey":"15/02/2001"}},{"type":"Feature","geometry":{"type":"Point","coordinates":[-0.19027,52.372677]},"properties":{"siteId":"11301","name":"Wild Goose Leys","waterbody":"GB105033043140","region":"Anglian","area":"Central","totalSurveys":1,"speciesCount":7,"firstSurvey":"20/11/2003","lastSurvey":"20/11/2003"}},{"type":"Feature","geometry":{"type":"Point","coordinates":[-0.099797,52.529503]},"properties":{"siteId":"4902","name":"Chapel Bridge","waterbody":"GB105032050382","region":"Anglian","area":"Central","totalSurveys":7,"speciesCount":13,"firstSurvey":"19/08/1987","lastSurvey":"11/07/2017"}},{"type":"Feature","geometry":{"type":"Point","coordinates":[-0.15676,52.507027]},"properties":{"siteId":"4901","name":"Tebbitts Bridge","waterbody":"GB105033043200","region":"Anglian","area":"Central","totalSurveys":4,"speciesCount":14,"firstSurvey":"18/08/1987","lastSurvey":"11/05/1999"}},{"type":"Feature","geometry":{"type":"Point","coordinates":[-0.105584,52.444665]},"properties":{"siteId":"36945","name":"DS Ramsey Golf Course","waterbody":"GB105033043140","region":"Anglian","area":"Central","totalSurveys":2,"speciesCount":8,"firstSurvey":"02/03/2011","lastSurvey":"24/10/2024"}},{"type":"Feature","geometry":{"type":"Point","coordinates":[-0.109039,52.439577]},"properties":{"siteId":"13625","name":"Ramsey Golf Course","waterbody":"GB105033043140","region":"Anglian","area":"Central","totalSurveys":6,"speciesCount":13,"firstSurvey":"13/10/2004","lastSurvey":"08/05/2024"}},{"type":"Feature","geometry":{"type":"Point","coordinates":[-0.012406,52.473221]},"properties":{"siteId":"4889","name":"Puddock Bridge","waterbody":"GB105033043180","region":"Anglian","area":"Central","totalSurveys":4,"speciesCount":14,"firstSurvey":"07/09/1987","lastSurvey":"11/09/1999"}},{"type":"Feature","geometry":{"type":"Point","coordinates":[-0.069788,52.474171]},"properties":{"siteId":"4887","name":"Ramsey Forty Foot Bridge","waterbody":"GB105033043140","region":"Anglian","area":"Central","totalSurveys":5,"speciesCount":13,"firstSurvey":"03/09/1987","lastSurvey":"01/06/2006"}},{"type":"Feature","geometry":{"type":"Point","coordinates":[-0.035947,52.473614]},"properties":{"siteId":"4888","name":"Ramsey Hollow","waterbody":"GB105033043180","region":"Anglian","area":"Central","totalSurveys":3,"speciesCount":12,"firstSurvey":"04/09/1987","lastSurvey":"16/08/1994"}},{"type":"Feature","geometry":{"type":"Point","coordinates":[-0.182063,52.465161]},"properties":{"siteId":"4908","name":"Speed The Plough Bridge","waterbody":"GB105033043130","region":"Anglian","area":"Central","totalSurveys":3,"speciesCount":11,"firstSurvey":"12/07/1991","lastSurvey":"10/06/1999"}},{"type":"Feature","geometry":{"type":"Point","coordinates":[-0.184385,52.444517]},"properties":{"siteId":"4909","name":"Woodwalton Fen","waterbody":"GB105033043130","region":"Anglian","area":"Central","totalSurveys":7,"speciesCount":14,"firstSurvey":"10/07/1991","lastSurvey":"28/06/2023"}},{"type":"Feature","geometry":{"type":"Point","coordinates":[-0.123961,52.550568]},"properties":{"siteId":"4900","name":"Ashline Lock","waterbody":"GB105033047690","region":"Anglian","area":"Central","totalSurveys":4,"speciesCount":16,"firstSurvey":"14/05/1987","lastSurvey":"22/06/1994"}},{"type":"Feature","geometry":{"type":"Point","coordinates":[-0.175403,52.554969]},"properties":{"siteId":"4898","name":"Fields End Bridge","waterbody":"GB105033047690","region":"Anglian","area":"Central","totalSurveys":5,"speciesCount":14,"firstSurvey":"15/05/1987","lastSurvey":"14/05/1999"}},{"type":"Feature","geometry":{"type":"Point","coordinates":[-0.199885,52.551846]},"properties":{"siteId":"4897","name":"Horsey Toll","waterbody":"GB105032050382","region":"Anglian","area":"Central","totalSurveys":7,"speciesCount":16,"firstSurvey":"11/05/1987","lastSurvey":"28/10/2025"}},{"type":"Feature","geometry":{"type":"Point","coordinates":[-0.135639,52.55345]},"properties":{"siteId":"4899","name":"Whittlesey","waterbody":"GB105032050382","region":"Anglian","area":"Central","totalSurveys":10,"speciesCount":19,"firstSurvey":"13/05/1987","lastSurvey":"14/10/2025"}},{"type":"Feature","geometry":{"type":"Point","coordinates":[-0.196628,52.46898]},"properties":{"siteId":"4907","name":"Charter House Farm","waterbody":"GB105033043170","region":"Anglian","area":"Central","totalSurveys":7,"speciesCount":12,"firstSurvey":"11/07/1991","lastSurvey":"04/07/2023"}},{"type":"Feature","geometry":{"type":"Point","coordinates":[-0.216155,52.459386]},"properties":{"siteId":"4906","name":"Eternity Hall","waterbody":"GB105033043170","region":"Anglian","area":"Central","totalSurveys":2,"speciesCount":9,"firstSurvey":"09/07/1991","lastSurvey":"18/07/1994"}},{"type":"Feature","geometry":{"type":"Point","coordinates":[-0.034786,52.499669]},"properties":{"siteId":"4882","name":"Benwick","waterbody":"GB105033047711","region":"Anglian","area":"Central","totalSurveys":5,"speciesCount":15,"firstSurvey":"27/08/1987","lastSurvey":"15/06/2017"}},{"type":"Feature","geometry":{"type":"Point","coordinates":[-0.005757,52.522561]},"properties":{"siteId":"4883","name":"Floods Ferry","waterbody":"GB105033047711","region":"Anglian","area":"Central","totalSurveys":4,"speciesCount":14,"firstSurvey":"28/08/1987","lastSurvey":"30/06/1999"}},{"type":"Feature","geometry":{"type":"Point","coordinates":[-0.052293,52.503556]},"properties":{"siteId":"4881","name":"Four Hundred Farm","waterbody":"GB105033047711","region":"Anglian","area":"Central","totalSurveys":4,"speciesCount":14,"firstSurvey":"26/08/1987","lastSurvey":"16/06/1999"}},{"type":"Feature","geometry":{"type":"Point","coordinates":[-0.074968,52.49044]},"properties":{"siteId":"4880","name":"Ramsey Mere","waterbody":"GB105033047711","region":"Anglian","area":"Central","totalSurveys":4,"speciesCount":13,"firstSurvey":"25/08/1987","lastSurvey":"29/06/1999"}},{"type":"Feature","geometry":{"type":"Point","coordinates":[-0.105295,52.47025]},"properties":{"siteId":"4879","name":"Saunders Bridge","waterbody":"GB105033047711","region":"Anglian","area":"Central","totalSurveys":4,"speciesCount":13,"firstSurvey":"24/08/1987","lastSurvey":"15/06/1999"}},{"type":"Feature","geometry":{"type":"Point","coordinates":[-0.182026,52.466059]},"properties":{"siteId":"4878","name":"Stokes Bridge","waterbody":"GB105033043200","region":"Anglian","area":"Central","totalSurveys":5,"speciesCount":12,"firstSurvey":"20/08/1987","lastSurvey":"27/06/2006"}},{"type":"Feature","geometry":{"type":"Point","coordinates":[-0.00798,52.571151]},"properties":{"siteId":"4873","name":"Holloways Bridge","waterbody":"GB105033047711","region":"Anglian","area":"Central","totalSurveys":5,"speciesCount":14,"firstSurvey":"10/06/1987","lastSurvey":"25/04/2023"}},{"type":"Feature","geometry":{"type":"Point","coordinates":[-0.046881,52.525944]},"properties":{"siteId":"4872","name":"Poplartree Bridge","waterbody":"GB105032050382","region":"Anglian","area":"Central","totalSurveys":10,"speciesCount":15,"firstSurvey":"08/06/1987","lastSurvey":"31/05/2011"}},{"type":"Feature","geometry":{"type":"Point","coordinates":[-0.078826,52.542481]},"properties":{"siteId":"4894","name":"Angle Corner Bridge","waterbody":"GB105033047690","region":"Anglian","area":"Central","totalSurveys":4,"speciesCount":13,"firstSurvey":"21/05/1987","lastSurvey":"03/06/1999"}},{"type":"Feature","geometry":{"type":"Point","coordinates":[-0.122526,52.549647]},"properties":{"siteId":"4893","name":"Ashline Lock","waterbody":"GB105032050382","region":"Anglian","area":"Central","totalSurveys":8,"speciesCount":17,"firstSurvey":"15/05/1987","lastSurvey":"12/07/2023"}},{"type":"Feature","geometry":{"type":"Point","coordinates":[-0.052773,52.12502]},"properties":{"siteId":"4896","name":"Burnthouse Bridge","waterbody":"GB105033047711","region":"Anglian","area":"Central","totalSurveys":5,"speciesCount":13,"firstSurvey":"05/06/1987","lastSurvey":"12/06/2006"}},{"type":"Feature","geometry":{"type":"Point","coordinates":[-0.049349,52.536775]},"properties":{"siteId":"4895","name":"Engine Farm","waterbody":"GB105033047690","region":"Anglian","area":"Central","totalSurveys":5,"speciesCount":13,"firstSurvey":"01/06/1987","lastSurvey":"06/07/2023"}},{"type":"Feature","geometry":{"type":"Point","coordinates":[-0.192028,52.50937]},"properties":{"siteId":"4905","name":"Frog Hall","waterbody":"GB105033043200","region":"Anglian","area":"Central","totalSurveys":6,"speciesCount":13,"firstSurvey":"31/07/1987","lastSurvey":"13/07/2011"}},{"type":"Feature","geometry":{"type":"Point","coordinates":[-0.21879,52.503482]},"properties":{"siteId":"4904","name":"Yaxley Fen","waterbody":"GB105033043200","region":"Anglian","area":"Central","totalSurveys":3,"speciesCount":13,"firstSurvey":"17/08/1987","lastSurvey":"07/07/1994"}},{"type":"Feature","geometry":{"type":"Point","coordinates":[-0.237789,52.507363]},"properties":{"siteId":"4903","name":"Yaxley Lode Bridge","waterbody":"GB105033043200","region":"Anglian","area":"Central","totalSurveys":4,"speciesCount":14,"firstSurvey":"30/07/1987","lastSurvey":"05/05/1999"}},{"type":"Feature","geometry":{"type":"Point","coordinates":[-0.256691,52.364684]},"properties":{"siteId":"4771","name":"Alconbury Village","waterbody":"GB105033042820","region":"Anglian","area":"Central","totalSurveys":6,"speciesCount":14,"firstSurvey":"06/10/1989","lastSurvey":"22/05/2015"}},{"type":"Feature","geometry":{"type":"Point","coordinates":[-0.227196,52.330978]},"properties":{"siteId":"4773","name":"Brampton Racecourse","waterbody":"GB105033042790","region":"Anglian","area":"Central","totalSurveys":7,"speciesCount":17,"firstSurvey":"16/10/1989","lastSurvey":"27/05/2015"}},{"type":"Feature","geometry":{"type":"Point","coordinates":[-0.250133,52.344807]},"properties":{"siteId":"4772","name":"DS A1 Lay-by","waterbody":"GB105033042790","region":"Anglian","area":"Central","totalSurveys":4,"speciesCount":7,"firstSurvey":"03/10/1989","lastSurvey":"24/06/1998"}},{"type":"Feature","geometry":{"type":"Point","coordinates":[-0.199547,52.325165]},"properties":{"siteId":"4774","name":"Hinchingbrooke","waterbody":"GB105033042790","region":"Anglian","area":"Central","totalSurveys":5,"speciesCount":10,"firstSurvey":"01/11/1989","lastSurvey":"12/04/2006"}},{"type":"Feature","geometry":{"type":"Point","coordinates":[-0.199584,52.324266]},"properties":{"siteId":"4770","name":"Brampton Stream","waterbody":"GB105033042790","region":"Anglian","area":"Central","totalSurveys":7,"speciesCount":14,"firstSurvey":"01/11/1989","lastSurvey":"02/11/2011"}},{"type":"Feature","geometry":{"type":"Point","coordinates":[-0.428173,52.126127]},"properties":{"siteId":"4724","name":"Cardington Canoe Slalom","waterbody":"GB105033047923","region":"Anglian","area":"Central","totalSurveys":3,"speciesCount":14,"firstSurvey":"13/07/1989","lastSurvey":"07/07/1998"}},{"type":"Feature","geometry":{"type":"Point","coordinates":[-0.283126,52.354138]},"properties":{"siteId":"34371","name":"Woolley Leys Farm","waterbody":"GB105033042810","region":"Anglian","area":"Central","totalSurveys":2,"speciesCount":7,"firstSurvey":"18/03/2011","lastSurvey":"15/04/2015"}},{"type":"Feature","geometry":{"type":"Point","coordinates":[-0.168602,52.328286]},"properties":{"siteId":"4777","name":"Godmanchester","waterbody":"GB105033047921","region":"Anglian","area":"Central","totalSurveys":4,"speciesCount":11,"firstSurvey":"27/10/1989","lastSurvey":"18/09/1998"}},{"type":"Feature","geometry":{"type":"Point","coordinates":[-0.15657,52.335292]},"properties":{"siteId":"4778","name":"Hartford Church","waterbody":"GB105033047921","region":"Anglian","area":"Central","totalSurveys":5,"speciesCount":9,"firstSurvey":"26/10/1989","lastSurvey":"09/05/2006"}},{"type":"Feature","geometry":{"type":"Point","coordinates":[-0.268654,52.284434]},"properties":{"siteId":"35914","name":"Coronation Wood","waterbody":"GB105033043310","region":"Anglian","area":"Central","totalSurveys":1,"speciesCount":6,"firstSurvey":"20/09/2010","lastSurvey":"20/09/2010"}},{"type":"Feature","geometry":{"type":"Point","coordinates":[-0.23287,52.283607]},"properties":{"siteId":"35916","name":"DS Pumping Station","waterbody":"GB105033043310","region":"Anglian","area":"Central","totalSurveys":1,"speciesCount":9,"firstSurvey":"20/09/2010","lastSurvey":"20/09/2010"}},{"type":"Feature","geometry":{"type":"Point","coordinates":[-0.228609,52.286043]},"properties":{"siteId":"35917","name":"Margetts Farm","waterbody":"GB105033043310","region":"Anglian","area":"Central","totalSurveys":1,"speciesCount":10,"firstSurvey":"20/09/2010","lastSurvey":"20/09/2010"}},{"type":"Feature","geometry":{"type":"Point","coordinates":[-0.276435,52.285294]},"properties":{"siteId":"35913","name":"Shooters Hollow","waterbody":"GB105033043310","region":"Anglian","area":"Central","totalSurveys":1,"speciesCount":8,"firstSurvey":"20/09/2010","lastSurvey":"20/09/2010"}},{"type":"Feature","geometry":{"type":"Point","coordinates":[-0.23926,52.282174]},"properties":{"siteId":"35915","name":"US Pumping Station","waterbody":"GB105033043310","region":"Anglian","area":"Central","totalSurveys":1,"speciesCount":7,"firstSurvey":"20/09/2010","lastSurvey":"20/09/2010"}},{"type":"Feature","geometry":{"type":"Point","coordinates":[-0.277032,52.332614]},"properties":{"siteId":"4970","name":"DS Ellington","waterbody":"GB105033042840","region":"Anglian","area":"Central","totalSurveys":1,"speciesCount":8,"firstSurvey":"30/07/2001","lastSurvey":"30/07/2001"}},{"type":"Feature","geometry":{"type":"Point","coordinates":[-0.25943,52.332356]},"properties":{"siteId":"4757","name":"Little Meadow","waterbody":"GB105033042840","region":"Anglian","area":"Central","totalSurveys":1,"speciesCount":6,"firstSurvey":"03/11/1997","lastSurvey":"03/11/1997"}},{"type":"Feature","geometry":{"type":"Point","coordinates":[-0.272632,52.33255]},"properties":{"siteId":"4756","name":"US Woodhatch Farm","waterbody":"GB105033042840","region":"Anglian","area":"Central","totalSurveys":1,"speciesCount":2,"firstSurvey":"03/11/1997","lastSurvey":"03/11/1997"}},{"type":"Feature","geometry":{"type":"Point","coordinates":[-0.272632,52.33255]},"properties":{"siteId":"4969","name":"Woodhatch Farm","waterbody":"GB105033042840","region":"Anglian","area":"Central","totalSurveys":1,"speciesCount":7,"firstSurvey":"30/07/2001","lastSurvey":"30/07/2001"}},{"type":"Feature","geometry":{"type":"Point","coordinates":[-0.40611,52.130326]},"properties":{"siteId":"4739","name":"Cardington","waterbody":"GB105033038110","region":"Anglian","area":"Central","totalSurveys":3,"speciesCount":12,"firstSurvey":"18/07/1989","lastSurvey":"03/07/1998"}},{"type":"Feature","geometry":{"type":"Point","coordinates":[-0.504906,52.094864]},"properties":{"siteId":"10310","name":"DS Hardwick Bridge","waterbody":"GB105033038050","region":"Anglian","area":"Central","totalSurveys":1,"speciesCount":8,"firstSurvey":"06/05/2003","lastSurvey":"06/05/2003"}},{"type":"Feature","geometry":{"type":"Point","coordinates":[-0.45993,52.115999]},"properties":{"siteId":"59943","name":"Elstow Moor","waterbody":"GB105033038050","region":"Anglian","area":"Central","totalSurveys":4,"speciesCount":11,"firstSurvey":"03/09/2014","lastSurvey":"14/08/2024"}},{"type":"Feature","geometry":{"type":"Point","coordinates":[-0.506315,52.094189]},"properties":{"siteId":"36696","name":"Hardwick Bridge","waterbody":"GB105033038050","region":"Anglian","area":"Central","totalSurveys":1,"speciesCount":7,"firstSurvey":"24/03/2011","lastSurvey":"24/03/2011"}},{"type":"Feature","geometry":{"type":"Point","coordinates":[-0.446567,52.115994]},"properties":{"siteId":"10311","name":"Harrowden Bridge","waterbody":"GB105033038050","region":"Anglian","area":"Central","totalSurveys":1,"speciesCount":7,"firstSurvey":"06/05/2003","lastSurvey":"06/05/2003"}},{"type":"Feature","geometry":{"type":"Point","coordinates":[-0.43144,52.11628]},"properties":{"siteId":"4738","name":"Harrowden","waterbody":"GB105033038110","region":"Anglian","area":"Central","totalSurveys":3,"speciesCount":9,"firstSurvey":"17/07/1989","lastSurvey":"01/07/1998"}},{"type":"Feature","geometry":{"type":"Point","coordinates":[-0.435514,52.115057]},"properties":{"siteId":"8839","name":"Manor Farm Harrowden","waterbody":"GB105033038110","region":"Anglian","area":"Central","totalSurveys":1,"speciesCount":8,"firstSurvey":"07/08/2002","lastSurvey":"07/08/2002"}},{"type":"Feature","geometry":{"type":"Point","coordinates":[-0.373657,52.138874]},"properties":{"siteId":"4740","name":"Willington","waterbody":"GB105033038130","region":"Anglian","area":"Central","totalSurveys":9,"speciesCount":18,"firstSurvey":"21/07/1989","lastSurvey":"29/08/2024"}},{"type":"Feature","geometry":{"type":"Point","coordinates":[-0.147707,52.33349]},"properties":{"siteId":"30527","name":"Fishers Dyke (Eel Monitoring)","waterbody":"GB105033047921","region":"Anglian","area":"Central","totalSurveys":5,"speciesCount":12,"firstSurvey":"25/06/2008","lastSurvey":"10/05/2013"}},{"type":"Feature","geometry":{"type":"Point","coordinates":[-0.394961,52.033967]},"properties":{"siteId":"4953","name":"Beadlow","waterbody":"GB105033037790","region":"Anglian","area":"Central","totalSurveys":4,"speciesCount":9,"firstSurvey":"07/03/1989","lastSurvey":"21/02/2013"}},{"type":"Feature","geometry":{"type":"Point","coordinates":[-0.44648,52.018023]},"properties":{"siteId":"43102","name":"Beaumont Farm Hollington","waterbody":"GB105033037790","region":"Anglian","area":"Central","totalSurveys":1,"speciesCount":6,"firstSurvey":"21/02/2013","lastSurvey":"21/02/2013"}},{"type":"Feature","geometry":{"type":"Point","coordinates":[-0.39509,52.030372]},"properties":{"siteId":"4952","name":"Clophill","waterbody":"GB105033037790","region":"Anglian","area":"Central","totalSurveys":3,"speciesCount":7,"firstSurvey":"07/03/1989","lastSurvey":"08/05/1998"}},{"type":"Feature","geometry":{"type":"Point","coordinates":[-0.26797,52.226385]},"properties":{"siteId":"13911","name":"Hen Brook Confluence","waterbody":"GB105033043240","region":"Anglian","area":"Central","totalSurveys":1,"speciesCount":5,"firstSurvey":"07/12/2004","lastSurvey":"07/12/2004"}},{"type":"Feature","geometry":{"type":"Point","coordinates":[-0.34398,52.151049]},"properties":{"siteId":"4708","name":"Barford Bridge","waterbody":"GB105033047923","region":"Anglian","area":"Central","totalSurveys":4,"speciesCount":16,"firstSurvey":"03/08/1989","lastSurvey":"01/10/2001"}},{"type":"Feature","geometry":{"type":"Point","coordinates":[-0.273266,52.203085]},"properties":{"siteId":"4712","name":"Barford Power Station","waterbody":"GB105033047921","region":"Anglian","area":"Central","totalSurveys":3,"speciesCount":11,"firstSurvey":"09/08/1989","lastSurvey":"25/08/1998"}},{"type":"Feature","geometry":{"type":"Point","coordinates":[-0.308305,52.166728]},"properties":{"siteId":"4709","name":"Blunham","waterbody":"GB105033047923","region":"Anglian","area":"Central","totalSurveys":3,"speciesCount":13,"firstSurvey":"04/08/1989","lastSurvey":"13/08/1998"}},{"type":"Feature","geometry":{"type":"Point","coordinates":[-0.211751,52.313662]},"properties":{"siteId":"4722","name":"Brampton","waterbody":"GB105033042790","region":"Anglian","area":"Central","totalSurveys":4,"speciesCount":10,"firstSurvey":"25/09/1989","lastSurvey":"03/10/2001"}},{"type":"Feature","geometry":{"type":"Point","coordinates":[-0.216691,52.300249]},"properties":{"siteId":"4721","name":"Buckden Marina","waterbody":"GB105033047921","region":"Anglian","area":"Central","totalSurveys":3,"speciesCount":12,"firstSurvey":"15/09/1989","lastSurvey":"14/10/1998"}},{"type":"Feature","geometry":{"type":"Point","coordinates":[-0.425031,52.132379]},"properties":{"siteId":"4705","name":"Cardington Navigation","waterbody":"GB105033047923","region":"Anglian","area":"Central","totalSurveys":3,"speciesCount":12,"firstSurvey":"31/07/1989","lastSurvey":"05/08/1998"}},{"type":"Feature","geometry":{"type":"Point","coordinates":[-0.280302,52.210381]},"properties":{"siteId":"4713","name":"DS Barford Power Station","waterbody":"GB105033047921","region":"Anglian","area":"Central","totalSurveys":5,"speciesCount":12,"firstSurvey":"11/08/1989","lastSurvey":"05/09/2008"}},{"type":"Feature","geometry":{"type":"Point","coordinates":[-0.24517,52.247627]},"properties":{"siteId":"4716","name":"DS Samual Jones","waterbody":"GB105033047921","region":"Anglian","area":"Central","totalSurveys":3,"speciesCount":12,"firstSurvey":"17/08/1989","lastSurvey":"12/10/1998"}},{"type":"Feature","geometry":{"type":"Point","coordinates":[-0.272621,52.22273]},"properties":{"siteId":"36782","name":"Eynesbury","waterbody":null,"region":"Anglian","area":"Central","totalSurveys":2,"speciesCount":9,"firstSurvey":"19/08/2015","lastSurvey":"03/10/2018"}},{"type":"Feature","geometry":{"type":"Point","coordinates":[-0.302015,52.178326]},"properties":{"siteId":"4710","name":"Kelpie Marina","waterbody":"GB105033047921","region":"Anglian","area":"Central","totalSurveys":7,"speciesCount":15,"firstSurvey":"08/08/1989","lastSurvey":"02/10/2018"}},{"type":"Feature","geometry":{"type":"Point","coordinates":[-0.237244,52.262794]},"properties":{"siteId":"4718","name":"Little Paxton Nature Reserve","waterbody":"GB105033047921","region":"Anglian","area":"Central","totalSurveys":4,"speciesCount":12,"firstSurvey":"04/09/1989","lastSurvey":"01/12/2006"}},{"type":"Feature","geometry":{"type":"Point","coordinates":[-0.237493,52.256504]},"properties":{"siteId":"4717","name":"Little Paxton","waterbody":"GB105033047921","region":"Anglian","area":"Central","totalSurveys":5,"speciesCount":14,"firstSurvey":"18/08/1989","lastSurvey":"01/09/2008"}},{"type":"Feature","geometry":{"type":"Point","coordinates":[-0.452809,52.131847]},"properties":{"siteId":"4704","name":"Longholme","waterbody":"GB105033047923","region":"Anglian","area":"Central","totalSurveys":7,"speciesCount":14,"firstSurvey":"24/07/1989","lastSurvey":"01/10/2018"}},{"type":"Feature","geometry":{"type":"Point","coordinates":[-0.219994,52.254443]},"properties":{"siteId":"4719","name":"Offord Intake","waterbody":"GB105033047921","region":"Anglian","area":"Central","totalSurveys":3,"speciesCount":13,"firstSurvey":"12/09/1989","lastSurvey":"14/09/1998"}},{"type":"Feature","geometry":{"type":"Point","coordinates":[-0.218553,52.290387]},"properties":{"siteId":"4720","name":"Offord Triangle","waterbody":"GB105033047921","region":"Anglian","area":"Central","totalSurveys":7,"speciesCount":14,"firstSurvey":"13/09/1989","lastSurvey":"21/08/2015"}},{"type":"Feature","geometry":{"type":"Point","coordinates":[-0.392103,52.146869]},"properties":{"siteId":"4706","name":"Renhold","waterbody":"GB105033047923","region":"Anglian","area":"Central","totalSurveys":5,"speciesCount":13,"firstSurvey":"02/08/1989","lastSurvey":"24/09/2008"}},{"type":"Feature","geometry":{"type":"Point","coordinates":[-0.275652,52.221588]},"properties":{"siteId":"4714","name":"Riverside Park","waterbody":"GB105033047921","region":"Anglian","area":"Central","totalSurveys":3,"speciesCount":11,"firstSurvey":"11/08/1989","lastSurvey":"02/09/1998"}},{"type":"Feature","geometry":{"type":"Point","coordinates":[-0.273649,52.230964]},"properties":{"siteId":"4715","name":"St Neots Common","waterbody":"GB105033047921","region":"Anglian","area":"Central","totalSurveys":6,"speciesCount":21,"firstSurvey":"14/08/1989","lastSurvey":"05/10/2018"}},{"type":"Feature","geometry":{"type":"Point","coordinates":[-0.367749,52.140591]},"properties":{"siteId":"4707","name":"Willington","waterbody":"GB105033047923","region":"Anglian","area":"Central","totalSurveys":3,"speciesCount":12,"firstSurvey":"01/08/1989","lastSurvey":"11/08/1998"}},{"type":"Feature","geometry":{"type":"Point","coordinates":[-0.292521,52.197071]},"properties":{"siteId":"4711","name":"Wyboston Lakes","waterbody":"GB105033047921","region":"Anglian","area":"Central","totalSurveys":3,"speciesCount":13,"firstSurvey":"07/08/1989","lastSurvey":"24/08/1998"}},{"type":"Feature","geometry":{"type":"Point","coordinates":[-0.174505,52.327478]},"properties":{"siteId":"4760","name":"Castle Hills Huntingdon","waterbody":"GB105033047921","region":"Anglian","area":"Central","totalSurveys":4,"speciesCount":17,"firstSurvey":"02/10/1989","lastSurvey":"26/08/2003"}},{"type":"Feature","geometry":{"type":"Point","coordinates":[-0.076209,52.326817]},"properties":{"siteId":"4769","name":"Dolphin Meadow","waterbody":"GB105033047921","region":"Anglian","area":"Central","totalSurveys":4,"speciesCount":15,"firstSurvey":"25/10/1989","lastSurvey":"02/09/2003"}},{"type":"Feature","geometry":{"type":"Point","coordinates":[-0.155029,52.337066]},"properties":{"siteId":"4762","name":"Hartford Church","waterbody":"GB105033047921","region":"Anglian","area":"Central","totalSurveys":12,"speciesCount":17,"firstSurvey":"29/09/1989","lastSurvey":"20/08/2010"}},{"type":"Feature","geometry":{"type":"Point","coordinates":[-0.163942,52.334507]},"properties":{"siteId":"4761","name":"Hartford","waterbody":"GB105033047921","region":"Anglian","area":"Central","totalSurveys":3,"speciesCount":13,"firstSurvey":"12/10/1989","lastSurvey":"13/07/1999"}},{"type":"Feature","geometry":{"type":"Point","coordinates":[-0.123214,52.325775]},"properties":{"siteId":"4765","name":"Hemingford Abbots","waterbody":"GB105033047921","region":"Anglian","area":"Central","totalSurveys":3,"speciesCount":14,"firstSurvey":"05/10/1989","lastSurvey":"26/07/1999"}},{"type":"Feature","geometry":{"type":"Point","coordinates":[-0.10276,52.32365]},"properties":{"siteId":"4767","name":"Hemingford Grey","waterbody":"GB105033047921","region":"Anglian","area":"Central","totalSurveys":4,"speciesCount":17,"firstSurvey":"23/10/1989","lastSurvey":"28/08/2003"}},{"type":"Feature","geometry":{"type":"Point","coordinates":[-0.089582,52.327754]},"properties":{"siteId":"81583","name":"Hemingford Meadow","waterbody":null,"region":"Anglian","area":"Central","totalSurveys":1,"speciesCount":7,"firstSurvey":"21/10/2025","lastSurvey":"21/10/2025"}},{"type":"Feature","geometry":{"type":"Point","coordinates":[-0.029682,52.317059]},"properties":{"siteId":"4781","name":"Holywell","waterbody":"GB105033047921","region":"Anglian","area":"Central","totalSurveys":16,"speciesCount":18,"firstSurvey":"31/10/1989","lastSurvey":"22/10/2025"}},{"type":"Feature","geometry":{"type":"Point","coordinates":[-0.12889,52.330361]},"properties":{"siteId":"4763","name":"Houghton Lock","waterbody":"GB105033047921","region":"Anglian","area":"Central","totalSurveys":3,"speciesCount":14,"firstSurvey":"03/10/1989","lastSurvey":"19/07/1999"}},{"type":"Feature","geometry":{"type":"Point","coordinates":[-0.117348,52.325682]},"properties":{"siteId":"4764","name":"Houghton","waterbody":"GB105033047921","region":"Anglian","area":"Central","totalSurveys":8,"speciesCount":15,"firstSurvey":"04/10/1989","lastSurvey":"16/10/2025"}},{"type":"Feature","geometry":{"type":"Point","coordinates":[-0.04886,52.31468]},"properties":{"siteId":"4780","name":"Meadow Lane St Ives","waterbody":"GB105033047921","region":"Anglian","area":"Central","totalSurveys":4,"speciesCount":13,"firstSurvey":"29/10/1990","lastSurvey":"03/08/1999"}},{"type":"Feature","geometry":{"type":"Point","coordinates":[-0.017351,52.312932]},"properties":{"siteId":"4782","name":"Mow Fen","waterbody":"GB105033047921","region":"Anglian","area":"Central","totalSurveys":5,"speciesCount":14,"firstSurvey":"02/11/1989","lastSurvey":"04/08/2003"}},{"type":"Feature","geometry":{"type":"Point","coordinates":[-0.002968,52.323803]},"properties":{"siteId":"4783","name":"Pike & Eel","waterbody":"GB105033047921","region":"Anglian","area":"Central","totalSurveys":16,"speciesCount":24,"firstSurvey":"08/11/1989","lastSurvey":"11/10/2019"}},{"type":"Feature","geometry":{"type":"Point","coordinates":[-0.180814,52.316786]},"properties":{"siteId":"4759","name":"Portholme Lock","waterbody":"GB105033047921","region":"Anglian","area":"Central","totalSurveys":3,"speciesCount":11,"firstSurvey":"28/09/1989","lastSurvey":"09/07/1999"}},{"type":"Feature","geometry":{"type":"Point","coordinates":[-0.193901,52.319684]},"properties":{"siteId":"4758","name":"Portholme Meadow","waterbody":"GB105033047921","region":"Anglian","area":"Central","totalSurveys":17,"speciesCount":18,"firstSurvey":"27/09/1989","lastSurvey":"15/10/2025"}},{"type":"Feature","geometry":{"type":"Point","coordinates":[-0.070851,52.315041]},"properties":{"siteId":"4779","name":"St Ives","waterbody":"GB105033047921","region":"Anglian","area":"Central","totalSurveys":5,"speciesCount":16,"firstSurvey":"26/10/1989","lastSurvey":"25/07/2003"}},{"type":"Feature","geometry":{"type":"Point","coordinates":[-0.098322,52.324478]},"properties":{"siteId":"4768","name":"US Dolphin Meadow","waterbody":"GB105033047921","region":"Anglian","area":"Central","totalSurveys":15,"speciesCount":20,"firstSurvey":"24/10/1989","lastSurvey":"02/10/2019"}},{"type":"Feature","geometry":{"type":"Point","coordinates":[-0.075795,52.30016]},"properties":{"siteId":"41406","name":"Turnpike Bridge","waterbody":"GB105033042730","region":"Anglian","area":"Central","totalSurveys":1,"speciesCount":9,"firstSurvey":"16/01/2012","lastSurvey":"16/01/2012"}},{"type":"Feature","geometry":{"type":"Point","coordinates":[-0.078767,52.298248]},"properties":{"siteId":"41393","name":"West End Farm Fenstanton","waterbody":"GB105033042730","region":"Anglian","area":"Central","totalSurveys":1,"speciesCount":8,"firstSurvey":"16/01/2012","lastSurvey":"16/01/2012"}},{"type":"Feature","geometry":{"type":"Point","coordinates":[-0.261895,52.222222]},"properties":{"siteId":"13903","name":"Cromwell Road Bridge","waterbody":"GB105033043240","region":"Anglian","area":"Central","totalSurveys":1,"speciesCount":6,"firstSurvey":"07/12/2004","lastSurvey":"07/12/2004"}},{"type":"Feature","geometry":{"type":"Point","coordinates":[-0.26544,52.225179]},"properties":{"siteId":"13905","name":"Duck Lane St Neots","waterbody":"GB105033043240","region":"Anglian","area":"Central","totalSurveys":2,"speciesCount":13,"firstSurvey":"07/12/2004","lastSurvey":"06/04/2011"}},{"type":"Feature","geometry":{"type":"Point","coordinates":[-0.332071,52.039387]},"properties":{"siteId":"4742","name":"Shefford Business Park","waterbody":"GB105033037790","region":"Anglian","area":"Central","totalSurveys":2,"speciesCount":7,"firstSurvey":"08/03/1989","lastSurvey":"14/05/1998"}},{"type":"Feature","geometry":{"type":"Point","coordinates":[-0.269745,52.00905]},"properties":{"siteId":"47283","name":"Amenity Trees Arlesey","waterbody":"GB105033037780","region":"Anglian","area":"Central","totalSurveys":3,"speciesCount":11,"firstSurvey":"06/03/2013","lastSurvey":"03/07/2024"}},{"type":"Feature","geometry":{"type":"Point","coordinates":[-0.270555,52.008828]},"properties":{"siteId":"4743","name":"Arlesey Garden","waterbody":"GB105033037780","region":"Anglian","area":"Central","totalSurveys":3,"speciesCount":10,"firstSurvey":"10/03/1989","lastSurvey":"25/05/1998"}},{"type":"Feature","geometry":{"type":"Point","coordinates":[-0.269896,52.025902]},"properties":{"siteId":"4744","name":"Church End","waterbody":"GB105033037780","region":"Anglian","area":"Central","totalSurveys":2,"speciesCount":8,"firstSurvey":"10/03/1989","lastSurvey":"29/04/1998"}},{"type":"Feature","geometry":{"type":"Point","coordinates":[-0.115495,52.327486]},"properties":{"siteId":"30112","name":"Houghton Trout Stream (Eel Monitoring)","waterbody":"GB105033047921","region":"Anglian","area":"Central","totalSurveys":4,"speciesCount":10,"firstSurvey":"24/06/2008","lastSurvey":"09/05/2013"}},{"type":"Feature","geometry":{"type":"Point","coordinates":[-0.108511,52.32644]},"properties":{"siteId":"4766","name":"Houghton Trout Stream","waterbody":"GB105033047921","region":"Anglian","area":"Central","totalSurveys":5,"speciesCount":15,"firstSurvey":"17/10/1989","lastSurvey":"27/11/2013"}},{"type":"Feature","geometry":{"type":"Point","coordinates":[-0.290685,52.05408]},"properties":{"siteId":"4726","name":"Clifton","waterbody":"GB105033037790","region":"Anglian","area":"Central","totalSurveys":6,"speciesCount":11,"firstSurvey":"10/03/1989","lastSurvey":"03/08/2016"}},{"type":"Feature","geometry":{"type":"Point","coordinates":[-0.318855,52.041897]},"properties":{"siteId":"4725","name":"Horse Bridge","waterbody":"GB105033037790","region":"Anglian","area":"Central","totalSurveys":8,"speciesCount":14,"firstSurvey":"10/03/1989","lastSurvey":"02/09/2024"}},{"type":"Feature","geometry":{"type":"Point","coordinates":[-0.247834,52.030971]},"properties":{"siteId":"4727","name":"Astwick","waterbody":"GB105033037760","region":"Anglian","area":"Central","totalSurveys":4,"speciesCount":9,"firstSurvey":"15/03/1989","lastSurvey":"27/05/1998"}},{"type":"Feature","geometry":{"type":"Point","coordinates":[-0.283763,52.120517]},"properties":{"siteId":"4733","name":"Beeston","waterbody":"GB105033038170","region":"Anglian","area":"Central","totalSurveys":5,"speciesCount":12,"firstSurvey":"05/07/1989","lastSurvey":"19/05/2005"}},{"type":"Feature","geometry":{"type":"Point","coordinates":[-0.27257,52.107765]},"properties":{"siteId":"4732","name":"Biggleswade Common","waterbody":"GB105033038170","region":"Anglian","area":"Central","totalSurveys":16,"speciesCount":18,"firstSurvey":"09/06/1989","lastSurvey":"29/04/2025"}},{"type":"Feature","geometry":{"type":"Point","coordinates":[-0.267917,52.085775]},"properties":{"siteId":"19310","name":"Biggleswade Mill","waterbody":"GB105033038170","region":"Anglian","area":"Central","totalSurveys":1,"speciesCount":2,"firstSurvey":"03/04/2006","lastSurvey":"03/04/2006"}},{"type":"Feature","geometry":{"type":"Point","coordinates":[-0.275589,52.067347]},"properties":{"siteId":"4730","name":"Broom Mill","waterbody":"GB105033038170","region":"Anglian","area":"Central","totalSurveys":5,"speciesCount":12,"firstSurvey":"11/07/1989","lastSurvey":"17/05/2005"}},{"type":"Feature","geometry":{"type":"Point","coordinates":[-0.269474,52.08703]},"properties":{"siteId":"19311","name":"DS Biggleswade Mill","waterbody":"GB105033038170","region":"Anglian","area":"Central","totalSurveys":1,"speciesCount":2,"firstSurvey":"03/04/2006","lastSurvey":"03/04/2006"}},{"type":"Feature","geometry":{"type":"Point","coordinates":[-0.271562,52.096061]},"properties":{"siteId":"4731","name":"DS Iron Bridge","waterbody":"GB105033038170","region":"Anglian","area":"Central","totalSurveys":16,"speciesCount":18,"firstSurvey":"08/06/1989","lastSurvey":"09/04/2025"}},{"type":"Feature","geometry":{"type":"Point","coordinates":[-0.305218,52.16484]},"properties":{"siteId":"52483","name":"DS Saw Mills Tempsford","waterbody":null,"region":"Anglian","area":"Central","totalSurveys":1,"speciesCount":1,"firstSurvey":"23/10/2013","lastSurvey":"23/10/2013"}},{"type":"Feature","geometry":{"type":"Point","coordinates":[-0.309429,52.137072]},"properties":{"siteId":"23802","name":"Girtford Bridge","waterbody":"GB105033038170","region":"Anglian","area":"Central","totalSurveys":1,"speciesCount":7,"firstSurvey":"11/05/1995","lastSurvey":"11/05/1995"}},{"type":"Feature","geometry":{"type":"Point","coordinates":[-0.312316,52.138012]},"properties":{"siteId":"4735","name":"Girtford Weir","waterbody":"GB105033038170","region":"Anglian","area":"Central","totalSurveys":14,"speciesCount":21,"firstSurvey":"07/07/1989","lastSurvey":"30/04/2025"}},{"type":"Feature","geometry":{"type":"Point","coordinates":[-0.30545,52.164888]},"properties":{"siteId":"4737","name":"Gt Ouse Confluence","waterbody":"GB105033038170","region":"Anglian","area":"Central","totalSurveys":15,"speciesCount":18,"firstSurvey":"12/06/1989","lastSurvey":"19/05/2016"}},{"type":"Feature","geometry":{"type":"Point","coordinates":[-0.280999,52.040451]},"properties":{"siteId":"4966","name":"Henlow Control Site","waterbody":"GB105033037780","region":"Anglian","area":"Central","totalSurveys":1,"speciesCount":6,"firstSurvey":"03/05/2000","lastSurvey":"03/05/2000"}},{"type":"Feature","geometry":{"type":"Point","coordinates":[-0.281102,52.037755]},"properties":{"siteId":"4728","name":"Henlow","waterbody":"GB105033037780","region":"Anglian","area":"Central","totalSurveys":17,"speciesCount":14,"firstSurvey":"13/03/1989","lastSurvey":"08/10/2025"}},{"type":"Feature","geometry":{"type":"Point","coordinates":[-0.313063,52.156905]},"properties":{"siteId":"4736","name":"High Romper Bridge","waterbody":"GB105033038170","region":"Anglian","area":"Central","totalSurveys":5,"speciesCount":17,"firstSurvey":"23/06/1989","lastSurvey":"13/05/2005"}},{"type":"Feature","geometry":{"type":"Point","coordinates":[-0.270252,52.095979]},"properties":{"siteId":"19313","name":"Iron Bridge","waterbody":"GB105033038170","region":"Anglian","area":"Central","totalSurveys":1,"speciesCount":2,"firstSurvey":"04/04/2006","lastSurvey":"04/04/2006"}},{"type":"Feature","geometry":{"type":"Point","coordinates":[-0.274807,52.055098]},"properties":{"siteId":"34281","name":"Langford Mill","waterbody":"GB105033037780","region":"Anglian","area":"Central","totalSurveys":1,"speciesCount":8,"firstSurvey":"26/11/2009","lastSurvey":"26/11/2009"}},{"type":"Feature","geometry":{"type":"Point","coordinates":[-0.276454,52.044881]},"properties":{"siteId":"4729","name":"Langford Nursery","waterbody":"GB105033037780","region":"Anglian","area":"Central","totalSurveys":5,"speciesCount":13,"firstSurvey":"14/03/1989","lastSurvey":"29/04/2005"}},{"type":"Feature","geometry":{"type":"Point","coordinates":[-0.296765,52.124302]},"properties":{"siteId":"4734","name":"Sandy","waterbody":"GB105033038170","region":"Anglian","area":"Central","totalSurveys":4,"speciesCount":11,"firstSurvey":"27/01/1992","lastSurvey":"25/05/2005"}},{"type":"Feature","geometry":{"type":"Point","coordinates":[-0.306935,52.164676]},"properties":{"siteId":"11269","name":"Saw Mills Tempsford","waterbody":"GB105033038170","region":"Anglian","area":"Central","totalSurveys":1,"speciesCount":11,"firstSurvey":"22/08/2003","lastSurvey":"22/08/2003"}},{"type":"Feature","geometry":{"type":"Point","coordinates":[-0.269684,52.090657]},"properties":{"siteId":"19312","name":"US Iron Bridge","waterbody":"GB105033038170","region":"Anglian","area":"Central","totalSurveys":1,"speciesCount":3,"firstSurvey":"03/04/2006","lastSurvey":"03/04/2006"}},{"type":"Feature","geometry":{"type":"Point","coordinates":[-0.290624,52.246496]},"properties":{"siteId":"4746","name":"Brookend Farm","waterbody":"GB105033043270","region":"Anglian","area":"Central","totalSurveys":7,"speciesCount":14,"firstSurvey":"20/09/1989","lastSurvey":"11/06/2015"}},{"type":"Feature","geometry":{"type":"Point","coordinates":[-0.285955,52.253621]},"properties":{"siteId":"4747","name":"Hail Weston Ford","waterbody":"GB105033043270","region":"Anglian","area":"Central","totalSurveys":6,"speciesCount":17,"firstSurvey":"22/09/1989","lastSurvey":"12/06/2015"}},{"type":"Feature","geometry":{"type":"Point","coordinates":[-0.310745,52.256676]},"properties":{"siteId":"4745","name":"Meagre Farm","waterbody":"GB105033043270","region":"Anglian","area":"Central","totalSurveys":5,"speciesCount":11,"firstSurvey":"21/09/1989","lastSurvey":"23/05/2013"}},{"type":"Feature","geometry":{"type":"Point","coordinates":[-0.192119,52.31588]},"properties":{"siteId":"4776","name":"Berry Lane Bridge","waterbody":"GB105033047921","region":"Anglian","area":"Central","totalSurveys":5,"speciesCount":15,"firstSurvey":"06/11/1989","lastSurvey":"02/05/2006"}},{"type":"Feature","geometry":{"type":"Point","coordinates":[-0.205921,52.31271]},"properties":{"siteId":"4775","name":"Brampton Weir","waterbody":"GB105033047921","region":"Anglian","area":"Central","totalSurveys":5,"speciesCount":18,"firstSurvey":"07/11/1989","lastSurvey":"10/05/2006"}},{"type":"Feature","geometry":{"type":"Point","coordinates":[-0.049928,52.32475]},"properties":{"siteId":"34537","name":"Conger Lane","waterbody":"GB105033042800","region":"Anglian","area":"Central","totalSurveys":1,"speciesCount":10,"firstSurvey":"13/01/2010","lastSurvey":"13/01/2010"}},{"type":"Feature","geometry":{"type":"Point","coordinates":[-0.060628,52.330087]},"properties":{"siteId":"34536","name":"Manchester Arms","waterbody":"GB105033042800","region":"Anglian","area":"Central","totalSurveys":4,"speciesCount":13,"firstSurvey":"13/01/2010","lastSurvey":"24/07/2025"}},{"type":"Feature","geometry":{"type":"Point","coordinates":[-0.062453,52.34204]},"properties":{"siteId":"34535","name":"Paynes Way","waterbody":"GB105033042800","region":"Anglian","area":"Central","totalSurveys":1,"speciesCount":7,"firstSurvey":"13/01/2010","lastSurvey":"13/01/2010"}},{"type":"Feature","geometry":{"type":"Point","coordinates":[-0.185279,52.152599]},"properties":{"siteId":"37287","name":"Station Road Bridge Gamlingay","waterbody":"GB105033037820","region":"Anglian","area":"Central","totalSurveys":1,"speciesCount":1,"firstSurvey":"18/05/2011","lastSurvey":"18/05/2011"}},{"type":"Feature","geometry":{"type":"Point","coordinates":[-0.219558,52.111166]},"properties":{"siteId":"37289","name":"Sutton Ford","waterbody":"GB105033037820","region":"Anglian","area":"Central","totalSurveys":1,"speciesCount":5,"firstSurvey":"18/05/2011","lastSurvey":"18/05/2011"}},{"type":"Feature","geometry":{"type":"Point","coordinates":[-0.216664,52.114503]},"properties":{"siteId":"37288","name":"Sutton Golf Course","waterbody":"GB105033037820","region":"Anglian","area":"Central","totalSurveys":1,"speciesCount":8,"firstSurvey":"18/05/2011","lastSurvey":"18/05/2011"}},{"type":"Feature","geometry":{"type":"Point","coordinates":[-0.233889,52.105879]},"properties":{"siteId":"37290","name":"Watermill Bridge","waterbody":"GB105033037820","region":"Anglian","area":"Central","totalSurveys":1,"speciesCount":8,"firstSurvey":"18/05/2011","lastSurvey":"18/05/2011"}},{"type":"Feature","geometry":{"type":"Point","coordinates":[-0.429716,52.134581]},"properties":{"siteId":"4723","name":"Priory Country Park","waterbody":"GB105033047923","region":"Anglian","area":"Central","totalSurveys":5,"speciesCount":13,"firstSurvey":"12/07/1989","lastSurvey":"28/09/2023"}},{"type":"Feature","geometry":{"type":"Point","coordinates":[-0.035043,52.316923]},"properties":{"siteId":"30105","name":"Parsons Drove (Eel Monitoring)","waterbody":"GB105033042800","region":"Anglian","area":"Central","totalSurveys":6,"speciesCount":11,"firstSurvey":"23/05/2007","lastSurvey":"29/04/2013"}},{"type":"Feature","geometry":{"type":"Point","coordinates":[-0.255352,52.023961]},"properties":{"siteId":"34559","name":"Church End Arlesey","waterbody":"GB105033037730","region":"Anglian","area":"Central","totalSurveys":4,"speciesCount":7,"firstSurvey":"19/01/2010","lastSurvey":"08/05/2025"}},{"type":"Feature","geometry":{"type":"Point","coordinates":[-0.245538,52.01736]},"properties":{"siteId":"34558","name":"DS Stotfold","waterbody":"GB105033037730","region":"Anglian","area":"Central","totalSurveys":1,"speciesCount":4,"firstSurvey":"19/01/2010","lastSurvey":"19/01/2010"}},{"type":"Feature","geometry":{"type":"Point","coordinates":[-0.23932,52.000902]},"properties":{"siteId":"34554","name":"Letchworth STW","waterbody":"GB105033037730","region":"Anglian","area":"Central","totalSurveys":1,"speciesCount":3,"firstSurvey":"19/01/2010","lastSurvey":"19/01/2010"}},{"type":"Feature","geometry":{"type":"Point","coordinates":[-0.234481,52.010226]},"properties":{"siteId":"34555","name":"Stotfold","waterbody":"GB105033037730","region":"Anglian","area":"Central","totalSurveys":1,"speciesCount":5,"firstSurvey":"19/01/2010","lastSurvey":"19/01/2010"}},{"type":"Feature","geometry":{"type":"Point","coordinates":[-0.072594,52.319493]},"properties":{"siteId":"47505","name":"St Ives Bypass Channel","waterbody":"GB105033047921","region":"Anglian","area":"Central","totalSurveys":1,"speciesCount":9,"firstSurvey":"18/04/2013","lastSurvey":"18/04/2013"}},{"type":"Feature","geometry":{"type":"Point","coordinates":[-0.071948,52.321191]},"properties":{"siteId":"30111","name":"St Ives Chub Stream (Eel Monitoring)","waterbody":"GB105033047921","region":"Anglian","area":"Central","totalSurveys":6,"speciesCount":15,"firstSurvey":"09/05/2007","lastSurvey":"09/07/2013"}},{"type":"Feature","geometry":{"type":"Point","coordinates":[-0.069517,52.317717]},"properties":{"siteId":"4786","name":"St Ives Chub Stream","waterbody":"GB105033047921","region":"Anglian","area":"Central","totalSurveys":7,"speciesCount":25,"firstSurvey":"11/09/1992","lastSurvey":"08/04/2025"}},{"type":"Feature","geometry":{"type":"Point","coordinates":[-0.002337,52.321194]},"properties":{"siteId":"14293","name":"DS Webs Hole Sluice","waterbody":"GB105033042770","region":"Anglian","area":"Central","totalSurveys":1,"speciesCount":11,"firstSurvey":"18/04/2005","lastSurvey":"18/04/2005"}},{"type":"Feature","geometry":{"type":"Point","coordinates":[-0.001181,52.319493]},"properties":{"siteId":"30102","name":"Swavesey Drain (Eel Monitoring)","waterbody":"GB105033042770","region":"Anglian","area":"Central","totalSurveys":6,"speciesCount":9,"firstSurvey":"10/05/2007","lastSurvey":"02/05/2013"}},{"type":"Feature","geometry":{"type":"Point","coordinates":[-0.001767,52.320177]},"properties":{"siteId":"14291","name":"US Webs Hole Sluice","waterbody":"GB105033042770","region":"Anglian","area":"Central","totalSurveys":2,"speciesCount":15,"firstSurvey":"18/04/2005","lastSurvey":"02/05/2013"}},{"type":"Feature","geometry":{"type":"Point","coordinates":[-0.70249,52.055593]},"properties":{"siteId":"52446","name":"Broughton Junction","waterbody":"GB105033037930","region":"Anglian","area":"Central","totalSurveys":1,"speciesCount":9,"firstSurvey":"29/11/2013","lastSurvey":"29/11/2013"}},{"type":"Feature","geometry":{"type":"Point","coordinates":[-0.676,52.10011]},"properties":{"siteId":"34372","name":"Chicheley Road Bridge","waterbody":"GB105033038040","region":"Anglian","area":"Central","totalSurveys":1,"speciesCount":5,"firstSurvey":"27/07/2011","lastSurvey":"27/07/2011"}},{"type":"Feature","geometry":{"type":"Point","coordinates":[-0.827714,52.065743]},"properties":{"siteId":"4920","name":"Bradwell Waste Tip","waterbody":"GB105033037920","region":"Anglian","area":"Central","totalSurveys":2,"speciesCount":11,"firstSurvey":"27/03/1990","lastSurvey":"20/12/1993"}},{"type":"Feature","geometry":{"type":"Point","coordinates":[-0.842835,52.077877]},"properties":{"siteId":"4922","name":"Cosgrove","waterbody":"GB105033038180","region":"Anglian","area":"Central","totalSurveys":2,"speciesCount":11,"firstSurvey":"04/04/1990","lastSurvey":"01/02/1994"}},{"type":"Feature","geometry":{"type":"Point","coordinates":[-0.888513,52.118776]},"properties":{"siteId":"4924","name":"Grafton Regis","waterbody":"GB105033038180","region":"Anglian","area":"Central","totalSurveys":2,"speciesCount":10,"firstSurvey":"03/04/1990","lastSurvey":"28/01/1994"}},{"type":"Feature","geometry":{"type":"Point","coordinates":[-0.759782,52.073436]},"properties":{"siteId":"4919","name":"Linford Manor Park","waterbody":"GB105033038000","region":"Anglian","area":"Central","totalSurveys":2,"speciesCount":11,"firstSurvey":"25/03/1990","lastSurvey":"17/12/1993"}},{"type":"Feature","geometry":{"type":"Point","coordinates":[-0.716342,52.010932]},"properties":{"siteId":"4917","name":"Simpson","waterbody":"GB105033037971","region":"Anglian","area":"Central","totalSurveys":2,"speciesCount":6,"firstSurvey":"22/03/1990","lastSurvey":"15/12/1993"}},{"type":"Feature","geometry":{"type":"Point","coordinates":[-0.908473,52.138743]},"properties":{"siteId":"4925","name":"Stoke Bruerne","waterbody":"GB105033038180","region":"Anglian","area":"Central","totalSurveys":2,"speciesCount":10,"firstSurvey":"23/03/1990","lastSurvey":"31/01/1994"}},{"type":"Feature","geometry":{"type":"Point","coordinates":[-0.828552,52.066048]},"properties":{"siteId":"4921","name":"Wolverton","waterbody":"GB105033037920","region":"Anglian","area":"Central","totalSurveys":2,"speciesCount":9,"firstSurvey":"28/03/1990","lastSurvey":"22/12/1993"}},{"type":"Feature","geometry":{"type":"Point","coordinates":[-0.730017,52.04255]},"properties":{"siteId":"4918","name":"Woolstone","waterbody":"GB105033037971","region":"Anglian","area":"Central","totalSurveys":2,"speciesCount":10,"firstSurvey":"30/03/1990","lastSurvey":"16/12/1993"}},{"type":"Feature","geometry":{"type":"Point","coordinates":[-0.861388,52.094242]},"properties":{"siteId":"4923","name":"Yardley Gobion GUC","waterbody":"GB105033038180","region":"Anglian","area":"Central","totalSurveys":2,"speciesCount":10,"firstSurvey":"02/04/1990","lastSurvey":"23/12/1993"}},{"type":"Feature","geometry":{"type":"Point","coordinates":[-0.865469,52.048427]},"properties":{"siteId":"4632","name":"DS Passenham Weir","waterbody":"GB105033037920","region":"Anglian","area":"Central","totalSurveys":6,"speciesCount":12,"firstSurvey":"15/07/1988","lastSurvey":"17/04/2008"}},{"type":"Feature","geometry":{"type":"Point","coordinates":[-0.838339,52.064428]},"properties":{"siteId":"36762","name":"DS Wolverton Mill","waterbody":"GB105033037920","region":"Anglian","area":"Central","totalSurveys":3,"speciesCount":13,"firstSurvey":"20/08/2013","lastSurvey":"14/08/2019"}},{"type":"Feature","geometry":{"type":"Point","coordinates":[-0.779958,52.082638]},"properties":{"siteId":"4636","name":"Haversham Weir","waterbody":"GB105033038000","region":"Anglian","area":"Central","totalSurveys":5,"speciesCount":9,"firstSurvey":"20/07/1988","lastSurvey":"25/04/2008"}},{"type":"Feature","geometry":{"type":"Point","coordinates":[-0.816932,52.064134]},"properties":{"siteId":"4635","name":"Manor Farm Cosgrove","waterbody":"GB105033038180","region":"Anglian","area":"Central","totalSurveys":9,"speciesCount":15,"firstSurvey":"08/07/1988","lastSurvey":"17/06/2025"}},{"type":"Feature","geometry":{"type":"Point","coordinates":[-0.751812,52.097628]},"properties":{"siteId":"4637","name":"Mill Farm Gayhurst","waterbody":"GB105033038000","region":"Anglian","area":"Central","totalSurveys":13,"speciesCount":20,"firstSurvey":"02/08/1988","lastSurvey":"19/08/2019"}},{"type":"Feature","geometry":{"type":"Point","coordinates":[-0.87303,52.03771]},"properties":{"siteId":"4630","name":"Mill Farm","waterbody":"GB105033037920","region":"Anglian","area":"Central","totalSurveys":10,"speciesCount":14,"firstSurvey":"30/06/1988","lastSurvey":"26/06/2024"}},{"type":"Feature","geometry":{"type":"Point","coordinates":[-0.890699,52.030685]},"properties":{"siteId":"4628","name":"Mount Mill Farm","waterbody":"GB105033037920","region":"Anglian","area":"Central","totalSurveys":15,"speciesCount":18,"firstSurvey":"09/08/1988","lastSurvey":"05/08/2013"}},{"type":"Feature","geometry":{"type":"Point","coordinates":[-0.959841,52.003443]},"properties":{"siteId":"4626","name":"Old Mill House Buckingham","waterbody":"GB105033037860","region":"Anglian","area":"Central","totalSurveys":4,"speciesCount":11,"firstSurvey":"24/06/1988","lastSurvey":"14/04/1997"}},{"type":"Feature","geometry":{"type":"Point","coordinates":[-0.861076,52.058904]},"properties":{"siteId":"4633","name":"Old Stratford","waterbody":"GB105033037920","region":"Anglian","area":"Central","totalSurveys":6,"speciesCount":11,"firstSurvey":"27/06/1988","lastSurvey":"30/07/2013"}},{"type":"Feature","geometry":{"type":"Point","coordinates":[-0.856745,52.047444]},"properties":{"siteId":"4631","name":"Passenham","waterbody":"GB105033037920","region":"Anglian","area":"Central","totalSurveys":19,"speciesCount":16,"firstSurvey":"14/07/1988","lastSurvey":"12/06/2025"}},{"type":"Feature","geometry":{"type":"Point","coordinates":[-0.856367,52.052529]},"properties":{"siteId":"67323","name":"Stony Stratford Bypass Channel","waterbody":null,"region":"Anglian","area":"Central","totalSurveys":3,"speciesCount":11,"firstSurvey":"30/06/2016","lastSurvey":"08/10/2019"}},{"type":"Feature","geometry":{"type":"Point","coordinates":[-0.940822,52.00687]},"properties":{"siteId":"4627","name":"Thornborough Mill","waterbody":"GB105033037920","region":"Anglian","area":"Central","totalSurveys":16,"speciesCount":14,"firstSurvey":"10/08/1988","lastSurvey":"05/06/2025"}},{"type":"Feature","geometry":{"type":"Point","coordinates":[-0.874555,52.035028]},"properties":{"siteId":"4629","name":"US Mill Farm","waterbody":"GB105033037920","region":"Anglian","area":"Central","totalSurveys":4,"speciesCount":12,"firstSurvey":"28/06/1988","lastSurvey":"17/04/1997"}},{"type":"Feature","geometry":{"type":"Point","coordinates":[-0.847314,52.063149]},"properties":{"siteId":"4634","name":"Wolverton Mill","waterbody":"GB105033037920","region":"Anglian","area":"Central","totalSurveys":14,"speciesCount":16,"firstSurvey":"05/08/1988","lastSurvey":"29/06/2010"}},{"type":"Feature","geometry":{"type":"Point","coordinates":[-0.517991,52.148868]},"properties":{"siteId":"4690","name":"Biddenham","waterbody":"GB105033047923","region":"Anglian","area":"Central","totalSurveys":4,"speciesCount":14,"firstSurvey":"29/11/1988","lastSurvey":"17/11/1997"}},{"type":"Feature","geometry":{"type":"Point","coordinates":[-0.62362,52.183415]},"properties":{"siteId":"4681","name":"Carlton","waterbody":"GB105033047923","region":"Anglian","area":"Central","totalSurveys":4,"speciesCount":14,"firstSurvey":"18/10/1988","lastSurvey":"17/10/1997"}},{"type":"Feature","geometry":{"type":"Point","coordinates":[-0.487006,52.157466]},"properties":{"siteId":"4689","name":"Clapham","waterbody":"GB105033047923","region":"Anglian","area":"Central","totalSurveys":4,"speciesCount":13,"firstSurvey":"28/10/1988","lastSurvey":"27/10/1997"}},{"type":"Feature","geometry":{"type":"Point","coordinates":[-0.690502,52.147313]},"properties":{"siteId":"4677","name":"Clifton Reynes","waterbody":"GB105033047923","region":"Anglian","area":"Central","totalSurveys":16,"speciesCount":19,"firstSurvey":"16/11/1988","lastSurvey":"16/08/2023"}},{"type":"Feature","geometry":{"type":"Point","coordinates":[-0.74169,52.131525]},"properties":{"siteId":"36771","name":"DS Ravenstone Mill","waterbody":"GB105033047923","region":"Anglian","area":"Central","totalSurveys":4,"speciesCount":13,"firstSurvey":"01/09/2011","lastSurvey":"15/08/2023"}},{"type":"Feature","geometry":{"type":"Point","coordinates":[-0.708123,52.147975]},"properties":{"siteId":"4676","name":"Emberton Park","waterbody":"GB105033047923","region":"Anglian","area":"Central","totalSurveys":5,"speciesCount":12,"firstSurvey":"24/11/1988","lastSurvey":"24/08/2001"}},{"type":"Feature","geometry":{"type":"Point","coordinates":[-0.512358,52.208229]},"properties":{"siteId":"13443","name":"Falcon Inn Bletsoe","waterbody":"GB105033047923","region":"Anglian","area":"Central","totalSurveys":1,"speciesCount":11,"firstSurvey":"06/09/2004","lastSurvey":"06/09/2004"}},{"type":"Feature","geometry":{"type":"Point","coordinates":[-0.549548,52.212199]},"properties":{"siteId":"4684","name":"Felmersham","waterbody":"GB105033047923","region":"Anglian","area":"Central","totalSurveys":4,"speciesCount":12,"firstSurvey":"19/10/1988","lastSurvey":"20/10/1997"}},{"type":"Feature","geometry":{"type":"Point","coordinates":[-0.596821,52.198384]},"properties":{"siteId":"4682","name":"Harrold Country Park","waterbody":"GB105033047923","region":"Anglian","area":"Central","totalSurveys":4,"speciesCount":14,"firstSurvey":"14/11/1988","lastSurvey":"14/11/1997"}},{"type":"Feature","geometry":{"type":"Point","coordinates":[-0.505835,52.119044]},"properties":{"siteId":"4691","name":"Kempston Mill","waterbody":"GB105033047923","region":"Anglian","area":"Central","totalSurveys":7,"speciesCount":19,"firstSurvey":"25/11/1988","lastSurvey":"31/08/2023"}},{"type":"Feature","geometry":{"type":"Point","coordinates":[-0.681231,52.164293]},"properties":{"siteId":"4678","name":"Lavendon Mill","waterbody":"GB105033047923","region":"Anglian","area":"Central","totalSurveys":6,"speciesCount":13,"firstSurvey":"13/10/1988","lastSurvey":"02/09/2011"}},{"type":"Feature","geometry":{"type":"Point","coordinates":[-0.516636,52.202798]},"properties":{"siteId":"13492","name":"Milton Ernest STW","waterbody":"GB105033047923","region":"Anglian","area":"Central","totalSurveys":1,"speciesCount":13,"firstSurvey":"07/09/2004","lastSurvey":"07/09/2004"}},{"type":"Feature","geometry":{"type":"Point","coordinates":[-0.51241,52.184763]},"properties":{"siteId":"4686","name":"Milton Ernest","waterbody":"GB105033047923","region":"Anglian","area":"Central","totalSurveys":3,"speciesCount":14,"firstSurvey":"22/11/1988","lastSurvey":"19/10/1994"}},{"type":"Feature","geometry":{"type":"Point","coordinates":[-0.718503,52.08828]},"properties":{"siteId":"4673","name":"Newport Pagnell","waterbody":"GB105033047923","region":"Anglian","area":"Central","totalSurveys":15,"speciesCount":21,"firstSurvey":"15/11/1988","lastSurvey":"04/09/2017"}},{"type":"Feature","geometry":{"type":"Point","coordinates":[-0.642097,52.15306]},"properties":{"siteId":"4679","name":"Newton Blossomville","waterbody":"GB105033047923","region":"Anglian","area":"Central","totalSurveys":4,"speciesCount":13,"firstSurvey":"17/10/1988","lastSurvey":"08/10/1997"}},{"type":"Feature","geometry":{"type":"Point","coordinates":[-0.526223,52.165156]},"properties":{"siteId":"4688","name":"Oakley","waterbody":"GB105033047923","region":"Anglian","area":"Central","totalSurveys":16,"speciesCount":16,"firstSurvey":"23/11/1988","lastSurvey":"30/08/2023"}},{"type":"Feature","geometry":{"type":"Point","coordinates":[-0.584748,52.209929]},"properties":{"siteId":"4683","name":"Odell","waterbody":"GB105033047923","region":"Anglian","area":"Central","totalSurveys":13,"speciesCount":16,"firstSurvey":"21/11/1988","lastSurvey":"23/08/2023"}},{"type":"Feature","geometry":{"type":"Point","coordinates":[-0.532968,52.182323]},"properties":{"siteId":"4687","name":"Pavenham","waterbody":"GB105033047923","region":"Anglian","area":"Central","totalSurveys":8,"speciesCount":15,"firstSurvey":"11/11/1988","lastSurvey":"17/08/2010"}},{"type":"Feature","geometry":{"type":"Point","coordinates":[-0.48509,52.127771]},"properties":{"siteId":"4692","name":"Queens Park Bedford","waterbody":"GB105033047923","region":"Anglian","area":"Central","totalSurveys":3,"speciesCount":9,"firstSurvey":"02/03/1992","lastSurvey":"05/11/1997"}},{"type":"Feature","geometry":{"type":"Point","coordinates":[-0.513002,52.210845]},"properties":{"siteId":"4685","name":"Radwell / Bletsoe","waterbody":"GB105033047923","region":"Anglian","area":"Central","totalSurveys":13,"speciesCount":16,"firstSurvey":"20/10/1988","lastSurvey":"04/08/2010"}},{"type":"Feature","geometry":{"type":"Point","coordinates":[-0.750933,52.129088]},"properties":{"siteId":"4675","name":"Ravenstone Mill","waterbody":"GB105033047923","region":"Anglian","area":"Central","totalSurveys":9,"speciesCount":17,"firstSurvey":"01/11/1988","lastSurvey":"05/08/2010"}},{"type":"Feature","geometry":{"type":"Point","coordinates":[-0.718091,52.102661]},"properties":{"siteId":"4674","name":"Sherrington","waterbody":"GB105033047923","region":"Anglian","area":"Central","totalSurveys":4,"speciesCount":14,"firstSurvey":"26/10/1988","lastSurvey":"23/10/1997"}},{"type":"Feature","geometry":{"type":"Point","coordinates":[-0.520033,52.219475]},"properties":{"siteId":"13439","name":"Stoke Mill Sharnbrook","waterbody":"GB105033047923","region":"Anglian","area":"Central","totalSurveys":1,"speciesCount":14,"firstSurvey":"03/09/2004","lastSurvey":"03/09/2004"}},{"type":"Feature","geometry":{"type":"Point","coordinates":[-0.630104,52.162811]},"properties":{"siteId":"4680","name":"Turvey","waterbody":"GB105033047923","region":"Anglian","area":"Central","totalSurveys":17,"speciesCount":18,"firstSurvey":"18/11/1988","lastSurvey":"22/08/2023"}},{"type":"Feature","geometry":{"type":"Point","coordinates":[-0.756265,52.094978]},"properties":{"siteId":"4638","name":"Mill Farm Gayhurst Back Channel","waterbody":"GB105033038000","region":"Anglian","area":"Central","totalSurveys":1,"speciesCount":13,"firstSurvey":"04/08/1997","lastSurvey":"04/08/1997"}},{"type":"Feature","geometry":{"type":"Point","coordinates":[-0.708652,52.075585]},"properties":{"siteId":"4701","name":"Caldecote Mill","waterbody":"GB105033037972","region":"Anglian","area":"Central","totalSurveys":12,"speciesCount":17,"firstSurvey":"06/11/1990","lastSurvey":"12/05/2010"}},{"type":"Feature","geometry":{"type":"Point","coordinates":[-0.718554,52.086482]},"properties":{"siteId":"4703","name":"Castle Meadow","waterbody":"GB105033037972","region":"Anglian","area":"Central","totalSurveys":11,"speciesCount":20,"firstSurvey":"22/11/1990","lastSurvey":"30/04/2009"}},{"type":"Feature","geometry":{"type":"Point","coordinates":[-0.713571,52.056757]},"properties":{"siteId":"4699","name":"Cotton Valley STW","waterbody":"GB105033037971","region":"Anglian","area":"Central","totalSurveys":2,"speciesCount":5,"firstSurvey":"09/11/1990","lastSurvey":"02/04/2004"}},{"type":"Feature","geometry":{"type":"Point","coordinates":[-0.712608,52.079575]},"properties":{"siteId":"36753","name":"DS Caldecote Mill","waterbody":"GB105033037972","region":"Anglian","area":"Central","totalSurveys":3,"speciesCount":13,"firstSurvey":"17/06/2013","lastSurvey":"15/07/2019"}},{"type":"Feature","geometry":{"type":"Point","coordinates":[-0.711957,52.062134]},"properties":{"siteId":"4700","name":"M1 Road Bridge","waterbody":"GB105033037971","region":"Anglian","area":"Central","totalSurveys":5,"speciesCount":15,"firstSurvey":"08/11/1990","lastSurvey":"13/05/2010"}},{"type":"Feature","geometry":{"type":"Point","coordinates":[-0.717173,52.080677]},"properties":{"siteId":"4702","name":"Newport Pagnell","waterbody":"GB105033037972","region":"Anglian","area":"Central","totalSurveys":7,"speciesCount":16,"firstSurvey":"07/11/1990","lastSurvey":"07/08/2025"}},{"type":"Feature","geometry":{"type":"Point","coordinates":[-0.714448,52.026197]},"properties":{"siteId":"4698","name":"Open University","waterbody":"GB105033037971","region":"Anglian","area":"Central","totalSurveys":15,"speciesCount":13,"firstSurvey":"04/01/1995","lastSurvey":"05/08/2025"}},{"type":"Feature","geometry":{"type":"Point","coordinates":[-0.71117,52.018024]},"properties":{"siteId":"4697","name":"Simpson Ouzel","waterbody":"GB105033037971","region":"Anglian","area":"Central","totalSurveys":4,"speciesCount":13,"firstSurvey":"21/11/1990","lastSurvey":"29/03/2004"}},{"type":"Feature","geometry":{"type":"Point","coordinates":[-0.787245,52.025377]},"properties":{"siteId":"60023","name":"US Open University","waterbody":"GB105033037900","region":"Anglian","area":"Central","totalSurveys":4,"speciesCount":12,"firstSurvey":"03/09/2014","lastSurvey":"06/10/2017"}},{"type":"Feature","geometry":{"type":"Point","coordinates":[-0.530004,52.204791]},"properties":{"siteId":"45462","name":"Radwell Back Channel","waterbody":"GB105033047923","region":"Anglian","area":"Central","totalSurveys":2,"speciesCount":12,"firstSurvey":"13/11/2012","lastSurvey":"19/11/2013"}},{"type":"Feature","geometry":{"type":"Point","coordinates":[-0.883274,52.127394]},"properties":{"siteId":"4553","name":"Bozenham Mill","waterbody":"GB105033038180","region":"Anglian","area":"Central","totalSurveys":4,"speciesCount":12,"firstSurvey":"25/04/1988","lastSurvey":"03/02/1998"}},{"type":"Feature","geometry":{"type":"Point","coordinates":[-0.958416,52.127506]},"properties":{"siteId":"4550","name":"Cappenham Bridge","waterbody":"GB105033038180","region":"Anglian","area":"Central","totalSurveys":10,"speciesCount":13,"firstSurvey":"05/10/1987","lastSurvey":"21/08/2025"}},{"type":"Feature","geometry":{"type":"Point","coordinates":[-0.844061,52.08688]},"properties":{"siteId":"4557","name":"Castlethorpe","waterbody":"GB105033038180","region":"Anglian","area":"Central","totalSurveys":4,"speciesCount":16,"firstSurvey":"03/05/1988","lastSurvey":"16/02/1998"}},{"type":"Feature","geometry":{"type":"Point","coordinates":[-0.834199,52.073297]},"properties":{"siteId":"4558","name":"Cosgrove Lodge","waterbody":"GB105033038180","region":"Anglian","area":"Central","totalSurveys":10,"speciesCount":20,"firstSurvey":"05/05/1988","lastSurvey":"27/08/2025"}},{"type":"Feature","geometry":{"type":"Point","coordinates":[-0.905834,52.128388]},"properties":{"siteId":"4552","name":"DS A508 Lay-by","waterbody":"GB105033038180","region":"Anglian","area":"Central","totalSurveys":7,"speciesCount":13,"firstSurvey":"04/05/1988","lastSurvey":"04/04/2016"}},{"type":"Feature","geometry":{"type":"Point","coordinates":[-0.946012,52.128178]},"properties":{"siteId":"63303","name":"DS Cappenham Bridge","waterbody":null,"region":"Anglian","area":"Central","totalSurveys":2,"speciesCount":8,"firstSurvey":"01/04/2015","lastSurvey":"23/03/2016"}},{"type":"Feature","geometry":{"type":"Point","coordinates":[-0.8842,52.116038]},"properties":{"siteId":"4554","name":"Grafton Regis","waterbody":"GB105033038180","region":"Anglian","area":"Central","totalSurveys":9,"speciesCount":14,"firstSurvey":"26/04/1988","lastSurvey":"23/08/2019"}},{"type":"Feature","geometry":{"type":"Point","coordinates":[-0.933253,52.125995]},"properties":{"siteId":"4551","name":"Grove Farm Shutlanger","waterbody":"GB105033038180","region":"Anglian","area":"Central","totalSurveys":5,"speciesCount":13,"firstSurvey":"06/10/1987","lastSurvey":"08/04/2015"}},{"type":"Feature","geometry":{"type":"Point","coordinates":[-0.856311,52.093554]},"properties":{"siteId":"4556","name":"Milford Leys Farm","waterbody":"GB105033038180","region":"Anglian","area":"Central","totalSurveys":9,"speciesCount":15,"firstSurvey":"27/04/1988","lastSurvey":"30/08/2019"}},{"type":"Feature","geometry":{"type":"Point","coordinates":[-0.945469,52.127688]},"properties":{"siteId":"63503","name":"US Grove Farm Shutlanger","waterbody":null,"region":"Anglian","area":"Central","totalSurveys":2,"speciesCount":6,"firstSurvey":"01/04/2015","lastSurvey":"23/03/2016"}},{"type":"Feature","geometry":{"type":"Point","coordinates":[-0.868503,52.101503]},"properties":{"siteId":"4555","name":"Yardley Gobion","waterbody":"GB105033038180","region":"Anglian","area":"Central","totalSurveys":4,"speciesCount":13,"firstSurvey":"27/04/1988","lastSurvey":"12/02/1998"}},{"type":"Feature","geometry":{"type":"Point","coordinates":[-0.089757,52.658813]},"properties":{"siteId":"9240","name":"French Drove","waterbody":"GB105032050390","region":"Anglian","area":"Northern","totalSurveys":8,"speciesCount":12,"firstSurvey":"02/10/1991","lastSurvey":"02/05/2006"}},{"type":"Feature","geometry":{"type":"Point","coordinates":[-0.033449,52.661489]},"properties":{"siteId":"5929","name":"New South Eau","waterbody":"GB105032050390","region":"Anglian","area":"Northern","totalSurveys":3,"speciesCount":11,"firstSurvey":"16/10/1991","lastSurvey":"22/04/1997"}},{"type":"Feature","geometry":{"type":"Point","coordinates":[-0.017004,52.600075]},"properties":{"siteId":"5940","name":"D/S Cross Guns","waterbody":"GB105032050382","region":"Anglian","area":"Northern","totalSurveys":4,"speciesCount":10,"firstSurvey":"16/09/1991","lastSurvey":"11/04/2016"}},{"type":"Feature","geometry":{"type":"Point","coordinates":[-0.020615,52.614971]},"properties":{"siteId":"5941","name":"New Wryde Drain U/S A47 Road Bridge","waterbody":"GB105032050382","region":"Anglian","area":"Northern","totalSurveys":3,"speciesCount":11,"firstSurvey":"17/09/1991","lastSurvey":"16/04/1997"}},{"type":"Feature","geometry":{"type":"Point","coordinates":[-0.189725,52.637006]},"properties":{"siteId":"5943","name":"Newborough Drain Road Side","waterbody":"GB105032050390","region":"Anglian","area":"Northern","totalSurveys":4,"speciesCount":12,"firstSurvey":"01/10/1991","lastSurvey":"08/04/2016"}},{"type":"Feature","geometry":{"type":"Point","coordinates":[-0.188286,52.636085]},"properties":{"siteId":"5942","name":"Newborough Drain s/s","waterbody":"GB105032050390","region":"Anglian","area":"Northern","totalSurveys":1,"speciesCount":1,"firstSurvey":"07/10/1991","lastSurvey":"07/10/1991"}},{"type":"Feature","geometry":{"type":"Point","coordinates":[-0.194008,52.640668]},"properties":{"siteId":"5944","name":"Speechley Drove","waterbody":"GB105032050390","region":"Anglian","area":"Northern","totalSurveys":3,"speciesCount":7,"firstSurvey":"24/10/1991","lastSurvey":"15/04/1997"}},{"type":"Feature","geometry":{"type":"Point","coordinates":[-0.023116,52.759319]},"properties":{"siteId":"6014","name":"Crans Gate Farm","waterbody":"GB105032050400","region":"Anglian","area":"Northern","totalSurveys":1,"speciesCount":2,"firstSurvey":"15/01/1988","lastSurvey":"15/01/1988"}},{"type":"Feature","geometry":{"type":"Point","coordinates":[-0.003659,52.763488]},"properties":{"siteId":"6013","name":"Saturday Bridge","waterbody":"GB105031050690","region":"Anglian","area":"Northern","totalSurveys":8,"speciesCount":13,"firstSurvey":"14/01/1988","lastSurvey":"11/04/2019"}},{"type":"Feature","geometry":{"type":"Point","coordinates":[-0.021457,52.73052]},"properties":{"siteId":"6001","name":"D/S Coy Sluice","waterbody":"GB105032050400","region":"Anglian","area":"Northern","totalSurveys":3,"speciesCount":14,"firstSurvey":"07/01/1988","lastSurvey":"13/06/2001"}},{"type":"Feature","geometry":{"type":"Point","coordinates":[-0.063335,52.721321]},"properties":{"siteId":"5994","name":"Holland House","waterbody":"GB105032050400","region":"Anglian","area":"Northern","totalSurveys":2,"speciesCount":12,"firstSurvey":"18/01/1988","lastSurvey":"01/07/1991"}},{"type":"Feature","geometry":{"type":"Point","coordinates":[-0.123849,52.725891]},"properties":{"siteId":"5992","name":"Peak Hill","waterbody":"GB105031050680","region":"Anglian","area":"Northern","totalSurveys":4,"speciesCount":6,"firstSurvey":"22/02/1988","lastSurvey":"01/04/2011"}},{"type":"Feature","geometry":{"type":"Point","coordinates":[-0.012782,52.725879]},"properties":{"siteId":"19198","name":"Shell Bridge","waterbody":"GB105032050400","region":"Anglian","area":"Northern","totalSurveys":11,"speciesCount":17,"firstSurvey":"15/04/1986","lastSurvey":"26/03/2025"}},{"type":"Feature","geometry":{"type":"Point","coordinates":[-0.079532,52.723383]},"properties":{"siteId":"5993","name":"U/S Wisemans Pumping Station","waterbody":"GB105031050680","region":"Anglian","area":"Northern","totalSurveys":8,"speciesCount":15,"firstSurvey":"05/01/1988","lastSurvey":"19/04/2016"}},{"type":"Feature","geometry":{"type":"Point","coordinates":[-0.241629,52.779842]},"properties":{"siteId":"6037","name":"1 Mile D/S Guthram","waterbody":"GB105031050670","region":"Anglian","area":"Northern","totalSurveys":1,"speciesCount":6,"firstSurvey":"04/02/1988","lastSurvey":"04/02/1988"}},{"type":"Feature","geometry":{"type":"Point","coordinates":[-0.240183,52.778921]},"properties":{"siteId":"5922","name":"Bailey Bridge","waterbody":"GB105031050670","region":"Anglian","area":"Northern","totalSurveys":1,"speciesCount":8,"firstSurvey":"11/09/1991","lastSurvey":"11/09/1991"}},{"type":"Feature","geometry":{"type":"Point","coordinates":[-0.303852,52.742987]},"properties":{"siteId":"6032","name":"Baston Fen Road","waterbody":"GB105031050670","region":"Anglian","area":"Northern","totalSurveys":5,"speciesCount":10,"firstSurvey":"27/01/1988","lastSurvey":"02/02/2004"}},{"type":"Feature","geometry":{"type":"Point","coordinates":[-0.214883,52.78124]},"properties":{"siteId":"5952","name":"Counter Drain U/S Pode Hole","waterbody":"GB105031050670","region":"Anglian","area":"Northern","totalSurveys":1,"speciesCount":3,"firstSurvey":"08/02/1988","lastSurvey":"08/02/1988"}},{"type":"Feature","geometry":{"type":"Point","coordinates":[-0.24911,52.778154]},"properties":{"siteId":"6036","name":"D/S Guthram","waterbody":"GB105031050720","region":"Anglian","area":"Northern","totalSurveys":3,"speciesCount":4,"firstSurvey":"03/02/1988","lastSurvey":"29/03/2016"}},{"type":"Feature","geometry":{"type":"Point","coordinates":[-0.213465,52.743458]},"properties":{"siteId":"11322","name":"D/S Old Railway Bridge","waterbody":"GB105031050670","region":"Anglian","area":"Northern","totalSurveys":2,"speciesCount":8,"firstSurvey":"14/10/2003","lastSurvey":"29/03/2016"}},{"type":"Feature","geometry":{"type":"Point","coordinates":[-0.288729,52.750861]},"properties":{"siteId":"6034","name":"D/S Tongue End","waterbody":"GB105031050720","region":"Anglian","area":"Northern","totalSurveys":1,"speciesCount":3,"firstSurvey":"01/02/1988","lastSurvey":"01/02/1988"}},{"type":"Feature","geometry":{"type":"Point","coordinates":[-0.258503,52.765706]},"properties":{"siteId":"6035","name":"U/S Guthram","waterbody":"GB105031050670","region":"Anglian","area":"Northern","totalSurveys":3,"speciesCount":10,"firstSurvey":"02/02/1988","lastSurvey":"04/05/1999"}},{"type":"Feature","geometry":{"type":"Point","coordinates":[-0.291761,52.749107]},"properties":{"siteId":"6033","name":"U/S Tongue End","waterbody":"GB105031050670","region":"Anglian","area":"Northern","totalSurveys":2,"speciesCount":9,"firstSurvey":"29/01/1988","lastSurvey":"12/04/1994"}},{"type":"Feature","geometry":{"type":"Point","coordinates":[-0.250664,52.776379]},"properties":{"siteId":"6038","name":"Willow Farm","waterbody":"GB105031050670","region":"Anglian","area":"Northern","totalSurveys":2,"speciesCount":7,"firstSurvey":"11/04/1994","lastSurvey":"28/04/1999"}},{"type":"Feature","geometry":{"type":"Point","coordinates":[-0.291194,52.725723]},"properties":{"siteId":"6016","name":"Baston Fen End","waterbody":"GB105031050670","region":"Anglian","area":"Northern","totalSurveys":3,"speciesCount":6,"firstSurvey":"03/09/1991","lastSurvey":"19/04/1999"}},{"type":"Feature","geometry":{"type":"Point","coordinates":[-0.212361,52.770414]},"properties":{"siteId":"6022","name":"D/S Cuckoo Bridge","waterbody":"GB105031050670","region":"Anglian","area":"Northern","totalSurveys":4,"speciesCount":10,"firstSurvey":"08/08/1988","lastSurvey":"07/10/2003"}},{"type":"Feature","geometry":{"type":"Point","coordinates":[-0.220208,52.759743]},"properties":{"siteId":"6018","name":"Decoy Farm","waterbody":"GB105031050670","region":"Anglian","area":"Northern","totalSurveys":1,"speciesCount":3,"firstSurvey":"05/06/1994","lastSurvey":"05/06/1994"}},{"type":"Feature","geometry":{"type":"Point","coordinates":[-0.239861,52.750146]},"properties":{"siteId":"6020","name":"Grays Farm","waterbody":"GB105031050670","region":"Anglian","area":"Northern","totalSurveys":3,"speciesCount":10,"firstSurvey":"29/08/1991","lastSurvey":"15/04/1999"}},{"type":"Feature","geometry":{"type":"Point","coordinates":[-0.204621,52.778388]},"properties":{"siteId":"6023","name":"North Drove Drain U/S Pode Hole","waterbody":"GB105031050660","region":"Anglian","area":"Northern","totalSurveys":4,"speciesCount":8,"firstSurvey":"20/08/1991","lastSurvey":"31/03/2016"}},{"type":"Feature","geometry":{"type":"Point","coordinates":[-0.271528,52.736227]},"properties":{"siteId":"6017","name":"Shillakers Farm","waterbody":"GB105031050670","region":"Anglian","area":"Northern","totalSurveys":3,"speciesCount":9,"firstSurvey":"30/08/1991","lastSurvey":"13/04/1999"}},{"type":"Feature","geometry":{"type":"Point","coordinates":[-0.215398,52.768661]},"properties":{"siteId":"6021","name":"U/S Cuckoo Bridge","waterbody":"GB105031050670","region":"Anglian","area":"Northern","totalSurveys":5,"speciesCount":10,"firstSurvey":"15/08/1991","lastSurvey":"08/04/2019"}},{"type":"Feature","geometry":{"type":"Point","coordinates":[-0.17557,52.756907]},"properties":{"siteId":"6027","name":"A16 Lucks Bridge","waterbody":"GB105031050660","region":"Anglian","area":"Northern","totalSurveys":2,"speciesCount":7,"firstSurvey":"12/08/1991","lastSurvey":"14/07/1994"}},{"type":"Feature","geometry":{"type":"Point","coordinates":[-0.209126,52.704732]},"properties":{"siteId":"6024","name":"Crowland Common","waterbody":"GB105031050660","region":"Anglian","area":"Northern","totalSurveys":1,"speciesCount":8,"firstSurvey":"02/09/1991","lastSurvey":"02/09/1991"}},{"type":"Feature","geometry":{"type":"Point","coordinates":[-0.195656,52.78005]},"properties":{"siteId":"6030","name":"D/S Horseshoe Bridge","waterbody":"GB105031050660","region":"Anglian","area":"Northern","totalSurveys":1,"speciesCount":4,"firstSurvey":"21/04/1999","lastSurvey":"21/04/1999"}},{"type":"Feature","geometry":{"type":"Point","coordinates":[-0.181588,52.761854]},"properties":{"siteId":"6028","name":"D/S Lucks Bridge","waterbody":"GB105031050660","region":"Anglian","area":"Northern","totalSurveys":2,"speciesCount":8,"firstSurvey":"22/04/1999","lastSurvey":"05/04/2016"}},{"type":"Feature","geometry":{"type":"Point","coordinates":[-0.233638,52.794108]},"properties":{"siteId":"11330","name":"Lucks Bridge","waterbody":"GB105031050660","region":"Anglian","area":"Northern","totalSurveys":1,"speciesCount":6,"firstSurvey":"09/10/2003","lastSurvey":"09/10/2003"}},{"type":"Feature","geometry":{"type":"Point","coordinates":[-0.201584,52.78014]},"properties":{"siteId":"6031","name":"South Drove U/S Pode Hole","waterbody":"GB105031050660","region":"Anglian","area":"Northern","totalSurveys":2,"speciesCount":9,"firstSurvey":"08/08/1991","lastSurvey":"13/07/1994"}},{"type":"Feature","geometry":{"type":"Point","coordinates":[-0.190177,52.769178]},"properties":{"siteId":"6029","name":"U/S Horseshoe Bridge","waterbody":"GB105031050660","region":"Anglian","area":"Northern","totalSurveys":1,"speciesCount":7,"firstSurvey":"09/08/1991","lastSurvey":"09/08/1991"}},{"type":"Feature","geometry":{"type":"Point","coordinates":[-0.171173,52.748658]},"properties":{"siteId":"6026","name":"U/S Lucks Bridge","waterbody":"GB105031050660","region":"Anglian","area":"Northern","totalSurveys":3,"speciesCount":11,"firstSurvey":"13/08/1991","lastSurvey":"05/05/1999"}},{"type":"Feature","geometry":{"type":"Point","coordinates":[-0.195479,52.712617]},"properties":{"siteId":"6025","name":"U/S Smiths Bridge","waterbody":"GB105031050660","region":"Anglian","area":"Northern","totalSurveys":6,"speciesCount":11,"firstSurvey":"14/08/1991","lastSurvey":"07/05/2025"}},{"type":"Feature","geometry":{"type":"Point","coordinates":[-0.189394,52.788047]},"properties":{"siteId":"5924","name":"D/S Pode Hole","waterbody":"GB105031050700","region":"Anglian","area":"Northern","totalSurveys":8,"speciesCount":18,"firstSurvey":"09/02/1988","lastSurvey":"10/04/2019"}},{"type":"Feature","geometry":{"type":"Point","coordinates":[-0.121116,52.823847]},"properties":{"siteId":"5927","name":"Flints Farm","waterbody":"GB105031050700","region":"Anglian","area":"Northern","totalSurveys":3,"speciesCount":10,"firstSurvey":"17/07/1991","lastSurvey":"03/06/1999"}},{"type":"Feature","geometry":{"type":"Point","coordinates":[-0.202991,52.78196]},"properties":{"siteId":"5923","name":"Pode Hole","waterbody":"GB105031050700","region":"Anglian","area":"Northern","totalSurveys":3,"speciesCount":8,"firstSurvey":"31/07/1991","lastSurvey":"04/05/1999"}},{"type":"Feature","geometry":{"type":"Point","coordinates":[-0.097926,52.845056]},"properties":{"siteId":"5928","name":"Seas End Surfleet","waterbody":"GB105031050700","region":"Anglian","area":"Northern","totalSurveys":3,"speciesCount":12,"firstSurvey":"15/07/1991","lastSurvey":"15/06/1999"}},{"type":"Feature","geometry":{"type":"Point","coordinates":[-0.153216,52.801874]},"properties":{"siteId":"5925","name":"Sharpes Bridge (Vernatts Drain)","waterbody":"GB105031050700","region":"Anglian","area":"Northern","totalSurveys":4,"speciesCount":12,"firstSurvey":"18/07/1991","lastSurvey":"07/04/2016"}},{"type":"Feature","geometry":{"type":"Point","coordinates":[-0.130632,52.809612]},"properties":{"siteId":"5926","name":"U/S Platts Bridge","waterbody":"GB105031050700","region":"Anglian","area":"Northern","totalSurveys":3,"speciesCount":10,"firstSurvey":"16/07/1991","lastSurvey":"28/05/1999"}},{"type":"Feature","geometry":{"type":"Point","coordinates":[-0.381422,52.656485]},"properties":{"siteId":"34351","name":"Lolham Mill Stream","waterbody":"GB105031050600","region":"Anglian","area":"Northern","totalSurveys":1,"speciesCount":1,"firstSurvey":"22/09/2009","lastSurvey":"22/09/2009"}},{"type":"Feature","geometry":{"type":"Point","coordinates":[-0.380802,52.656072]},"properties":{"siteId":"34352","name":"Maxey Cut","waterbody":"GB105031050600","region":"Anglian","area":"Northern","totalSurveys":1,"speciesCount":1,"firstSurvey":"21/09/2009","lastSurvey":"21/09/2009"}},{"type":"Feature","geometry":{"type":"Point","coordinates":[-0.382268,52.656802]},"properties":{"siteId":"34350","name":"West Deeping Mill Stream","waterbody":"GB105031050600","region":"Anglian","area":"Northern","totalSurveys":1,"speciesCount":1,"firstSurvey":"22/09/2009","lastSurvey":"22/09/2009"}},{"type":"Feature","geometry":{"type":"Point","coordinates":[-0.096729,52.847635]},"properties":{"siteId":"34451","name":"2009","waterbody":null,"region":"Anglian","area":"Northern","totalSurveys":10,"speciesCount":2,"firstSurvey":"28/09/2009","lastSurvey":"13/11/2009"}},{"type":"Feature","geometry":{"type":"Point","coordinates":[-0.581561,52.358565]},"properties":{"siteId":"34666","name":"Site 1","waterbody":"GB105032045130","region":"Anglian","area":"Northern","totalSurveys":1,"speciesCount":3,"firstSurvey":"15/02/2010","lastSurvey":"15/02/2010"}},{"type":"Feature","geometry":{"type":"Point","coordinates":[-0.581561,52.358565]},"properties":{"siteId":"34667","name":"Site 2","waterbody":"GB105032045130","region":"Anglian","area":"Northern","totalSurveys":1,"speciesCount":4,"firstSurvey":"15/02/2010","lastSurvey":"15/02/2010"}},{"type":"Feature","geometry":{"type":"Point","coordinates":[-0.581561,52.358565]},"properties":{"siteId":"34668","name":"Site 3","waterbody":"GB105032045130","region":"Anglian","area":"Northern","totalSurveys":1,"speciesCount":3,"firstSurvey":"15/02/2010","lastSurvey":"15/02/2010"}},{"type":"Feature","geometry":{"type":"Point","coordinates":[-0.581561,52.358565]},"properties":{"siteId":"34669","name":"Site 4","waterbody":"GB105032045130","region":"Anglian","area":"Northern","totalSurveys":1,"speciesCount":2,"firstSurvey":"15/02/2010","lastSurvey":"15/02/2010"}},{"type":"Feature","geometry":{"type":"Point","coordinates":[-0.722463,52.68827]},"properties":{"siteId":"31970","name":"Oakham Canal","waterbody":"GB105031050490","region":"Anglian","area":"Northern","totalSurveys":1,"speciesCount":11,"firstSurvey":"24/11/2008","lastSurvey":"24/11/2008"}},{"type":"Feature","geometry":{"type":"Point","coordinates":[-0.537565,52.409726]},"properties":{"siteId":"34711","name":"Rysons Lake","waterbody":"GB105032045230","region":"Anglian","area":"Northern","totalSurveys":1,"speciesCount":6,"firstSurvey":"17/02/2010","lastSurvey":"17/02/2010"}},{"type":"Feature","geometry":{"type":"Point","coordinates":[-0.472276,52.473014]},"properties":{"siteId":"70743","name":"Barnwell Back Channel DS Oundle Mill","waterbody":null,"region":"Anglian","area":"Northern","totalSurveys":1,"speciesCount":9,"firstSurvey":"14/09/2018","lastSurvey":"14/09/2018"}},{"type":"Feature","geometry":{"type":"Point","coordinates":[-0.474553,52.478285]},"properties":{"siteId":"6093","name":"Barnwell Back Channel","waterbody":"GB105032045240","region":"Anglian","area":"Northern","totalSurveys":11,"speciesCount":16,"firstSurvey":"11/07/1989","lastSurvey":"07/06/2010"}},{"type":"Feature","geometry":{"type":"Point","coordinates":[-0.594082,52.331418]},"properties":{"siteId":"6078","name":"D/S Irthlinborough","waterbody":"GB105032050383","region":"Anglian","area":"Northern","totalSurveys":9,"speciesCount":15,"firstSurvey":"27/06/1989","lastSurvey":"30/06/2010"}},{"type":"Feature","geometry":{"type":"Point","coordinates":[-0.512283,52.437947]},"properties":{"siteId":"6090","name":"D/S Wadenhoe Lock","waterbody":"GB105032050381","region":"Anglian","area":"Northern","totalSurveys":6,"speciesCount":12,"firstSurvey":"09/10/1989","lastSurvey":"30/08/2012"}},{"type":"Feature","geometry":{"type":"Point","coordinates":[-0.584419,52.358275]},"properties":{"siteId":"6081","name":"Ringstead Back Channel","waterbody":"GB105032045130","region":"Anglian","area":"Northern","totalSurveys":3,"speciesCount":6,"firstSurvey":"05/10/1989","lastSurvey":"19/09/2013"}},{"type":"Feature","geometry":{"type":"Point","coordinates":[-0.54031,52.404491]},"properties":{"siteId":"6087","name":"Thrapston","waterbody":"GB105032050381","region":"Anglian","area":"Northern","totalSurveys":10,"speciesCount":14,"firstSurvey":"03/07/1995","lastSurvey":"25/06/2015"}},{"type":"Feature","geometry":{"type":"Point","coordinates":[-0.659801,52.293521]},"properties":{"siteId":"6073","name":"13 Arches","waterbody":"GB105032050383","region":"Anglian","area":"Northern","totalSurveys":2,"speciesCount":8,"firstSurvey":"18/05/1989","lastSurvey":"09/08/1995"}},{"type":"Feature","geometry":{"type":"Point","coordinates":[-0.606496,52.309987]},"properties":{"siteId":"5997","name":"A45 (2)","waterbody":"GB105032050383","region":"Anglian","area":"Northern","totalSurveys":1,"speciesCount":6,"firstSurvey":"29/06/1989","lastSurvey":"29/06/1989"}},{"type":"Feature","geometry":{"type":"Point","coordinates":[-0.606496,52.309987]},"properties":{"siteId":"6076","name":"A45 opposite RPC","waterbody":"GB105032050383","region":"Anglian","area":"Northern","totalSurveys":2,"speciesCount":9,"firstSurvey":"30/05/1989","lastSurvey":"03/08/1995"}},{"type":"Feature","geometry":{"type":"Point","coordinates":[-0.513045,52.428427]},"properties":{"siteId":"6089","name":"Aldwincle Channel","waterbody":"GB105032050381","region":"Anglian","area":"Northern","totalSurveys":1,"speciesCount":8,"firstSurvey":"02/10/1989","lastSurvey":"02/10/1989"}},{"type":"Feature","geometry":{"type":"Point","coordinates":[-0.453033,52.504079]},"properties":{"siteId":"6096","name":"D/S Cotterstock","waterbody":"GB105032050381","region":"Anglian","area":"Northern","totalSurveys":3,"speciesCount":15,"firstSurvey":"21/07/1989","lastSurvey":"21/06/1995"}},{"type":"Feature","geometry":{"type":"Point","coordinates":[-0.436164,52.522738]},"properties":{"siteId":"6099","name":"D/S Fotheringhay","waterbody":"GB105032050381","region":"Anglian","area":"Northern","totalSurveys":11,"speciesCount":16,"firstSurvey":"19/06/1984","lastSurvey":"03/08/2012"}},{"type":"Feature","geometry":{"type":"Point","coordinates":[-0.462339,52.490714]},"properties":{"siteId":"6095","name":"D/S Oundle North Road Bridge","waterbody":"GB105032050381","region":"Anglian","area":"Northern","totalSurveys":10,"speciesCount":14,"firstSurvey":"20/07/1989","lastSurvey":"05/09/2012"}},{"type":"Feature","geometry":{"type":"Point","coordinates":[-0.589538,52.335859]},"properties":{"siteId":"6080","name":"D/S Stanwick","waterbody":"GB105032050383","region":"Anglian","area":"Northern","totalSurveys":2,"speciesCount":9,"firstSurvey":"05/07/1989","lastSurvey":"20/07/1995"}},{"type":"Feature","geometry":{"type":"Point","coordinates":[-0.578375,52.363597]},"properties":{"siteId":"6082","name":"D/S Upper Ringstead","waterbody":"GB105032050383","region":"Anglian","area":"Northern","totalSurveys":2,"speciesCount":10,"firstSurvey":"12/10/1989","lastSurvey":"01/08/1995"}},{"type":"Feature","geometry":{"type":"Point","coordinates":[-0.544077,52.379363]},"properties":{"siteId":"6085","name":"Denford Mid Channel","waterbody":"GB105032050383","region":"Anglian","area":"Northern","totalSurveys":2,"speciesCount":9,"firstSurvey":"30/06/1989","lastSurvey":"15/07/1993"}},{"type":"Feature","geometry":{"type":"Point","coordinates":[-0.539583,52.382005]},"properties":{"siteId":"6086","name":"Denford Side Channel","waterbody":"GB105032050383","region":"Anglian","area":"Northern","totalSurveys":1,"speciesCount":2,"firstSurvey":"03/07/1989","lastSurvey":"03/07/1989"}},{"type":"Feature","geometry":{"type":"Point","coordinates":[-0.55145,52.378555]},"properties":{"siteId":"6084","name":"Denford U/S Lock","waterbody":"GB105032050383","region":"Anglian","area":"Northern","totalSurveys":1,"speciesCount":10,"firstSurvey":"26/07/1989","lastSurvey":"26/07/1989"}},{"type":"Feature","geometry":{"type":"Point","coordinates":[-0.634523,52.30492]},"properties":{"siteId":"6075","name":"Ditchford Back Channel","waterbody":"GB105032050383","region":"Anglian","area":"Northern","totalSurveys":3,"speciesCount":12,"firstSurvey":"06/09/1989","lastSurvey":"15/08/1995"}},{"type":"Feature","geometry":{"type":"Point","coordinates":[-0.421572,52.513256]},"properties":{"siteId":"34040","name":"Eaglethorpe Backchannel","waterbody":"GB105032050381","region":"Anglian","area":"Northern","totalSurveys":1,"speciesCount":8,"firstSurvey":"27/10/2009","lastSurvey":"27/10/2009"}},{"type":"Feature","geometry":{"type":"Point","coordinates":[-0.410729,52.533188]},"properties":{"siteId":"6150","name":"Elton Back Channel","waterbody":"GB105032050290","region":"Anglian","area":"Northern","totalSurveys":1,"speciesCount":8,"firstSurvey":"23/04/1995","lastSurvey":"23/04/1995"}},{"type":"Feature","geometry":{"type":"Point","coordinates":[-0.438887,52.529067]},"properties":{"siteId":"6149","name":"Fotheringhay","waterbody":"GB105032050290","region":"Anglian","area":"Northern","totalSurveys":3,"speciesCount":9,"firstSurvey":"15/02/1989","lastSurvey":"29/07/1998"}},{"type":"Feature","geometry":{"type":"Point","coordinates":[-0.604989,52.325263]},"properties":{"siteId":"33989","name":"Irthlingborough Backchannel","waterbody":"GB105032050383","region":"Anglian","area":"Northern","totalSurveys":1,"speciesCount":9,"firstSurvey":"18/09/2009","lastSurvey":"18/09/2009"}},{"type":"Feature","geometry":{"type":"Point","coordinates":[-0.488846,52.4479]},"properties":{"siteId":"6092","name":"Lilford Park","waterbody":"GB105032050381","region":"Anglian","area":"Northern","totalSurveys":2,"speciesCount":10,"firstSurvey":"10/10/1989","lastSurvey":"10/07/1995"}},{"type":"Feature","geometry":{"type":"Point","coordinates":[-0.493442,52.442564]},"properties":{"siteId":"6091","name":"Lilford U/S","waterbody":"GB105032050381","region":"Anglian","area":"Northern","totalSurveys":2,"speciesCount":11,"firstSurvey":"04/10/1989","lastSurvey":"08/10/2009"}},{"type":"Feature","geometry":{"type":"Point","coordinates":[-0.415815,52.555733]},"properties":{"siteId":"6103","name":"Nassington Back Channel","waterbody":"GB105032050381","region":"Anglian","area":"Northern","totalSurveys":1,"speciesCount":8,"firstSurvey":"11/07/1995","lastSurvey":"11/07/1995"}},{"type":"Feature","geometry":{"type":"Point","coordinates":[-0.421809,52.553116]},"properties":{"siteId":"6102","name":"Nassington","waterbody":"GB105032050381","region":"Anglian","area":"Northern","totalSurveys":1,"speciesCount":12,"firstSurvey":"27/07/1989","lastSurvey":"27/07/1989"}},{"type":"Feature","geometry":{"type":"Point","coordinates":[-0.671474,52.295451]},"properties":{"siteId":"6072","name":"River Ise Confluence","waterbody":"GB105032045140","region":"Anglian","area":"Northern","totalSurveys":1,"speciesCount":5,"firstSurvey":"22/05/1989","lastSurvey":"22/05/1989"}},{"type":"Feature","geometry":{"type":"Point","coordinates":[-0.580822,52.333058]},"properties":{"siteId":"6079","name":"Stanwick Back Channel","waterbody":"GB105032045090","region":"Anglian","area":"Northern","totalSurveys":2,"speciesCount":8,"firstSurvey":"04/07/1989","lastSurvey":"21/07/1995"}},{"type":"Feature","geometry":{"type":"Point","coordinates":[-0.504224,52.428315]},"properties":{"siteId":"6088","name":"Thorpe Channel","waterbody":"GB105032045190","region":"Anglian","area":"Northern","totalSurveys":2,"speciesCount":11,"firstSurvey":"03/10/1989","lastSurvey":"17/07/1995"}},{"type":"Feature","geometry":{"type":"Point","coordinates":[-0.640388,52.304988]},"properties":{"siteId":"6074","name":"U/S Ditchford Lock","waterbody":"GB105032050383","region":"Anglian","area":"Northern","totalSurveys":4,"speciesCount":9,"firstSurvey":"23/05/1989","lastSurvey":"26/09/2013"}},{"type":"Feature","geometry":{"type":"Point","coordinates":[-0.404867,52.53221]},"properties":{"siteId":"6100","name":"U/S Elton Lock","waterbody":"GB105032050381","region":"Anglian","area":"Northern","totalSurveys":1,"speciesCount":8,"firstSurvey":"20/06/1995","lastSurvey":"20/06/1995"}},{"type":"Feature","geometry":{"type":"Point","coordinates":[-0.40025,52.537542]},"properties":{"siteId":"6101","name":"U/S Elton Road Bridge","waterbody":"GB105032050381","region":"Anglian","area":"Northern","totalSurveys":2,"speciesCount":12,"firstSurvey":"14/07/1989","lastSurvey":"07/07/2008"}},{"type":"Feature","geometry":{"type":"Point","coordinates":[-0.439047,52.524574]},"properties":{"siteId":"6098","name":"U/S Fotheringhay","waterbody":"GB105032050381","region":"Anglian","area":"Northern","totalSurveys":2,"speciesCount":10,"firstSurvey":"26/07/1993","lastSurvey":"09/06/1995"}},{"type":"Feature","geometry":{"type":"Point","coordinates":[-0.600348,52.318905]},"properties":{"siteId":"6077","name":"U/S Higham Lock","waterbody":"GB105032050383","region":"Anglian","area":"Northern","totalSurveys":1,"speciesCount":4,"firstSurvey":"26/06/1989","lastSurvey":"26/06/1989"}},{"type":"Feature","geometry":{"type":"Point","coordinates":[-0.470293,52.473735]},"properties":{"siteId":"6094","name":"U/S Lower Barnwell Lock","waterbody":"GB105032050381","region":"Anglian","area":"Northern","totalSurveys":2,"speciesCount":11,"firstSurvey":"12/07/1989","lastSurvey":"26/06/1995"}},{"type":"Feature","geometry":{"type":"Point","coordinates":[-0.50865,52.438792]},"properties":{"siteId":"33830","name":"Wadenhoe Backchannel","waterbody":"GB105032050381","region":"Anglian","area":"Northern","totalSurveys":2,"speciesCount":11,"firstSurvey":"21/09/2009","lastSurvey":"16/10/2013"}},{"type":"Feature","geometry":{"type":"Point","coordinates":[-0.671474,52.295451]},"properties":{"siteId":"6138","name":"Wellingborough 1","waterbody":"GB105032045140","region":"Anglian","area":"Northern","totalSurveys":1,"speciesCount":5,"firstSurvey":"22/05/1989","lastSurvey":"22/05/1989"}},{"type":"Feature","geometry":{"type":"Point","coordinates":[-0.671474,52.295451]},"properties":{"siteId":"6139","name":"Wellingborough 2","waterbody":"GB105032045140","region":"Anglian","area":"Northern","totalSurveys":3,"speciesCount":12,"firstSurvey":"05/02/1992","lastSurvey":"16/07/1998"}},{"type":"Feature","geometry":{"type":"Point","coordinates":[-0.683441,52.287494]},"properties":{"siteId":"6071","name":"Wellingborough Embankment","waterbody":"GB105032045050","region":"Anglian","area":"Northern","totalSurveys":1,"speciesCount":12,"firstSurvey":"12/05/1989","lastSurvey":"12/05/1989"}},{"type":"Feature","geometry":{"type":"Point","coordinates":[-0.572184,52.373413]},"properties":{"siteId":"6083","name":"Woodford No1","waterbody":"GB105032050383","region":"Anglian","area":"Northern","totalSurveys":1,"speciesCount":9,"firstSurvey":"18/10/1989","lastSurvey":"18/10/1989"}},{"type":"Feature","geometry":{"type":"Point","coordinates":[-0.411002,52.566457]},