{"type":"FeatureCollection","features":[{"type":"Feature","geometry":{"type":"Point","coordinates":[-1.808081,50.926359]},"properties":{"siteId":"13540","name":"Ashford Bridge","waterbody":"GB108043015800","region":"South West","area":"Wessex","totalSurveys":3,"speciesCount":12,"firstSurvey":"07/09/2004","lastSurvey":"10/09/2013"}},{"type":"Feature","geometry":{"type":"Point","coordinates":[-1.792295,50.924515]},"properties":{"siteId":"13545","name":"Ashford Town Mill","waterbody":"GB108043015840","region":"South West","area":"Wessex","totalSurveys":1,"speciesCount":6,"firstSurvey":"18/08/2004","lastSurvey":"18/08/2004"}},{"type":"Feature","geometry":{"type":"Point","coordinates":[-1.833211,50.929302]},"properties":{"siteId":"44785","name":"U/S Alderholt Mill","waterbody":"GB108043015800","region":"South West","area":"Wessex","totalSurveys":1,"speciesCount":2,"firstSurvey":"19/09/2012","lastSurvey":"19/09/2012"}},{"type":"Feature","geometry":{"type":"Point","coordinates":[-1.791496,50.842206]},"properties":{"siteId":"13572","name":"A21S Top of Bickerley Millstream","waterbody":"GB108043015840","region":"South West","area":"Wessex","totalSurveys":3,"speciesCount":12,"firstSurvey":"29/09/2004","lastSurvey":"24/09/2013"}},{"type":"Feature","geometry":{"type":"Point","coordinates":[-1.79288,50.83104]},"properties":{"siteId":"1924","name":"Bickerley Mill Stream","waterbody":"GB108043015840","region":"South West","area":"Wessex","totalSurveys":13,"speciesCount":22,"firstSurvey":"14/09/2001","lastSurvey":"07/10/2022"}},{"type":"Feature","geometry":{"type":"Point","coordinates":[-1.791496,50.842206]},"properties":{"siteId":"13547","name":"u/sBickerley confluence","waterbody":"GB108043015840","region":"South West","area":"Wessex","totalSurveys":1,"speciesCount":2,"firstSurvey":"11/08/2004","lastSurvey":"11/08/2004"}},{"type":"Feature","geometry":{"type":"Point","coordinates":[-1.774031,50.917809]},"properties":{"siteId":"30058","name":"Redbrook","waterbody":"GB108043015770","region":"South West","area":"Wessex","totalSurveys":2,"speciesCount":6,"firstSurvey":"20/08/2008","lastSurvey":"10/09/2013"}},{"type":"Feature","geometry":{"type":"Point","coordinates":[-1.751195,50.926458]},"properties":{"siteId":"44784","name":"U/S Blissford","waterbody":"GB108043015770","region":"South West","area":"Wessex","totalSurveys":1,"speciesCount":4,"firstSurvey":"11/09/2012","lastSurvey":"11/09/2012"}},{"type":"Feature","geometry":{"type":"Point","coordinates":[-1.792373,50.862135]},"properties":{"siteId":"1910","name":"Dockens Water at Blashford","waterbody":"GB108043015740","region":"South West","area":"Wessex","totalSurveys":8,"speciesCount":14,"firstSurvey":"13/09/2001","lastSurvey":"31/08/2010"}},{"type":"Feature","geometry":{"type":"Point","coordinates":[-1.779829,50.873784]},"properties":{"siteId":"1909","name":"Dockens Water at Moyles Court","waterbody":"GB108043015740","region":"South West","area":"Wessex","totalSurveys":8,"speciesCount":14,"firstSurvey":"13/09/2001","lastSurvey":"31/08/2010"}},{"type":"Feature","geometry":{"type":"Point","coordinates":[-1.770217,50.874827]},"properties":{"siteId":"68083","name":"Dockens Water Below Ford","waterbody":null,"region":"South West","area":"Wessex","totalSurveys":2,"speciesCount":10,"firstSurvey":"11/10/2016","lastSurvey":"18/09/2024"}},{"type":"Feature","geometry":{"type":"Point","coordinates":[-1.699988,50.906465]},"properties":{"siteId":"68086","name":"Dockens Water Holly Hatch lower","waterbody":null,"region":"South West","area":"Wessex","totalSurveys":1,"speciesCount":5,"firstSurvey":"11/10/2016","lastSurvey":"11/10/2016"}},{"type":"Feature","geometry":{"type":"Point","coordinates":[-1.694529,50.908303]},"properties":{"siteId":"68087","name":"Dockens Water Holly Hatch upper","waterbody":null,"region":"South West","area":"Wessex","totalSurveys":1,"speciesCount":5,"firstSurvey":"11/10/2016","lastSurvey":"11/10/2016"}},{"type":"Feature","geometry":{"type":"Point","coordinates":[-1.755393,50.880165]},"properties":{"siteId":"68085","name":"Dockens Water Newlands Plantation","waterbody":null,"region":"South West","area":"Wessex","totalSurveys":1,"speciesCount":9,"firstSurvey":"11/10/2016","lastSurvey":"11/10/2016"}},{"type":"Feature","geometry":{"type":"Point","coordinates":[-1.76929,50.875284]},"properties":{"siteId":"44802","name":"Dockens Water u/s ford","waterbody":"GB108043015740","region":"South West","area":"Wessex","totalSurveys":1,"speciesCount":8,"firstSurvey":"11/09/2012","lastSurvey":"11/09/2012"}},{"type":"Feature","geometry":{"type":"Point","coordinates":[-1.783467,50.895382]},"properties":{"siteId":"13916","name":"u/s Huckles Brook Bridge","waterbody":"GB108043015750","region":"South West","area":"Wessex","totalSurveys":3,"speciesCount":7,"firstSurvey":"15/09/2004","lastSurvey":"20/08/2008"}},{"type":"Feature","geometry":{"type":"Point","coordinates":[-1.797748,50.838251]},"properties":{"siteId":"1914","name":"King's Stream","waterbody":"GB108043015840","region":"South West","area":"Wessex","totalSurveys":13,"speciesCount":18,"firstSurvey":"03/09/2001","lastSurvey":"09/09/2015"}},{"type":"Feature","geometry":{"type":"Point","coordinates":[-1.796558,50.837692]},"properties":{"siteId":"73403","name":"Kings Stream U/S Bridge","waterbody":null,"region":"South West","area":"Wessex","totalSurveys":2,"speciesCount":15,"firstSurvey":"10/09/2019","lastSurvey":"02/10/2025"}},{"type":"Feature","geometry":{"type":"Point","coordinates":[-1.79661,50.799429]},"properties":{"siteId":"23967","name":"AKD 2","waterbody":"GB108043015840","region":"South West","area":"Wessex","totalSurveys":1,"speciesCount":0,"firstSurvey":"21/11/2006","lastSurvey":"21/11/2006"}},{"type":"Feature","geometry":{"type":"Point","coordinates":[-1.797261,50.79988]},"properties":{"siteId":"24044","name":"AKD 3*","waterbody":"GB108043016050","region":"South West","area":"Wessex","totalSurveys":1,"speciesCount":4,"firstSurvey":"21/11/2006","lastSurvey":"21/11/2006"}},{"type":"Feature","geometry":{"type":"Point","coordinates":[-1.797261,50.79988]},"properties":{"siteId":"24042","name":"AKD 3","waterbody":"GB108043015840","region":"South West","area":"Wessex","totalSurveys":1,"speciesCount":5,"firstSurvey":"21/11/2006","lastSurvey":"21/11/2006"}},{"type":"Feature","geometry":{"type":"Point","coordinates":[-1.803178,50.806535]},"properties":{"siteId":"24647","name":"AKD 4*","waterbody":"GB108043016050","region":"South West","area":"Wessex","totalSurveys":1,"speciesCount":7,"firstSurvey":"22/11/2006","lastSurvey":"22/11/2006"}},{"type":"Feature","geometry":{"type":"Point","coordinates":[-1.803178,50.806535]},"properties":{"siteId":"24045","name":"AKD 4","waterbody":"GB108043015840","region":"South West","area":"Wessex","totalSurveys":1,"speciesCount":10,"firstSurvey":"22/11/2006","lastSurvey":"22/11/2006"}},{"type":"Feature","geometry":{"type":"Point","coordinates":[-1.797563,50.798909]},"properties":{"siteId":"23966","name":"AKD1*","waterbody":"GB108043016050","region":"South West","area":"Wessex","totalSurveys":1,"speciesCount":6,"firstSurvey":"21/11/2006","lastSurvey":"21/11/2006"}},{"type":"Feature","geometry":{"type":"Point","coordinates":[-1.798121,50.794611]},"properties":{"siteId":"23905","name":"AKD1","waterbody":"GB108043015840","region":"South West","area":"Wessex","totalSurveys":1,"speciesCount":5,"firstSurvey":"21/11/2006","lastSurvey":"21/11/2006"}},{"type":"Feature","geometry":{"type":"Point","coordinates":[-1.745612,50.862231]},"properties":{"siteId":"16295","name":"AJ8 Linford Brook","waterbody":"GB108043015720","region":"South West","area":"Wessex","totalSurveys":2,"speciesCount":7,"firstSurvey":"10/08/2005","lastSurvey":"23/08/2011"}},{"type":"Feature","geometry":{"type":"Point","coordinates":[-1.772582,50.861784]},"properties":{"siteId":"44823","name":"D/S of Ford","waterbody":"GB108043015720","region":"South West","area":"Wessex","totalSurveys":1,"speciesCount":6,"firstSurvey":"11/09/2012","lastSurvey":"11/09/2012"}},{"type":"Feature","geometry":{"type":"Point","coordinates":[-1.735558,50.861211]},"properties":{"siteId":"59303","name":"Picket Bottom","waterbody":null,"region":"South West","area":"Wessex","totalSurveys":1,"speciesCount":1,"firstSurvey":"06/06/2014","lastSurvey":"06/06/2014"}},{"type":"Feature","geometry":{"type":"Point","coordinates":[-1.747765,50.989928]},"properties":{"siteId":"12623","name":"A2R Downton-Breamore","waterbody":"GB108043015840","region":"South West","area":"Wessex","totalSurveys":5,"speciesCount":19,"firstSurvey":"14/06/2004","lastSurvey":"03/05/2011"}},{"type":"Feature","geometry":{"type":"Point","coordinates":[-1.782199,50.938741]},"properties":{"siteId":"12584","name":"A3R Burgate to East Mills","waterbody":"GB108043015840","region":"South West","area":"Wessex","totalSurveys":2,"speciesCount":18,"firstSurvey":"01/06/2004","lastSurvey":"14/04/2005"}},{"type":"Feature","geometry":{"type":"Point","coordinates":[-1.78955,50.886598]},"properties":{"siteId":"12561","name":"A4R Ibsley to Ringwood","waterbody":"GB108043015750","region":"South West","area":"Wessex","totalSurveys":5,"speciesCount":22,"firstSurvey":"25/05/2004","lastSurvey":"09/05/2011"}},{"type":"Feature","geometry":{"type":"Point","coordinates":[-1.80253,50.842558]},"properties":{"siteId":"12570","name":"A5R Ringwood to Bickerley Stream Confluence","waterbody":"GB108043015840","region":"South West","area":"Wessex","totalSurveys":5,"speciesCount":16,"firstSurvey":"27/05/2004","lastSurvey":"05/05/2011"}},{"type":"Feature","geometry":{"type":"Point","coordinates":[-1.801115,50.791145]},"properties":{"siteId":"12540","name":"A6R Avon Turn - Winkton","waterbody":"GB108043015840","region":"South West","area":"Wessex","totalSurveys":3,"speciesCount":14,"firstSurvey":"20/05/2004","lastSurvey":"06/05/2008"}},{"type":"Feature","geometry":{"type":"Point","coordinates":[-1.781678,50.745401]},"properties":{"siteId":"12542","name":"A7R Royalty Gt.Weir to Clay Pool","waterbody":"GB108043015840","region":"South West","area":"Wessex","totalSurveys":5,"speciesCount":25,"firstSurvey":"18/05/2004","lastSurvey":"11/05/2011"}},{"type":"Feature","geometry":{"type":"Point","coordinates":[-1.806735,50.856054]},"properties":{"siteId":"15516","name":"AJ1 Ashley Farm","waterbody":"GB108043015840","region":"South West","area":"Wessex","totalSurveys":2,"speciesCount":12,"firstSurvey":"08/08/2005","lastSurvey":"05/08/2010"}},{"type":"Feature","geometry":{"type":"Point","coordinates":[-1.799562,50.872228]},"properties":{"siteId":"15200","name":"AJ10 The Woodside Carrier at Ellingham","waterbody":"GB108043015750","region":"South West","area":"Wessex","totalSurveys":2,"speciesCount":16,"firstSurvey":"04/08/2005","lastSurvey":"05/08/2010"}},{"type":"Feature","geometry":{"type":"Point","coordinates":[-1.75203,50.991735]},"properties":{"siteId":"15462","name":"AJ11 d/s Tannery Bridge","waterbody":"GB108043015840","region":"South West","area":"Wessex","totalSurveys":1,"speciesCount":5,"firstSurvey":"03/08/2005","lastSurvey":"03/08/2005"}},{"type":"Feature","geometry":{"type":"Point","coordinates":[-1.749335,50.962954]},"properties":{"siteId":"15122","name":"AJ12 second channel d/s Hale Bridge","waterbody":"GB108043015840","region":"South West","area":"Wessex","totalSurveys":1,"speciesCount":2,"firstSurvey":"15/07/2005","lastSurvey":"15/07/2005"}},{"type":"Feature","geometry":{"type":"Point","coordinates":[-1.780733,50.94773]},"properties":{"siteId":"15120","name":"AJ3 Burgate Manor Farm site 1","waterbody":"GB108043015840","region":"South West","area":"Wessex","totalSurveys":1,"speciesCount":2,"firstSurvey":"07/07/2005","lastSurvey":"07/07/2005"}},{"type":"Feature","geometry":{"type":"Point","coordinates":[-1.780733,50.94773]},"properties":{"siteId":"15121","name":"AJ4 Burgate Manor Farm Site 2","waterbody":"GB108043015840","region":"South West","area":"Wessex","totalSurveys":1,"speciesCount":1,"firstSurvey":"07/07/2005","lastSurvey":"07/07/2005"}},{"type":"Feature","geometry":{"type":"Point","coordinates":[-1.76794,50.944109]},"properties":{"siteId":"15119","name":"AJ5 Folds Farm","waterbody":"GB108043015840","region":"South West","area":"Wessex","totalSurveys":4,"speciesCount":16,"firstSurvey":"07/07/2005","lastSurvey":"14/10/2022"}},{"type":"Feature","geometry":{"type":"Point","coordinates":[-1.792361,50.893797]},"properties":{"siteId":"16771","name":"AJ6 Harbridge Stream","waterbody":"GB108043015840","region":"South West","area":"Wessex","totalSurveys":4,"speciesCount":18,"firstSurvey":"20/10/2005","lastSurvey":"20/10/2022"}},{"type":"Feature","geometry":{"type":"Point","coordinates":[-1.778729,50.769676]},"properties":{"siteId":"15715","name":"AJ9 Lower Sopley Mill","waterbody":"GB108043011010","region":"South West","area":"Wessex","totalSurveys":1,"speciesCount":9,"firstSurvey":"26/08/2005","lastSurvey":"26/08/2005"}},{"type":"Feature","geometry":{"type":"Point","coordinates":[-1.780404,50.769346]},"properties":{"siteId":"30145","name":"AJ9a Sopley Mill Riffle","waterbody":null,"region":"South West","area":"Wessex","totalSurveys":1,"speciesCount":3,"firstSurvey":"26/08/2005","lastSurvey":"26/08/2005"}},{"type":"Feature","geometry":{"type":"Point","coordinates":[-1.775956,50.735687]},"properties":{"siteId":"39526","name":"Christchurch Millstream","waterbody":"GB108043015840","region":"South West","area":"Wessex","totalSurveys":1,"speciesCount":10,"firstSurvey":"28/09/2011","lastSurvey":"28/09/2011"}},{"type":"Feature","geometry":{"type":"Point","coordinates":[-1.800758,50.925285]},"properties":{"siteId":"26774","name":"Ds of fish pass","waterbody":"GB108043015800","region":"South West","area":"Wessex","totalSurveys":3,"speciesCount":9,"firstSurvey":"27/11/2006","lastSurvey":"31/01/2007"}},{"type":"Feature","geometry":{"type":"Point","coordinates":[-1.795067,50.925276]},"properties":{"siteId":"23074","name":"Sector 4","waterbody":"GB108043015800","region":"South West","area":"Wessex","totalSurveys":1,"speciesCount":1,"firstSurvey":"28/09/2006","lastSurvey":"28/09/2006"}},{"type":"Feature","geometry":{"type":"Point","coordinates":[-1.790412,50.884379]},"properties":{"siteId":"80863","name":"Ibsley Millstream","waterbody":null,"region":"South West","area":"Wessex","totalSurveys":1,"speciesCount":10,"firstSurvey":"08/08/2024","lastSurvey":"08/08/2024"}},{"type":"Feature","geometry":{"type":"Point","coordinates":[-1.783622,50.938743]},"properties":{"siteId":"13670","name":"Burgate Manor Farm","waterbody":"GB108043015840","region":"South West","area":"Wessex","totalSurveys":2,"speciesCount":8,"firstSurvey":"19/10/2004","lastSurvey":"24/09/2014"}},{"type":"Feature","geometry":{"type":"Point","coordinates":[-1.791791,50.913229]},"properties":{"siteId":"13548","name":"d/s bottom weir at Bickton","waterbody":"GB108043015840","region":"South West","area":"Wessex","totalSurveys":6,"speciesCount":10,"firstSurvey":"11/08/2004","lastSurvey":"14/08/2024"}},{"type":"Feature","geometry":{"type":"Point","coordinates":[-1.769472,50.956737]},"properties":{"siteId":"13612","name":"d/s Breamore Mill Race","waterbody":"GB108043015840","region":"South West","area":"Wessex","totalSurveys":1,"speciesCount":2,"firstSurvey":"08/10/2004","lastSurvey":"08/10/2004"}},{"type":"Feature","geometry":{"type":"Point","coordinates":[-1.803139,50.812605]},"properties":{"siteId":"76243","name":"D/S Wattons Ford","waterbody":null,"region":"South West","area":"Wessex","totalSurveys":2,"speciesCount":9,"firstSurvey":"18/08/2021","lastSurvey":"07/09/2022"}},{"type":"Feature","geometry":{"type":"Point","coordinates":[-1.748398,50.993985]},"properties":{"siteId":"73230","name":"Downton","waterbody":null,"region":"South West","area":"Wessex","totalSurveys":5,"speciesCount":13,"firstSurvey":"08/08/2019","lastSurvey":"08/10/2025"}},{"type":"Feature","geometry":{"type":"Point","coordinates":[-1.785086,50.929754]},"properties":{"siteId":"13669","name":"Fordingbridge Rec","waterbody":"GB108043015840","region":"South West","area":"Wessex","totalSurveys":6,"speciesCount":12,"firstSurvey":"22/10/2004","lastSurvey":"14/08/2024"}},{"type":"Feature","geometry":{"type":"Point","coordinates":[-1.781424,50.745131]},"properties":{"siteId":"13167","name":"Hatchpool at Great Weir","waterbody":"GB108043015840","region":"South West","area":"Wessex","totalSurveys":3,"speciesCount":14,"firstSurvey":"10/08/2004","lastSurvey":"07/09/2022"}},{"type":"Feature","geometry":{"type":"Point","coordinates":[-1.789853,50.885583]},"properties":{"siteId":"13169","name":"Ibsley Hatch Pool","waterbody":"GB108043015750","region":"South West","area":"Wessex","totalSurveys":1,"speciesCount":4,"firstSurvey":"11/08/2004","lastSurvey":"11/08/2004"}},{"type":"Feature","geometry":{"type":"Point","coordinates":[-1.79064,50.884253]},"properties":{"siteId":"80864","name":"Ibsley","waterbody":null,"region":"South West","area":"Wessex","totalSurveys":1,"speciesCount":7,"firstSurvey":"08/08/2024","lastSurvey":"08/08/2024"}},{"type":"Feature","geometry":{"type":"Point","coordinates":[-1.756262,50.969884]},"properties":{"siteId":"13664","name":"New Riffle at Charford","waterbody":"GB108043015840","region":"South West","area":"Wessex","totalSurveys":2,"speciesCount":9,"firstSurvey":"19/10/2004","lastSurvey":"25/09/2014"}},{"type":"Feature","geometry":{"type":"Point","coordinates":[-1.749874,50.98986]},"properties":{"siteId":"1913","name":"Newcourt Carrier at Downton","waterbody":"GB108043015840","region":"South West","area":"Wessex","totalSurveys":2,"speciesCount":11,"firstSurvey":"10/09/2001","lastSurvey":"24/10/2011"}},{"type":"Feature","geometry":{"type":"Point","coordinates":[-1.800839,50.84269]},"properties":{"siteId":"73223","name":"Ringwood D/S A31","waterbody":null,"region":"South West","area":"Wessex","totalSurveys":5,"speciesCount":10,"firstSurvey":"09/08/2019","lastSurvey":"08/10/2025"}},{"type":"Feature","geometry":{"type":"Point","coordinates":[-1.778946,50.738724]},"properties":{"siteId":"79204","name":"Royalty Bottom Island","waterbody":null,"region":"South West","area":"Wessex","totalSurveys":2,"speciesCount":10,"firstSurvey":"16/08/2023","lastSurvey":"15/08/2024"}},{"type":"Feature","geometry":{"type":"Point","coordinates":[-1.779591,50.740146]},"properties":{"siteId":"79203","name":"Royalty D/S Railway Bridge","waterbody":null,"region":"South West","area":"Wessex","totalSurveys":2,"speciesCount":9,"firstSurvey":"16/08/2023","lastSurvey":"15/08/2024"}},{"type":"Feature","geometry":{"type":"Point","coordinates":[-1.804318,50.802212]},"properties":{"siteId":"77283","name":"Wattons Ford Lower","waterbody":null,"region":"South West","area":"Wessex","totalSurveys":1,"speciesCount":8,"firstSurvey":"07/09/2022","lastSurvey":"07/09/2022"}},{"type":"Feature","geometry":{"type":"Point","coordinates":[-1.806137,50.815101]},"properties":{"siteId":"13168","name":"Wattons Ford","waterbody":"GB108043015840","region":"South West","area":"Wessex","totalSurveys":5,"speciesCount":9,"firstSurvey":"10/08/2004","lastSurvey":"07/09/2022"}},{"type":"Feature","geometry":{"type":"Point","coordinates":[-1.76969,50.955838]},"properties":{"siteId":"73231","name":"Woodgreen- The Shallows","waterbody":null,"region":"South West","area":"Wessex","totalSurveys":4,"speciesCount":10,"firstSurvey":"08/08/2019","lastSurvey":"25/09/2025"}},{"type":"Feature","geometry":{"type":"Point","coordinates":[-1.776139,50.78646]},"properties":{"siteId":"13289","name":"South Ripley Farm","waterbody":"GB108043011010","region":"South West","area":"Wessex","totalSurveys":1,"speciesCount":10,"firstSurvey":"18/08/2004","lastSurvey":"18/08/2004"}},{"type":"Feature","geometry":{"type":"Point","coordinates":[-1.778292,50.784162]},"properties":{"siteId":"13290","name":"Two Bridges Plantation","waterbody":"GB108043011010","region":"South West","area":"Wessex","totalSurveys":5,"speciesCount":14,"firstSurvey":"18/08/2004","lastSurvey":"17/08/2023"}},{"type":"Feature","geometry":{"type":"Point","coordinates":[-1.766755,50.799319]},"properties":{"siteId":"44804","name":"U/S Quarry Discharge","waterbody":"GB108043011010","region":"South West","area":"Wessex","totalSurveys":2,"speciesCount":6,"firstSurvey":"13/09/2012","lastSurvey":"10/10/2017"}},{"type":"Feature","geometry":{"type":"Point","coordinates":[-1.744059,50.735541]},"properties":{"siteId":"8762","name":"Somerford","waterbody":"GB108043011020","region":"South West","area":"Wessex","totalSurveys":2,"speciesCount":9,"firstSurvey":"08/10/2002","lastSurvey":"01/10/2014"}},{"type":"Feature","geometry":{"type":"Point","coordinates":[-1.743411,50.745323]},"properties":{"siteId":"13157","name":"u/s A35","waterbody":"GB108043011020","region":"South West","area":"Wessex","totalSurveys":4,"speciesCount":8,"firstSurvey":"10/08/2004","lastSurvey":"22/08/2011"}},{"type":"Feature","geometry":{"type":"Point","coordinates":[-1.740492,50.760604]},"properties":{"siteId":"8761","name":"Waterditch Farm","waterbody":"GB108043011020","region":"South West","area":"Wessex","totalSurveys":2,"speciesCount":6,"firstSurvey":"08/10/2002","lastSurvey":"23/09/2003"}},{"type":"Feature","geometry":{"type":"Point","coordinates":[-1.745233,50.991829]},"properties":{"siteId":"11336","name":"The Moot","waterbody":"GB108043015840","region":"South West","area":"Wessex","totalSurveys":4,"speciesCount":18,"firstSurvey":"03/07/2003","lastSurvey":"12/10/2022"}},{"type":"Feature","geometry":{"type":"Point","coordinates":[-1.961678,50.660006]},"properties":{"siteId":"26780","name":"Little Sea (baited trap)","waterbody":"GB108044009980","region":"South West","area":"Wessex","totalSurveys":1,"speciesCount":0,"firstSurvey":"03/07/2007","lastSurvey":"03/07/2007"}},{"type":"Feature","geometry":{"type":"Point","coordinates":[-1.96108,50.665411]},"properties":{"siteId":"26778","name":"Little Sea (Fyke)","waterbody":"GB108044009980","region":"South West","area":"Wessex","totalSurveys":1,"speciesCount":2,"firstSurvey":"03/07/2007","lastSurvey":"03/07/2007"}},{"type":"Feature","geometry":{"type":"Point","coordinates":[-1.964858,50.664279]},"properties":{"siteId":"26779","name":"Little Sea (Trap)","waterbody":"GB108044009980","region":"South West","area":"Wessex","totalSurveys":1,"speciesCount":3,"firstSurvey":"03/07/2007","lastSurvey":"03/07/2007"}},{"type":"Feature","geometry":{"type":"Point","coordinates":[-1.977045,50.772895]},"properties":{"siteId":"11392","name":"Canford sch near golf course","waterbody":"GB108043016050","region":"South West","area":"Wessex","totalSurveys":4,"speciesCount":10,"firstSurvey":"11/09/2003","lastSurvey":"18/09/2025"}},{"type":"Feature","geometry":{"type":"Point","coordinates":[-1.994273,50.790568]},"properties":{"siteId":"26772","name":"Lake Farm","waterbody":"GB108043016050","region":"South West","area":"Wessex","totalSurveys":1,"speciesCount":0,"firstSurvey":"13/06/2007","lastSurvey":"13/06/2007"}},{"type":"Feature","geometry":{"type":"Point","coordinates":[-1.999948,50.789669]},"properties":{"siteId":"34030","name":"Willet Road","waterbody":"GB108043011030","region":"South West","area":"Wessex","totalSurveys":1,"speciesCount":2,"firstSurvey":"23/10/2009","lastSurvey":"23/10/2009"}},{"type":"Feature","geometry":{"type":"Point","coordinates":[-1.915753,50.771986]},"properties":{"siteId":"11354","name":"d/s A348 road bridge","waterbody":"GB108043011040","region":"South West","area":"Wessex","totalSurveys":3,"speciesCount":9,"firstSurvey":"08/09/2003","lastSurvey":"20/09/2012"}},{"type":"Feature","geometry":{"type":"Point","coordinates":[-1.887398,50.774948]},"properties":{"siteId":"11388","name":"A347 Road Bridge","waterbody":"GB108043011040","region":"South West","area":"Wessex","totalSurveys":3,"speciesCount":9,"firstSurvey":"08/09/2003","lastSurvey":"05/09/2012"}},{"type":"Feature","geometry":{"type":"Point","coordinates":[-1.954848,50.790011]},"properties":{"siteId":"43261","name":"Canford Mill Stream","waterbody":"GB108043011040","region":"South West","area":"Wessex","totalSurveys":2,"speciesCount":16,"firstSurvey":"31/05/2012","lastSurvey":"30/05/2018"}},{"type":"Feature","geometry":{"type":"Point","coordinates":[-1.954621,50.790379]},"properties":{"siteId":"11359","name":"Canford School (Bottom Site S3S)","waterbody":"GB108043011040","region":"South West","area":"Wessex","totalSurveys":2,"speciesCount":10,"firstSurvey":"11/09/2003","lastSurvey":"11/10/2005"}},{"type":"Feature","geometry":{"type":"Point","coordinates":[-1.948944,50.79196]},"properties":{"siteId":"11358","name":"Canford School (top site S2S)","waterbody":"GB108043011040","region":"South West","area":"Wessex","totalSurveys":11,"speciesCount":14,"firstSurvey":"11/09/2003","lastSurvey":"18/09/2025"}},{"type":"Feature","geometry":{"type":"Point","coordinates":[-1.959856,50.789626]},"properties":{"siteId":"43201","name":"Canford School Reach","waterbody":null,"region":"South West","area":"Wessex","totalSurveys":1,"speciesCount":6,"firstSurvey":"31/05/2012","lastSurvey":"31/05/2012"}},{"type":"Feature","geometry":{"type":"Point","coordinates":[-1.811511,50.746011]},"properties":{"siteId":"17057","name":"Golf Course","waterbody":"GB108043011040","region":"South West","area":"Wessex","totalSurveys":1,"speciesCount":5,"firstSurvey":"13/10/2005","lastSurvey":"13/10/2005"}},{"type":"Feature","geometry":{"type":"Point","coordinates":[-1.806598,50.741174]},"properties":{"siteId":"17050","name":"Iford (between bridges)","waterbody":"GB108043011040","region":"South West","area":"Wessex","totalSurveys":1,"speciesCount":4,"firstSurvey":"13/10/2005","lastSurvey":"13/10/2005"}},{"type":"Feature","geometry":{"type":"Point","coordinates":[-1.892593,50.779152]},"properties":{"siteId":"11391","name":"Kinson Manor Farm (Dudsbury)","waterbody":"GB108043011040","region":"South West","area":"Wessex","totalSurveys":2,"speciesCount":6,"firstSurvey":"08/09/2003","lastSurvey":"10/09/2012"}},{"type":"Feature","geometry":{"type":"Point","coordinates":[-1.876877,50.768579]},"properties":{"siteId":"11355","name":"Kinson","waterbody":"GB108043011040","region":"South West","area":"Wessex","totalSurveys":10,"speciesCount":14,"firstSurvey":"08/09/2003","lastSurvey":"18/09/2025"}},{"type":"Feature","geometry":{"type":"Point","coordinates":[-1.908897,50.775479]},"properties":{"siteId":"11356","name":"Longham Bridge","waterbody":"GB108043011040","region":"South West","area":"Wessex","totalSurveys":11,"speciesCount":16,"firstSurvey":"21/11/2003","lastSurvey":"18/09/2025"}},{"type":"Feature","geometry":{"type":"Point","coordinates":[-1.865347,50.764124]},"properties":{"siteId":"73685","name":"Muscliffe- Kingfisher Barn Visitor Centre","waterbody":null,"region":"South West","area":"Wessex","totalSurveys":6,"speciesCount":13,"firstSurvey":"17/09/2019","lastSurvey":"18/09/2025"}},{"type":"Feature","geometry":{"type":"Point","coordinates":[-1.863528,50.765525]},"properties":{"siteId":"11353","name":"Muscliffe","waterbody":"GB108043011040","region":"South West","area":"Wessex","totalSurveys":4,"speciesCount":13,"firstSurvey":"08/09/2003","lastSurvey":"10/09/2012"}},{"type":"Feature","geometry":{"type":"Point","coordinates":[-1.873286,50.764493]},"properties":{"siteId":"11357","name":"Redhill","waterbody":"GB108043011040","region":"South West","area":"Wessex","totalSurveys":2,"speciesCount":5,"firstSurvey":"11/09/2003","lastSurvey":"13/10/2005"}},{"type":"Feature","geometry":{"type":"Point","coordinates":[-1.896407,50.779731]},"properties":{"siteId":"12634","name":"S4R Dudsbury to Merritown","waterbody":"GB108043011040","region":"South West","area":"Wessex","totalSurveys":5,"speciesCount":15,"firstSurvey":"17/06/2004","lastSurvey":"16/05/2013"}},{"type":"Feature","geometry":{"type":"Point","coordinates":[-1.808619,50.742751]},"properties":{"siteId":"12547","name":"S5R Iford Bridge to Hengistbury Head","waterbody":"GB108043011040","region":"South West","area":"Wessex","totalSurveys":5,"speciesCount":19,"firstSurvey":"13/05/2004","lastSurvey":"21/05/2013"}},{"type":"Feature","geometry":{"type":"Point","coordinates":[-1.841131,50.763536]},"properties":{"siteId":"33549","name":"Throop d/s gauging Weir","waterbody":"GB108043011040","region":"South West","area":"Wessex","totalSurveys":1,"speciesCount":11,"firstSurvey":"11/09/2009","lastSurvey":"11/09/2009"}},{"type":"Feature","geometry":{"type":"Point","coordinates":[-1.831548,50.759135]},"properties":{"siteId":"33551","name":"Throop d/s Glens Weir","waterbody":"GB108043011040","region":"South West","area":"Wessex","totalSurveys":6,"speciesCount":13,"firstSurvey":"11/09/2009","lastSurvey":"18/09/2025"}},{"type":"Feature","geometry":{"type":"Point","coordinates":[-1.832766,50.759379]},"properties":{"siteId":"33550","name":"Throop u/s Glens Weir","waterbody":"GB108043011040","region":"South West","area":"Wessex","totalSurveys":1,"speciesCount":8,"firstSurvey":"11/09/2009","lastSurvey":"11/09/2009"}},{"type":"Feature","geometry":{"type":"Point","coordinates":[-1.839705,50.761835]},"properties":{"siteId":"11339","name":"Throop","waterbody":"GB108043011040","region":"South West","area":"Wessex","totalSurveys":5,"speciesCount":12,"firstSurvey":"21/10/2003","lastSurvey":"05/09/2012"}},{"type":"Feature","geometry":{"type":"Point","coordinates":[-1.911035,50.844489]},"properties":{"siteId":"11342","name":"Lower Mannington","waterbody":"GB108043016000","region":"South West","area":"Wessex","totalSurveys":3,"speciesCount":11,"firstSurvey":"15/09/2003","lastSurvey":"19/09/2012"}},{"type":"Feature","geometry":{"type":"Point","coordinates":[-1.892586,50.83817]},"properties":{"siteId":"11341","name":"Newmans Farm","waterbody":"GB108043016000","region":"South West","area":"Wessex","totalSurveys":1,"speciesCount":4,"firstSurvey":"15/09/2003","lastSurvey":"15/09/2003"}},{"type":"Feature","geometry":{"type":"Point","coordinates":[-1.995692,50.791467]},"properties":{"siteId":"34038","name":"Merley Stream","waterbody":"GB108043016050","region":"South West","area":"Wessex","totalSurveys":1,"speciesCount":3,"firstSurvey":"23/10/2009","lastSurvey":"23/10/2009"}},{"type":"Feature","geometry":{"type":"Point","coordinates":[-1.858204,50.828701]},"properties":{"siteId":"19492","name":"Eastmoors Farm","waterbody":"GB108043016090","region":"South West","area":"Wessex","totalSurveys":1,"speciesCount":8,"firstSurvey":"26/04/2006","lastSurvey":"26/04/2006"}},{"type":"Feature","geometry":{"type":"Point","coordinates":[-1.829486,50.788178]},"properties":{"siteId":"19531","name":"Fir Grove Farm","waterbody":"GB108043011050","region":"South West","area":"Wessex","totalSurveys":2,"speciesCount":5,"firstSurvey":"02/05/2006","lastSurvey":"24/05/2012"}},{"type":"Feature","geometry":{"type":"Point","coordinates":[-1.820811,50.767832]},"properties":{"siteId":"19570","name":"Hurn Court Bridge","waterbody":"GB108043011050","region":"South West","area":"Wessex","totalSurveys":1,"speciesCount":7,"firstSurvey":"11/05/2006","lastSurvey":"11/05/2006"}},{"type":"Feature","geometry":{"type":"Point","coordinates":[-1.855158,50.854226]},"properties":{"siteId":"19491","name":"Moors Valley Country Park","waterbody":"GB108043016090","region":"South West","area":"Wessex","totalSurveys":1,"speciesCount":12,"firstSurvey":"26/04/2006","lastSurvey":"26/04/2006"}},{"type":"Feature","geometry":{"type":"Point","coordinates":[-1.853405,50.805961]},"properties":{"siteId":"19530","name":"Palmersford","waterbody":"GB108043011050","region":"South West","area":"Wessex","totalSurveys":2,"speciesCount":8,"firstSurvey":"02/05/2006","lastSurvey":"24/05/2012"}},{"type":"Feature","geometry":{"type":"Point","coordinates":[-1.992402,50.874863]},"properties":{"siteId":"11333","name":"Crichel Mill","waterbody":"GB108043015710","region":"South West","area":"Wessex","totalSurveys":2,"speciesCount":6,"firstSurvey":"26/09/2003","lastSurvey":"22/08/2012"}},{"type":"Feature","geometry":{"type":"Point","coordinates":[-1.992098,50.822356]},"properties":{"siteId":"8775","name":"D/S Fitches Bridge","waterbody":"GB108043011090","region":"South West","area":"Wessex","totalSurveys":16,"speciesCount":16,"firstSurvey":"26/07/2001","lastSurvey":"29/07/2025"}},{"type":"Feature","geometry":{"type":"Point","coordinates":[-1.987857,50.805261]},"properties":{"siteId":"77866","name":"D/S Walford Mill Road Bridge","waterbody":null,"region":"South West","area":"Wessex","totalSurveys":2,"speciesCount":9,"firstSurvey":"30/06/2023","lastSurvey":"23/07/2024"}},{"type":"Feature","geometry":{"type":"Point","coordinates":[-1.98166,50.794559]},"properties":{"siteId":"19689","name":"D/S Wimborne","waterbody":"GB108043011090","region":"South West","area":"Wessex","totalSurveys":5,"speciesCount":15,"firstSurvey":"27/07/2001","lastSurvey":"02/08/2018"}},{"type":"Feature","geometry":{"type":"Point","coordinates":[-1.985065,50.795162]},"properties":{"siteId":"77806","name":"Deans Court","waterbody":null,"region":"South West","area":"Wessex","totalSurveys":2,"speciesCount":8,"firstSurvey":"30/06/2023","lastSurvey":"23/07/2024"}},{"type":"Feature","geometry":{"type":"Point","coordinates":[-1.991316,50.825288]},"properties":{"siteId":"73665","name":"Honeybrook Farm","waterbody":null,"region":"South West","area":"Wessex","totalSurveys":1,"speciesCount":4,"firstSurvey":"28/08/2019","lastSurvey":"28/08/2019"}},{"type":"Feature","geometry":{"type":"Point","coordinates":[-1.994257,50.807789]},"properties":{"siteId":"22765","name":"US Walford Mill","waterbody":"GB108043011090","region":"South West","area":"Wessex","totalSurveys":3,"speciesCount":8,"firstSurvey":"25/07/2001","lastSurvey":"29/08/2012"}},{"type":"Feature","geometry":{"type":"Point","coordinates":[-1.994449,50.869108]},"properties":{"siteId":"73603","name":"Victoria Cottages","waterbody":null,"region":"South West","area":"Wessex","totalSurveys":1,"speciesCount":4,"firstSurvey":"28/08/2019","lastSurvey":"28/08/2019"}},{"type":"Feature","geometry":{"type":"Point","coordinates":[-1.985163,50.798571]},"properties":{"siteId":"16990","name":"Wimborne (Somerfield Carpark)","waterbody":"GB108043011090","region":"South West","area":"Wessex","totalSurveys":1,"speciesCount":6,"firstSurvey":"13/10/2005","lastSurvey":"13/10/2005"}},{"type":"Feature","geometry":{"type":"Point","coordinates":[-1.89225,50.897583]},"properties":{"siteId":"45041","name":"Edmondsham","waterbody":"GB108043016090","region":"South West","area":"Wessex","totalSurveys":1,"speciesCount":4,"firstSurvey":"22/10/2012","lastSurvey":"22/10/2012"}},{"type":"Feature","geometry":{"type":"Point","coordinates":[-1.86232,50.867922]},"properties":{"siteId":"21607","name":"Pottern Park","waterbody":"GB108043016090","region":"South West","area":"Wessex","totalSurveys":5,"speciesCount":13,"firstSurvey":"23/08/2006","lastSurvey":"11/09/2024"}},{"type":"Feature","geometry":{"type":"Point","coordinates":[-1.896178,50.883145]},"properties":{"siteId":"11334","name":"Romford Bridge","waterbody":"GB108043016090","region":"South West","area":"Wessex","totalSurveys":14,"speciesCount":12,"firstSurvey":"23/09/2003","lastSurvey":"10/10/2024"}},{"type":"Feature","geometry":{"type":"Point","coordinates":[-1.875495,50.86728]},"properties":{"siteId":"8780","name":"Verwood Manor Farm","waterbody":"GB108043016090","region":"South West","area":"Wessex","totalSurveys":1,"speciesCount":10,"firstSurvey":"11/10/2002","lastSurvey":"11/10/2002"}},{"type":"Feature","geometry":{"type":"Point","coordinates":[-1.904835,50.820205]},"properties":{"siteId":"20961","name":"U/S Golf course","waterbody":"GB108043011080","region":"South West","area":"Wessex","totalSurveys":2,"speciesCount":10,"firstSurvey":"03/07/2006","lastSurvey":"21/08/2012"}},{"type":"Feature","geometry":{"type":"Point","coordinates":[-1.179596,50.802586]},"properties":{"siteId":"50366","name":"Apple Dumpling Bridge","waterbody":null,"region":"South East","area":"Solent and South Downs","totalSurveys":2,"speciesCount":2,"firstSurvey":"23/09/2014","lastSurvey":"17/06/2025"}},{"type":"Feature","geometry":{"type":"Point","coordinates":[-1.291465,50.920609]},"properties":{"siteId":"6276","name":"Botleigh Grange","waterbody":"GB107042016590","region":"South East","area":"Solent and South Downs","totalSurveys":2,"speciesCount":6,"firstSurvey":"14/08/2001","lastSurvey":"30/08/2002"}},{"type":"Feature","geometry":{"type":"Point","coordinates":[-1.265229,50.918954]},"properties":{"siteId":"6274","name":"Botley Mill","waterbody":"GB107042016580","region":"South East","area":"Solent and South Downs","totalSurveys":1,"speciesCount":2,"firstSurvey":"25/09/2002","lastSurvey":"25/09/2002"}},{"type":"Feature","geometry":{"type":"Point","coordinates":[-1.229881,50.945398]},"properties":{"siteId":"30222","name":"Brooklands Farm","waterbody":"GB107042016240","region":"South East","area":"Solent and South Downs","totalSurveys":3,"speciesCount":5,"firstSurvey":"21/07/2008","lastSurvey":"02/08/2021"}},{"type":"Feature","geometry":{"type":"Point","coordinates":[-1.254278,50.932967]},"properties":{"siteId":"4278","name":"Durley Mill","waterbody":"GB107042016250","region":"South East","area":"Solent and South Downs","totalSurveys":6,"speciesCount":11,"firstSurvey":"14/08/2001","lastSurvey":"18/06/2025"}},{"type":"Feature","geometry":{"type":"Point","coordinates":[-1.274567,50.935964]},"properties":{"siteId":"43021","name":"Chancellor's Lane","waterbody":"GB107042016270","region":"South East","area":"Solent and South Downs","totalSurveys":3,"speciesCount":8,"firstSurvey":"20/06/2012","lastSurvey":"10/07/2024"}},{"type":"Feature","geometry":{"type":"Point","coordinates":[-1.285409,50.954663]},"properties":{"siteId":"6273","name":"Cockpit Farm","waterbody":"GB107042016270","region":"South East","area":"Solent and South Downs","totalSurveys":1,"speciesCount":3,"firstSurvey":"29/08/2002","lastSurvey":"29/08/2002"}},{"type":"Feature","geometry":{"type":"Point","coordinates":[-1.288769,50.951878]},"properties":{"siteId":"43541","name":"Holme Farm","waterbody":"GB107042016270","region":"South East","area":"Solent and South Downs","totalSurveys":3,"speciesCount":4,"firstSurvey":"25/07/2012","lastSurvey":"10/07/2024"}},{"type":"Feature","geometry":{"type":"Point","coordinates":[-1.265775,50.925846]},"properties":{"siteId":"4277","name":"Maddoxford Farm D/S Road Bridge","waterbody":"GB107042016270","region":"South East","area":"Solent and South Downs","totalSurveys":6,"speciesCount":7,"firstSurvey":"14/08/2001","lastSurvey":"16/10/2006"}},{"type":"Feature","geometry":{"type":"Point","coordinates":[-1.256617,50.931759]},"properties":{"siteId":"6272","name":"Frog Mill","waterbody":"GB107042016250","region":"South East","area":"Solent and South Downs","totalSurveys":5,"speciesCount":10,"firstSurvey":"27/08/2002","lastSurvey":"05/08/2021"}},{"type":"Feature","geometry":{"type":"Point","coordinates":[-1.262802,50.929379]},"properties":{"siteId":"6271","name":"Greywood","waterbody":"GB107042016250","region":"South East","area":"Solent and South Downs","totalSurveys":1,"speciesCount":4,"firstSurvey":"27/08/2002","lastSurvey":"27/08/2002"}},{"type":"Feature","geometry":{"type":"Point","coordinates":[-1.214822,50.944507]},"properties":{"siteId":"6270","name":"Locks Farm","waterbody":"GB107042016260","region":"South East","area":"Solent and South Downs","totalSurveys":1,"speciesCount":1,"firstSurvey":"30/08/2002","lastSurvey":"30/08/2002"}},{"type":"Feature","geometry":{"type":"Point","coordinates":[-1.2656,50.924271]},"properties":{"siteId":"26480","name":"Lower Wangfield Farm Meadow","waterbody":"GB107042016580","region":"South East","area":"Solent and South Downs","totalSurveys":8,"speciesCount":11,"firstSurvey":"29/05/2007","lastSurvey":"09/07/2024"}},{"type":"Feature","geometry":{"type":"Point","coordinates":[-1.245514,50.90471]},"properties":{"siteId":"6275","name":"Barn Farm","waterbody":"GB107042016570","region":"South East","area":"Solent and South Downs","totalSurveys":2,"speciesCount":4,"firstSurvey":"29/08/2002","lastSurvey":"19/06/2012"}},{"type":"Feature","geometry":{"type":"Point","coordinates":[-1.21118,50.909879]},"properties":{"siteId":"42263","name":"Biddenfield Lane","waterbody":"GB107042016570","region":"South East","area":"Solent and South Downs","totalSurveys":1,"speciesCount":2,"firstSurvey":"05/04/2012","lastSurvey":"05/04/2012"}},{"type":"Feature","geometry":{"type":"Point","coordinates":[-1.234033,50.95262]},"properties":{"siteId":"30223","name":"Tangier Farm","waterbody":"GB107042016280","region":"South East","area":"Solent and South Downs","totalSurveys":3,"speciesCount":5,"firstSurvey":"21/07/2008","lastSurvey":"02/08/2021"}},{"type":"Feature","geometry":{"type":"Point","coordinates":[-1.219979,50.950189]},"properties":{"siteId":"30221","name":"Thickets Farm","waterbody":"GB107042016290","region":"South East","area":"Solent and South Downs","totalSurveys":2,"speciesCount":3,"firstSurvey":"12/06/2008","lastSurvey":"14/07/2016"}},{"type":"Feature","geometry":{"type":"Point","coordinates":[-1.231892,50.93998]},"properties":{"siteId":"63063","name":"Treefield","waterbody":null,"region":"South East","area":"Solent and South Downs","totalSurveys":1,"speciesCount":4,"firstSurvey":"14/07/2016","lastSurvey":"14/07/2016"}},{"type":"Feature","geometry":{"type":"Point","coordinates":[-1.264262,50.920693]},"properties":{"siteId":"26488","name":"Upstream of railway viaduct","waterbody":"GB107042016580","region":"South East","area":"Solent and South Downs","totalSurveys":7,"speciesCount":9,"firstSurvey":"05/06/2007","lastSurvey":"22/08/2018"}},{"type":"Feature","geometry":{"type":"Point","coordinates":[-1.264146,50.926276]},"properties":{"siteId":"26483","name":"Wangfield Lane","waterbody":"GB107042016250","region":"South East","area":"Solent and South Downs","totalSurveys":1,"speciesCount":4,"firstSurvey":"29/05/2007","lastSurvey":"29/05/2007"}},{"type":"Feature","geometry":{"type":"Point","coordinates":[-1.007417,50.872867]},"properties":{"siteId":"43141","name":"Ramsdale Avenue","waterbody":"GB107042016370","region":"South East","area":"Solent and South Downs","totalSurveys":1,"speciesCount":2,"firstSurvey":"29/06/2012","lastSurvey":"29/06/2012"}},{"type":"Feature","geometry":{"type":"Point","coordinates":[-1.229912,50.857272]},"properties":{"siteId":"4272","name":"Anjou Bridge","waterbody":"GB107042016640","region":"South East","area":"Solent and South Downs","totalSurveys":6,"speciesCount":12,"firstSurvey":"16/09/2001","lastSurvey":"28/08/2006"}},{"type":"Feature","geometry":{"type":"Point","coordinates":[-1.224992,50.866088]},"properties":{"siteId":"28780","name":"Behind Silver Springs","waterbody":"GB107042016640","region":"South East","area":"Solent and South Downs","totalSurveys":1,"speciesCount":8,"firstSurvey":"08/08/2007","lastSurvey":"08/08/2007"}},{"type":"Feature","geometry":{"type":"Point","coordinates":[-1.131664,50.982056]},"properties":{"siteId":"30241","name":"Exton","waterbody":"GB107042016640","region":"South East","area":"Solent and South Downs","totalSurveys":3,"speciesCount":5,"firstSurvey":"26/07/2011","lastSurvey":"08/08/2023"}},{"type":"Feature","geometry":{"type":"Point","coordinates":[-1.219634,50.869568]},"properties":{"siteId":"71888","name":"Fontley","waterbody":null,"region":"South East","area":"Solent and South Downs","totalSurveys":1,"speciesCount":2,"firstSurvey":"31/08/2018","lastSurvey":"31/08/2018"}},{"type":"Feature","geometry":{"type":"Point","coordinates":[-1.154276,50.926126]},"properties":{"siteId":"30242","name":"Holywell","waterbody":"GB107042016640","region":"South East","area":"Solent and South Downs","totalSurveys":3,"speciesCount":7,"firstSurvey":"19/07/2011","lastSurvey":"31/07/2023"}},{"type":"Feature","geometry":{"type":"Point","coordinates":[-1.129482,50.973802]},"properties":{"siteId":"4275","name":"Meonstoke","waterbody":"GB107042016640","region":"South East","area":"Solent and South Downs","totalSurveys":4,"speciesCount":5,"firstSurvey":"22/08/2001","lastSurvey":"07/08/2023"}},{"type":"Feature","geometry":{"type":"Point","coordinates":[-1.168417,50.921444]},"properties":{"siteId":"28720","name":"Mislingford Beat","waterbody":"GB107042016640","region":"South East","area":"Solent and South Downs","totalSurveys":14,"speciesCount":8,"firstSurvey":"03/08/2007","lastSurvey":"05/08/2025"}},{"type":"Feature","geometry":{"type":"Point","coordinates":[-1.175891,50.907504]},"properties":{"siteId":"4274","name":"Northfields Farm","waterbody":"GB107042016640","region":"South East","area":"Solent and South Downs","totalSurveys":4,"speciesCount":5,"firstSurvey":"21/08/2001","lastSurvey":"03/08/2023"}},{"type":"Feature","geometry":{"type":"Point","coordinates":[-1.13942,50.935433]},"properties":{"siteId":"30245","name":"St Clair's Farm","waterbody":"GB107042016640","region":"South East","area":"Solent and South Downs","totalSurveys":3,"speciesCount":6,"firstSurvey":"19/07/2011","lastSurvey":"07/08/2023"}},{"type":"Feature","geometry":{"type":"Point","coordinates":[-1.232926,50.845916]},"properties":{"siteId":"34597","name":"Titchfield Canal","waterbody":"GB107042016640","region":"South East","area":"Solent and South Downs","totalSurveys":3,"speciesCount":11,"firstSurvey":"26/07/2011","lastSurvey":"27/07/2023"}},{"type":"Feature","geometry":{"type":"Point","coordinates":[-1.228581,50.85613]},"properties":{"siteId":"30246","name":"Titchfield Mill old river","waterbody":"GB107042016640","region":"South East","area":"Solent and South Downs","totalSurveys":4,"speciesCount":11,"firstSurvey":"12/07/2011","lastSurvey":"27/07/2023"}},{"type":"Feature","geometry":{"type":"Point","coordinates":[-1.172027,50.914437]},"properties":{"siteId":"30256","name":"Upper Rookesbury","waterbody":"GB107042016640","region":"South East","area":"Solent and South Downs","totalSurveys":3,"speciesCount":6,"firstSurvey":"14/07/2011","lastSurvey":"03/08/2023"}},{"type":"Feature","geometry":{"type":"Point","coordinates":[-1.224665,50.866976]},"properties":{"siteId":"27277","name":"Upstream of Silver Springs","waterbody":"GB107042016640","region":"South East","area":"Solent and South Downs","totalSurveys":15,"speciesCount":15,"firstSurvey":"08/08/2007","lastSurvey":"05/08/2025"}},{"type":"Feature","geometry":{"type":"Point","coordinates":[-1.186232,50.898449]},"properties":{"siteId":"34594","name":"Wickham gardens","waterbody":"GB107042016640","region":"South East","area":"Solent and South Downs","totalSurveys":3,"speciesCount":10,"firstSurvey":"12/07/2011","lastSurvey":"31/07/2023"}},{"type":"Feature","geometry":{"type":"Point","coordinates":[-1.28256,50.88632]},"properties":{"siteId":"48643","name":"Swanwick Nature Reserve centre lake","waterbody":null,"region":"South East","area":"Solent and South Downs","totalSurveys":1,"speciesCount":3,"firstSurvey":"10/05/2013","lastSurvey":"10/05/2013"}},{"type":"Feature","geometry":{"type":"Point","coordinates":[-1.102977,50.887912]},"properties":{"siteId":"44642","name":"Lovelocks Farm","waterbody":"GB107042016350","region":"South East","area":"Solent and South Downs","totalSurveys":1,"speciesCount":6,"firstSurvey":"27/09/2012","lastSurvey":"27/09/2012"}},{"type":"Feature","geometry":{"type":"Point","coordinates":[-1.118479,50.872544]},"properties":{"siteId":"26458","name":"Cheeseman's Bridge","waterbody":"GB107042016400","region":"South East","area":"Solent and South Downs","totalSurveys":1,"speciesCount":9,"firstSurvey":"08/06/2007","lastSurvey":"08/06/2007"}},{"type":"Feature","geometry":{"type":"Point","coordinates":[-1.091441,50.870682]},"properties":{"siteId":"4259","name":"Comphouse Ford","waterbody":"GB107042016400","region":"South East","area":"Solent and South Downs","totalSurveys":1,"speciesCount":5,"firstSurvey":"15/08/2001","lastSurvey":"15/08/2001"}},{"type":"Feature","geometry":{"type":"Point","coordinates":[-1.137458,50.879179]},"properties":{"siteId":"71883","name":"Downstream of Boarhunt Bridge","waterbody":null,"region":"South East","area":"Solent and South Downs","totalSurveys":1,"speciesCount":2,"firstSurvey":"12/09/2018","lastSurvey":"12/09/2018"}},{"type":"Feature","geometry":{"type":"Point","coordinates":[-1.1099,50.892389]},"properties":{"siteId":"30249","name":"Hipley Copse","waterbody":"GB107042016350","region":"South East","area":"Solent and South Downs","totalSurveys":1,"speciesCount":7,"firstSurvey":"01/07/2008","lastSurvey":"01/07/2008"}},{"type":"Feature","geometry":{"type":"Point","coordinates":[-1.05721,50.883801]},"properties":{"siteId":"16233","name":"Newlands Farm","waterbody":"GB107042016400","region":"South East","area":"Solent and South Downs","totalSurveys":3,"speciesCount":5,"firstSurvey":"21/09/2005","lastSurvey":"12/08/2016"}},{"type":"Feature","geometry":{"type":"Point","coordinates":[-1.07821,50.864176]},"properties":{"siteId":"3479","name":"Potwell Ford","waterbody":"GB107042016400","region":"South East","area":"Solent and South Downs","totalSurveys":6,"speciesCount":9,"firstSurvey":"15/08/2001","lastSurvey":"12/08/2016"}},{"type":"Feature","geometry":{"type":"Point","coordinates":[-1.111732,50.87082]},"properties":{"siteId":"7053","name":"Rooks Bridge","waterbody":"GB107042016400","region":"South East","area":"Solent and South Downs","totalSurveys":2,"speciesCount":10,"firstSurvey":"15/08/2001","lastSurvey":"23/09/2002"}},{"type":"Feature","geometry":{"type":"Point","coordinates":[-1.123016,50.875402]},"properties":{"siteId":"26437","name":"Southwick bypass","waterbody":"GB107042016360","region":"South East","area":"Solent and South Downs","totalSurveys":1,"speciesCount":10,"firstSurvey":"11/06/2007","lastSurvey":"11/06/2007"}},{"type":"Feature","geometry":{"type":"Point","coordinates":[-1.167325,50.867013]},"properties":{"siteId":"26499","name":"Spurling's Farm","waterbody":"GB107042016360","region":"South East","area":"Solent and South Downs","totalSurveys":1,"speciesCount":10,"firstSurvey":"07/05/2007","lastSurvey":"07/05/2007"}},{"type":"Feature","geometry":{"type":"Point","coordinates":[-1.136558,50.879406]},"properties":{"siteId":"26477","name":"Upstream of Boarhunt Bridge","waterbody":"GB107042016360","region":"South East","area":"Solent and South Downs","totalSurveys":9,"speciesCount":12,"firstSurvey":"07/06/2007","lastSurvey":"13/08/2024"}},{"type":"Feature","geometry":{"type":"Point","coordinates":[-1.167343,50.860439]},"properties":{"siteId":"4260","name":"Wallington Village","waterbody":"GB107042016360","region":"South East","area":"Solent and South Downs","totalSurveys":1,"speciesCount":7,"firstSurvey":"16/08/2001","lastSurvey":"16/08/2001"}},{"type":"Feature","geometry":{"type":"Point","coordinates":[-1.165665,50.874815]},"properties":{"siteId":"4258","name":"Whitedell Farm","waterbody":"GB107042016360","region":"South East","area":"Solent and South Downs","totalSurveys":10,"speciesCount":13,"firstSurvey":"25/06/2001","lastSurvey":"15/08/2024"}},{"type":"Feature","geometry":{"type":"Point","coordinates":[-1.404023,50.637357]},"properties":{"siteId":"53624","name":"Grange Chine","waterbody":"GB107101005940","region":"South East","area":"Solent and South Downs","totalSurveys":2,"speciesCount":3,"firstSurvey":"10/07/2014","lastSurvey":"17/06/2021"}},{"type":"Feature","geometry":{"type":"Point","coordinates":[-1.379935,50.635613]},"properties":{"siteId":"53625","name":"Thorncross","waterbody":"GB107101005940","region":"South East","area":"Solent and South Downs","totalSurveys":1,"speciesCount":2,"firstSurvey":"10/07/2014","lastSurvey":"10/07/2014"}},{"type":"Feature","geometry":{"type":"Point","coordinates":[-1.417092,50.680544]},"properties":{"siteId":"50390","name":"Calbourne Mill","waterbody":"GB107101006020","region":"South East","area":"Solent and South Downs","totalSurveys":2,"speciesCount":3,"firstSurvey":"01/07/2014","lastSurvey":"16/06/2021"}},{"type":"Feature","geometry":{"type":"Point","coordinates":[-1.415845,50.698937]},"properties":{"siteId":"50389","name":"Shalfleet","waterbody":"GB107101006020","region":"South East","area":"Solent and South Downs","totalSurveys":2,"speciesCount":3,"firstSurvey":"01/07/2014","lastSurvey":"16/06/2021"}},{"type":"Feature","geometry":{"type":"Point","coordinates":[-1.166975,50.664645]},"properties":{"siteId":"6283","name":"Adgestone","waterbody":"GB107101005970","region":"South East","area":"Solent and South Downs","totalSurveys":1,"speciesCount":3,"firstSurvey":"11/09/2002","lastSurvey":"11/09/2002"}},{"type":"Feature","geometry":{"type":"Point","coordinates":[-1.189279,50.669299]},"properties":{"siteId":"6282","name":"Alverstone","waterbody":"GB107101005970","region":"South East","area":"Solent and South Downs","totalSurveys":1,"speciesCount":6,"firstSurvey":"09/09/2002","lastSurvey":"09/09/2002"}},{"type":"Feature","geometry":{"type":"Point","coordinates":[-1.133328,50.678483]},"properties":{"siteId":"6285","name":"Brading","waterbody":"GB107101005970","region":"South East","area":"Solent and South Downs","totalSurveys":1,"speciesCount":1,"firstSurvey":"09/09/2002","lastSurvey":"09/09/2002"}},{"type":"Feature","geometry":{"type":"Point","coordinates":[-1.260552,50.641616]},"properties":{"siteId":"6279","name":"Godshill","waterbody":"GB107101006220","region":"South East","area":"Solent and South Downs","totalSurveys":3,"speciesCount":5,"firstSurvey":"10/09/2002","lastSurvey":"15/06/2021"}},{"type":"Feature","geometry":{"type":"Point","coordinates":[-1.231741,50.66607]},"properties":{"siteId":"6280","name":"Horringford","waterbody":"GB107101005970","region":"South East","area":"Solent and South Downs","totalSurveys":3,"speciesCount":8,"firstSurvey":"09/09/2002","lastSurvey":"15/06/2021"}},{"type":"Feature","geometry":{"type":"Point","coordinates":[-1.219036,50.667731]},"properties":{"siteId":"6281","name":"Langbridge","waterbody":"GB107101005970","region":"South East","area":"Solent and South Downs","totalSurveys":1,"speciesCount":4,"firstSurvey":"10/09/2002","lastSurvey":"10/09/2002"}},{"type":"Feature","geometry":{"type":"Point","coordinates":[-1.202574,50.66967]},"properties":{"siteId":"34598","name":"Newchurch fishery","waterbody":"GB107101005970","region":"South East","area":"Solent and South Downs","totalSurveys":3,"speciesCount":13,"firstSurvey":"20/09/2012","lastSurvey":"08/08/2024"}},{"type":"Feature","geometry":{"type":"Point","coordinates":[-1.274553,50.619518]},"properties":{"siteId":"50423","name":"Roud","waterbody":"GB107101006220","region":"South East","area":"Solent and South Downs","totalSurveys":3,"speciesCount":4,"firstSurvey":"03/07/2014","lastSurvey":"17/06/2021"}},{"type":"Feature","geometry":{"type":"Point","coordinates":[-1.204604,50.67016]},"properties":{"siteId":"71887","name":"Upstream of Newchurch Fishery","waterbody":null,"region":"South East","area":"Solent and South Downs","totalSurveys":1,"speciesCount":1,"firstSurvey":"29/08/2018","lastSurvey":"29/08/2018"}},{"type":"Feature","geometry":{"type":"Point","coordinates":[-1.142901,50.674318]},"properties":{"siteId":"6284","name":"Yarbridge fishery","waterbody":"GB107101005970","region":"South East","area":"Solent and South Downs","totalSurveys":4,"speciesCount":9,"firstSurvey":"09/09/2002","lastSurvey":"03/10/2024"}},{"type":"Feature","geometry":{"type":"Point","coordinates":[-1.310699,50.701636]},"properties":{"siteId":"44602","name":"Kitbridge Farm","waterbody":"GB107101006250","region":"South East","area":"Solent and South Downs","totalSurveys":1,"speciesCount":3,"firstSurvey":"20/09/2012","lastSurvey":"20/09/2012"}},{"type":"Feature","geometry":{"type":"Point","coordinates":[-1.303244,50.698282]},"properties":{"siteId":"26658","name":"Alderbury Lane","waterbody":"GB107101006250","region":"South East","area":"Solent and South Downs","totalSurveys":3,"speciesCount":4,"firstSurvey":"01/02/2007","lastSurvey":"30/08/2018"}},{"type":"Feature","geometry":{"type":"Point","coordinates":[-1.301069,50.699825]},"properties":{"siteId":"50285","name":"D/S of Westminster Mill","waterbody":"GB107101006250","region":"South East","area":"Solent and South Downs","totalSurveys":1,"speciesCount":1,"firstSurvey":"12/08/2013","lastSurvey":"12/08/2013"}},{"type":"Feature","geometry":{"type":"Point","coordinates":[-1.300481,50.700298]},"properties":{"siteId":"50284","name":"Old Dairy Crest site","waterbody":"GB107101006250","region":"South East","area":"Solent and South Downs","totalSurveys":1,"speciesCount":2,"firstSurvey":"12/08/2013","lastSurvey":"12/08/2013"}},{"type":"Feature","geometry":{"type":"Point","coordinates":[-1.306263,50.695162]},"properties":{"siteId":"26659","name":"Wellington Road","waterbody":"GB107101006250","region":"South East","area":"Solent and South Downs","totalSurveys":3,"speciesCount":3,"firstSurvey":"01/02/2007","lastSurvey":"30/08/2018"}},{"type":"Feature","geometry":{"type":"Point","coordinates":[-1.287005,50.673841]},"properties":{"siteId":"6288","name":"Blackwater","waterbody":"GB107101005990","region":"South East","area":"Solent and South Downs","totalSurveys":1,"speciesCount":4,"firstSurvey":"10/09/2002","lastSurvey":"10/09/2002"}},{"type":"Feature","geometry":{"type":"Point","coordinates":[-1.288589,50.69457]},"properties":{"siteId":"28327","name":"Matalan to National Tyres","waterbody":"GB107101005990","region":"South East","area":"Solent and South Downs","totalSurveys":1,"speciesCount":6,"firstSurvey":"27/09/2007","lastSurvey":"27/09/2007"}},{"type":"Feature","geometry":{"type":"Point","coordinates":[-1.256135,50.600634]},"properties":{"siteId":"28340","name":"Nettlecombe Farm","waterbody":"GB107101006220","region":"South East","area":"Solent and South Downs","totalSurveys":1,"speciesCount":1,"firstSurvey":"21/09/2007","lastSurvey":"21/09/2007"}},{"type":"Feature","geometry":{"type":"Point","coordinates":[-1.29719,50.658075]},"properties":{"siteId":"6287","name":"Sheat Manor","waterbody":"GB107101005990","region":"South East","area":"Solent and South Downs","totalSurveys":3,"speciesCount":4,"firstSurvey":"10/09/2002","lastSurvey":"16/06/2021"}},{"type":"Feature","geometry":{"type":"Point","coordinates":[-1.288337,50.690611]},"properties":{"siteId":"50283","name":"Shide concrete channel","waterbody":"GB107101005990","region":"South East","area":"Solent and South Downs","totalSurveys":1,"speciesCount":6,"firstSurvey":"12/08/2013","lastSurvey":"12/08/2013"}},{"type":"Feature","geometry":{"type":"Point","coordinates":[-1.288968,50.688196]},"properties":{"siteId":"28326","name":"Shide to Blackwater","waterbody":"GB107101005990","region":"South East","area":"Solent and South Downs","totalSurveys":1,"speciesCount":5,"firstSurvey":"21/09/2007","lastSurvey":"21/09/2007"}},{"type":"Feature","geometry":{"type":"Point","coordinates":[-1.288706,50.689607]},"properties":{"siteId":"35995","name":"Shide weir","waterbody":"GB107101005990","region":"South East","area":"Solent and South Downs","totalSurveys":2,"speciesCount":8,"firstSurvey":"28/09/2010","lastSurvey":"16/06/2021"}},{"type":"Feature","geometry":{"type":"Point","coordinates":[-1.289782,50.695252]},"properties":{"siteId":"35994","name":"Upstream Matalan","waterbody":"GB107101005990","region":"South East","area":"Solent and South Downs","totalSurveys":2,"speciesCount":8,"firstSurvey":"11/09/2002","lastSurvey":"28/09/2010"}},{"type":"Feature","geometry":{"type":"Point","coordinates":[-1.152869,50.727476]},"properties":{"siteId":"72464","name":"Simeon Street Recreation Ground","waterbody":null,"region":"South East","area":"Solent and South Downs","totalSurveys":1,"speciesCount":6,"firstSurvey":"25/01/2019","lastSurvey":"25/01/2019"}},{"type":"Feature","geometry":{"type":"Point","coordinates":[-1.34978,50.709963]},"properties":{"siteId":"42267","name":"Colman's Piggery","waterbody":null,"region":"South East","area":"Solent and South Downs","totalSurveys":1,"speciesCount":0,"firstSurvey":"11/04/2012","lastSurvey":"11/04/2012"}},{"type":"Feature","geometry":{"type":"Point","coordinates":[-1.367349,50.718918]},"properties":{"siteId":"42266","name":"Porchfield","waterbody":"GB107101006080","region":"South East","area":"Solent and South Downs","totalSurveys":1,"speciesCount":2,"firstSurvey":"11/04/2012","lastSurvey":"11/04/2012"}},{"type":"Feature","geometry":{"type":"Point","coordinates":[-1.352147,50.711856]},"properties":{"siteId":"48283","name":"Rodgebrook Farm","waterbody":null,"region":"South East","area":"Solent and South Downs","totalSurveys":1,"speciesCount":1,"firstSurvey":"27/10/2005","lastSurvey":"27/10/2005"}},{"type":"Feature","geometry":{"type":"Point","coordinates":[-1.33994,50.969542]},"properties":{"siteId":"6292","name":"Bishopstoke Barge","waterbody":"GB107042022580","region":"South East","area":"Solent and South Downs","totalSurveys":13,"speciesCount":17,"firstSurvey":"31/08/2004","lastSurvey":"29/08/2025"}},{"type":"Feature","geometry":{"type":"Point","coordinates":[-1.340455,50.971425]},"properties":{"siteId":"34279","name":"Bishopstoke Lock","waterbody":"GB107042022580","region":"South East","area":"Solent and South Downs","totalSurveys":5,"speciesCount":15,"firstSurvey":"05/09/2002","lastSurvey":"04/09/2009"}},{"type":"Feature","geometry":{"type":"Point","coordinates":[-1.323583,50.980896]},"properties":{"siteId":"81203","name":"Bow Lake Fish Farm Upper","waterbody":null,"region":"South East","area":"Solent and South Downs","totalSurveys":1,"speciesCount":9,"firstSurvey":"27/06/2025","lastSurvey":"27/06/2025"}},{"type":"Feature","geometry":{"type":"Point","coordinates":[-1.327068,50.980242]},"properties":{"siteId":"33950","name":"Bow lake fish farm","waterbody":"GB107042016630","region":"South East","area":"Solent and South Downs","totalSurveys":2,"speciesCount":15,"firstSurvey":"26/10/2009","lastSurvey":"31/07/2014"}},{"type":"Feature","geometry":{"type":"Point","coordinates":[-1.315145,50.985118]},"properties":{"siteId":"38950","name":"Leyland's Farm","waterbody":"GB107042016630","region":"South East","area":"Solent and South Downs","totalSurveys":2,"speciesCount":8,"firstSurvey":"01/09/2011","lastSurvey":"27/06/2025"}},{"type":"Feature","geometry":{"type":"Point","coordinates":[-1.309644,50.984241]},"properties":{"siteId":"50385","name":"Upstream of Leylands Farm","waterbody":"GB107042016630","region":"South East","area":"Solent and South Downs","totalSurveys":1,"speciesCount":4,"firstSurvey":"31/07/2014","lastSurvey":"31/07/2014"}},{"type":"Feature","geometry":{"type":"Point","coordinates":[-1.345821,50.980807]},"properties":{"siteId":"6260","name":"BR Lock","waterbody":"GB107042022580","region":"South East","area":"Solent and South Downs","totalSurveys":1,"speciesCount":4,"firstSurvey":"15/08/2002","lastSurvey":"15/08/2002"}},{"type":"Feature","geometry":{"type":"Point","coordinates":[-1.336477,50.996698]},"properties":{"siteId":"78665","name":"\"Brambridge main \"\"Kanara\"\"\"","waterbody":null,"region":"South East","area":"Solent and South Downs","totalSurveys":3,"speciesCount":7,"firstSurvey":"06/09/2023","lastSurvey":"05/09/2025"}},{"type":"Feature","geometry":{"type":"Point","coordinates":[-1.334974,50.999171]},"properties":{"siteId":"30229","name":"Brambridge","waterbody":"GB107042022580","region":"South East","area":"Solent and South Downs","totalSurveys":10,"speciesCount":9,"firstSurvey":"19/10/2009","lastSurvey":"03/09/2025"}},{"type":"Feature","geometry":{"type":"Point","coordinates":[-1.339952,50.96974]},"properties":{"siteId":"6261","name":"Coneger Lock","waterbody":"GB107042022580","region":"South East","area":"Solent and South Downs","totalSurveys":1,"speciesCount":4,"firstSurvey":"14/08/2002","lastSurvey":"14/08/2002"}},{"type":"Feature","geometry":{"type":"Point","coordinates":[-1.347472,50.986949]},"properties":{"siteId":"6309","name":"Allbrook Lock","waterbody":"GB107042022580","region":"South East","area":"Solent and South Downs","totalSurveys":5,"speciesCount":10,"firstSurvey":"18/09/2002","lastSurvey":"19/09/2006"}},{"type":"Feature","geometry":{"type":"Point","coordinates":[-1.349125,50.982912]},"properties":{"siteId":"6250","name":"Ham Farm","waterbody":"GB107042022580","region":"South East","area":"Solent and South Downs","totalSurveys":10,"speciesCount":17,"firstSurvey":"15/08/2002","lastSurvey":"27/10/2025"}},{"type":"Feature","geometry":{"type":"Point","coordinates":[-1.371679,50.935096]},"properties":{"siteId":"7021","name":"Riverside Park","waterbody":"GB107042022580","region":"South East","area":"Solent and South Downs","totalSurveys":4,"speciesCount":10,"firstSurvey":"19/09/2002","lastSurvey":"20/09/2005"}},{"type":"Feature","geometry":{"type":"Point","coordinates":[-1.336521,50.964622]},"properties":{"siteId":"71524","name":"Lower Bishopstoke Fishery","waterbody":null,"region":"South East","area":"Solent and South Downs","totalSurveys":8,"speciesCount":8,"firstSurvey":"10/09/2018","lastSurvey":"03/09/2025"}},{"type":"Feature","geometry":{"type":"Point","coordinates":[-1.338606,50.949176]},"properties":{"siteId":"6310","name":"Lower Itchen Fishery - Allington Stream","waterbody":"GB107042022580","region":"South East","area":"Solent and South Downs","totalSurveys":3,"speciesCount":6,"firstSurvey":"19/09/2002","lastSurvey":"07/09/2004"}},{"type":"Feature","geometry":{"type":"Point","coordinates":[-1.335972,50.956211]},"properties":{"siteId":"34280","name":"Lower Itchen Fishery - d/s viaduct","waterbody":"GB107042022580","region":"South East","area":"Solent and South Downs","totalSurveys":10,"speciesCount":10,"firstSurvey":"28/08/2009","lastSurvey":"01/09/2025"}},{"type":"Feature","geometry":{"type":"Point","coordinates":[-1.34446,50.946907]},"properties":{"siteId":"78663","name":"Lower Itchen Fishery - Hut Run","waterbody":null,"region":"South East","area":"Solent and South Downs","totalSurveys":3,"speciesCount":10,"firstSurvey":"07/09/2023","lastSurvey":"01/09/2025"}},{"type":"Feature","geometry":{"type":"Point","coordinates":[-1.3647,50.93764]},"properties":{"siteId":"71504","name":"Mansbridge","waterbody":null,"region":"South East","area":"Solent and South Downs","totalSurveys":8,"speciesCount":9,"firstSurvey":"10/09/2018","lastSurvey":"01/09/2025"}},{"type":"Feature","geometry":{"type":"Point","coordinates":[-1.384595,50.98412]},"properties":{"siteId":"43023","name":"Chandler's Ford","waterbody":"GB107042016310","region":"South East","area":"Solent and South Downs","totalSurveys":2,"speciesCount":5,"firstSurvey":"20/06/2012","lastSurvey":"16/08/2021"}},{"type":"Feature","geometry":{"type":"Point","coordinates":[-1.37113,50.964229]},"properties":{"siteId":"43022","name":"Fleming Park","waterbody":"GB107042016310","region":"South East","area":"Solent and South Downs","totalSurveys":3,"speciesCount":7,"firstSurvey":"20/06/2012","lastSurvey":"16/08/2021"}},{"type":"Feature","geometry":{"type":"Point","coordinates":[-1.398096,50.99437]},"properties":{"siteId":"6269","name":"Flexford Nature Reserve","waterbody":"GB107042016310","region":"South East","area":"Solent and South Downs","totalSurveys":2,"speciesCount":5,"firstSurvey":"03/09/2002","lastSurvey":"21/06/2018"}},{"type":"Feature","geometry":{"type":"Point","coordinates":[-1.382706,50.983624]},"properties":{"siteId":"28325","name":"Mead Court","waterbody":"GB107042016310","region":"South East","area":"Solent and South Downs","totalSurveys":1,"speciesCount":6,"firstSurvey":"18/09/2007","lastSurvey":"18/09/2007"}},{"type":"Feature","geometry":{"type":"Point","coordinates":[-1.370885,50.954947]},"properties":{"siteId":"54823","name":"Stoneham","waterbody":"GB107042016310","region":"South East","area":"Solent and South Downs","totalSurveys":1,"speciesCount":10,"firstSurvey":"07/08/2014","lastSurvey":"07/08/2014"}},{"type":"Feature","geometry":{"type":"Point","coordinates":[-1.335842,50.956309]},"properties":{"siteId":"7022","name":"Railway","waterbody":"GB107042022580","region":"South East","area":"Solent and South Downs","totalSurveys":4,"speciesCount":11,"firstSurvey":"25/09/2002","lastSurvey":"31/08/2005"}},{"type":"Feature","geometry":{"type":"Point","coordinates":[-1.337957,50.965772]},"properties":{"siteId":"6251","name":"Rickety","waterbody":"GB107042022580","region":"South East","area":"Solent and South Downs","totalSurveys":2,"speciesCount":6,"firstSurvey":"19/09/2001","lastSurvey":"14/08/2002"}},{"type":"Feature","geometry":{"type":"Point","coordinates":[-1.337858,50.969791]},"properties":{"siteId":"6252","name":"River Inn","waterbody":"GB107042022580","region":"South East","area":"Solent and South Downs","totalSurveys":1,"speciesCount":3,"firstSurvey":"05/09/2002","lastSurvey":"05/09/2002"}},{"type":"Feature","geometry":{"type":"Point","coordinates":[-1.335779,50.968736]},"properties":{"siteId":"71523","name":"Toby Carvery Bishopstoke","waterbody":null,"region":"South East","area":"Solent and South Downs","totalSurveys":8,"speciesCount":9,"firstSurvey":"10/09/2018","lastSurvey":"02/09/2025"}},{"type":"Feature","geometry":{"type":"Point","coordinates":[-1.372023,50.936025]},"properties":{"siteId":"73323","name":"Woodmill","waterbody":null,"region":"South East","area":"Solent and South Downs","totalSurveys":1,"speciesCount":6,"firstSurvey":"16/09/2019","lastSurvey":"16/09/2019"}},{"type":"Feature","geometry":{"type":"Point","coordinates":[-1.635415,50.793983]},"properties":{"siteId":"71623","name":"d/s Sheepwash Lawn","waterbody":null,"region":"South East","area":"Solent and South Downs","totalSurveys":1,"speciesCount":6,"firstSurvey":"14/06/2018","lastSurvey":"14/06/2018"}},{"type":"Feature","geometry":{"type":"Point","coordinates":[-1.644565,50.795963]},"properties":{"siteId":"71563","name":"d/s Wootton Bridge","waterbody":null,"region":"South East","area":"Solent and South Downs","totalSurveys":1,"speciesCount":8,"firstSurvey":"10/05/2018","lastSurvey":"10/05/2018"}},{"type":"Feature","geometry":{"type":"Point","coordinates":[-1.56397,50.741383]},"properties":{"siteId":"4263","name":"Efford","waterbody":"GB107042011300","region":"South East","area":"Solent and South Downs","totalSurveys":1,"speciesCount":3,"firstSurvey":"05/09/2001","lastSurvey":"05/09/2001"}},{"type":"Feature","geometry":{"type":"Point","coordinates":[-1.637693,50.794727]},"properties":{"siteId":"71564","name":"Sheepwash Lawn","waterbody":null,"region":"South East","area":"Solent and South Downs","totalSurveys":1,"speciesCount":7,"firstSurvey":"20/06/2018","lastSurvey":"20/06/2018"}},{"type":"Feature","geometry":{"type":"Point","coordinates":[-1.641532,50.795558]},"properties":{"siteId":"70283","name":"u/s Sheepwash Lawn","waterbody":null,"region":"South East","area":"Solent and South Downs","totalSurveys":2,"speciesCount":6,"firstSurvey":"11/07/2017","lastSurvey":"09/05/2018"}},{"type":"Feature","geometry":{"type":"Point","coordinates":[-1.654098,50.798203]},"properties":{"siteId":"68483","name":"u/s Wootton Bridge","waterbody":null,"region":"South East","area":"Solent and South Downs","totalSurveys":2,"speciesCount":7,"firstSurvey":"01/09/2016","lastSurvey":"08/09/2016"}},{"type":"Feature","geometry":{"type":"Point","coordinates":[-1.57793,50.753907]},"properties":{"siteId":"4264","name":"Wainsford","waterbody":"GB107042011300","region":"South East","area":"Solent and South Downs","totalSurveys":1,"speciesCount":2,"firstSurvey":"05/09/2001","lastSurvey":"05/09/2001"}},{"type":"Feature","geometry":{"type":"Point","coordinates":[-1.555026,50.89246]},"properties":{"siteId":"79843","name":"100m D/S Lyndhurst STW","waterbody":null,"region":"South East","area":"Solent and South Downs","totalSurveys":1,"speciesCount":7,"firstSurvey":"04/07/2024","lastSurvey":"04/07/2024"}},{"type":"Feature","geometry":{"type":"Point","coordinates":[-1.512275,50.909888]},"properties":{"siteId":"4279","name":"Ashurst Bridge","waterbody":"GB107042016960","region":"South East","area":"Solent and South Downs","totalSurveys":1,"speciesCount":4,"firstSurvey":"07/09/2001","lastSurvey":"07/09/2001"}},{"type":"Feature","geometry":{"type":"Point","coordinates":[-1.556123,50.892231]},"properties":{"siteId":"4281","name":"Costicles DS site","waterbody":"GB107042016730","region":"South East","area":"Solent and South Downs","totalSurveys":1,"speciesCount":2,"firstSurvey":"07/09/2001","lastSurvey":"07/09/2001"}},{"type":"Feature","geometry":{"type":"Point","coordinates":[-1.556762,50.892323]},"properties":{"siteId":"4280","name":"Costicles US site","waterbody":"GB107042016730","region":"South East","area":"Solent and South Downs","totalSurveys":2,"speciesCount":6,"firstSurvey":"07/09/2001","lastSurvey":"04/07/2024"}},{"type":"Feature","geometry":{"type":"Point","coordinates":[-1.5117,50.909175]},"properties":{"siteId":"79923","name":"U/S Ashurst Bridge","waterbody":null,"region":"South East","area":"Solent and South Downs","totalSurveys":1,"speciesCount":5,"firstSurvey":"12/07/2024","lastSurvey":"12/07/2024"}},{"type":"Feature","geometry":{"type":"Point","coordinates":[-1.460102,50.852259]},"properties":{"siteId":"34046","name":"Buck Hill","waterbody":"GB107042016340","region":"South East","area":"Solent and South Downs","totalSurveys":1,"speciesCount":7,"firstSurvey":"25/09/2009","lastSurvey":"25/09/2009"}},{"type":"Feature","geometry":{"type":"Point","coordinates":[-1.540949,50.860761]},"properties":{"siteId":"70244","name":"d/s Holmhill Passage","waterbody":null,"region":"South East","area":"Solent and South Downs","totalSurveys":1,"speciesCount":8,"firstSurvey":"15/08/2017","lastSurvey":"15/08/2017"}},{"type":"Feature","geometry":{"type":"Point","coordinates":[-1.505521,50.880139]},"properties":{"siteId":"28368","name":"Deerleap Inclosure","waterbody":"GB107042016340","region":"South East","area":"Solent and South Downs","totalSurveys":4,"speciesCount":2,"firstSurvey":"06/09/2007","lastSurvey":"08/08/2025"}},{"type":"Feature","geometry":{"type":"Point","coordinates":[-1.562045,50.880823]},"properties":{"siteId":"28378","name":"Dunce's Arch","waterbody":"GB107042016340","region":"South East","area":"Solent and South Downs","totalSurveys":4,"speciesCount":6,"firstSurvey":"07/09/2007","lastSurvey":"22/07/2025"}},{"type":"Feature","geometry":{"type":"Point","coordinates":[-1.513975,50.872306]},"properties":{"siteId":"28374","name":"Fulliford Bog","waterbody":"GB107042016340","region":"South East","area":"Solent and South Downs","totalSurveys":1,"speciesCount":6,"firstSurvey":"06/09/2007","lastSurvey":"06/09/2007"}},{"type":"Feature","geometry":{"type":"Point","coordinates":[-1.508899,50.868436]},"properties":{"siteId":"71886","name":"Fulliford Passage","waterbody":null,"region":"South East","area":"Solent and South Downs","totalSurveys":1,"speciesCount":1,"firstSurvey":"09/07/2018","lastSurvey":"09/07/2018"}},{"type":"Feature","geometry":{"type":"Point","coordinates":[-1.447933,50.822859]},"properties":{"siteId":"69623","name":"Hartford Stream - d/s Boarman Pond","waterbody":null,"region":"South East","area":"Solent and South Downs","totalSurveys":1,"speciesCount":3,"firstSurvey":"10/07/2017","lastSurvey":"10/07/2017"}},{"type":"Feature","geometry":{"type":"Point","coordinates":[-1.440194,50.834918]},"properties":{"siteId":"69624","name":"Hartford Stream - u/s Middle Pond","waterbody":null,"region":"South East","area":"Solent and South Downs","totalSurveys":1,"speciesCount":1,"firstSurvey":"10/07/2017","lastSurvey":"10/07/2017"}},{"type":"Feature","geometry":{"type":"Point","coordinates":[-1.449548,50.800197]},"properties":{"siteId":"69643","name":"Hatchet Stream","waterbody":null,"region":"South East","area":"Solent and South Downs","totalSurveys":1,"speciesCount":2,"firstSurvey":"10/07/2017","lastSurvey":"10/07/2017"}},{"type":"Feature","geometry":{"type":"Point","coordinates":[-1.546927,50.86109]},"properties":{"siteId":"28344","name":"Holmhill Passage","waterbody":"GB107042016340","region":"South East","area":"Solent and South Downs","totalSurveys":4,"speciesCount":10,"firstSurvey":"04/09/2007","lastSurvey":"23/07/2025"}},{"type":"Feature","geometry":{"type":"Point","coordinates":[-1.508449,50.869397]},"properties":{"siteId":"28362","name":"Longdown Inclosure Tributary","waterbody":"GB107042016340","region":"South East","area":"Solent and South Downs","totalSurveys":4,"speciesCount":7,"firstSurvey":"05/09/2007","lastSurvey":"23/07/2025"}},{"type":"Feature","geometry":{"type":"Point","coordinates":[-1.54174,50.877149]},"properties":{"siteId":"28375","name":"Longwater lawn","waterbody":"GB107042016340","region":"South East","area":"Solent and South Downs","totalSurveys":4,"speciesCount":9,"firstSurvey":"07/09/2007","lastSurvey":"22/07/2025"}},{"type":"Feature","geometry":{"type":"Point","coordinates":[-1.551116,50.880656]},"properties":{"siteId":"28379","name":"Mallard Wood","waterbody":"GB107042016340","region":"South East","area":"Solent and South Downs","totalSurveys":5,"speciesCount":9,"firstSurvey":"07/09/2007","lastSurvey":"22/07/2025"}},{"type":"Feature","geometry":{"type":"Point","coordinates":[-1.529636,50.862461]},"properties":{"siteId":"4283","name":"Matley Passage","waterbody":"GB107042016340","region":"South East","area":"Solent and South Downs","totalSurveys":14,"speciesCount":12,"firstSurvey":"06/09/2001","lastSurvey":"21/07/2025"}},{"type":"Feature","geometry":{"type":"Point","coordinates":[-1.459207,50.83382]},"properties":{"siteId":"31951","name":"North Lane","waterbody":"GB107042011200","region":"South East","area":"Solent and South Downs","totalSurveys":2,"speciesCount":9,"firstSurvey":"30/09/2008","lastSurvey":"25/07/2013"}},{"type":"Feature","geometry":{"type":"Point","coordinates":[-1.455892,50.840486]},"properties":{"siteId":"71885","name":"Northgate","waterbody":null,"region":"South East","area":"Solent and South Downs","totalSurveys":1,"speciesCount":1,"firstSurvey":"09/07/2018","lastSurvey":"09/07/2018"}},{"type":"Feature","geometry":{"type":"Point","coordinates":[-1.471608,50.833454]},"properties":{"siteId":"28380","name":"Penerley Bridge","waterbody":"GB107042011230","region":"South East","area":"Solent and South Downs","totalSurveys":12,"speciesCount":8,"firstSurvey":"29/08/2007","lastSurvey":"21/07/2025"}},{"type":"Feature","geometry":{"type":"Point","coordinates":[-1.468675,50.839079]},"properties":{"siteId":"28382","name":"Penerley Water - u/s Shepton confluence","waterbody":"GB107042011230","region":"South East","area":"Solent and South Downs","totalSurveys":5,"speciesCount":9,"firstSurvey":"31/08/2007","lastSurvey":"29/07/2025"}},{"type":"Feature","geometry":{"type":"Point","coordinates":[-1.477337,50.837958]},"properties":{"siteId":"4284","name":"Shepton Bridge","waterbody":"GB107042011230","region":"South East","area":"Solent and South Downs","totalSurveys":1,"speciesCount":1,"firstSurvey":"06/09/2001","lastSurvey":"06/09/2001"}},{"type":"Feature","geometry":{"type":"Point","coordinates":[-1.475669,50.838544]},"properties":{"siteId":"28361","name":"Shepton Water","waterbody":"GB107042011230","region":"South East","area":"Solent and South Downs","totalSurveys":5,"speciesCount":7,"firstSurvey":"30/08/2007","lastSurvey":"29/07/2025"}},{"type":"Feature","geometry":{"type":"Point","coordinates":[-1.532753,50.87616]},"properties":{"siteId":"28371","name":"u/s Ashurst Lodge","waterbody":"GB107042016340","region":"South East","area":"Solent and South Downs","totalSurveys":5,"speciesCount":8,"firstSurvey":"06/09/2007","lastSurvey":"08/08/2025"}},{"type":"Feature","geometry":{"type":"Point","coordinates":[-1.507204,50.83513]},"properties":{"siteId":"28381","name":"Upper Shepton Water","waterbody":"GB107042011230","region":"South East","area":"Solent and South Downs","totalSurveys":4,"speciesCount":5,"firstSurvey":"31/08/2007","lastSurvey":"23/07/2025"}},{"type":"Feature","geometry":{"type":"Point","coordinates":[-1.501898,50.865367]},"properties":{"siteId":"28366","name":"Withycombe Shade","waterbody":"GB107042016340","region":"South East","area":"Solent and South Downs","totalSurveys":5,"speciesCount":8,"firstSurvey":"05/09/2007","lastSurvey":"23/07/2025"}},{"type":"Feature","geometry":{"type":"Point","coordinates":[-1.481416,50.823589]},"properties":{"siteId":"28661","name":"Wort's Gutter","waterbody":"GB107042011230","region":"South East","area":"Solent and South Downs","totalSurveys":4,"speciesCount":7,"firstSurvey":"29/08/2007","lastSurvey":"21/07/2025"}},{"type":"Feature","geometry":{"type":"Point","coordinates":[-1.484605,50.822703]},"properties":{"siteId":"4285","name":"Worts Gutter (historic)","waterbody":"GB107042011230","region":"South East","area":"Solent and South Downs","totalSurveys":1,"speciesCount":1,"firstSurvey":"06/09/2001","lastSurvey":"06/09/2001"}},{"type":"Feature","geometry":{"type":"Point","coordinates":[-1.48432,50.773854]},"properties":{"siteId":"30247","name":"Crockford Stream","waterbody":"GB107042011190","region":"South East","area":"Solent and South Downs","totalSurveys":3,"speciesCount":7,"firstSurvey":"18/09/2008","lastSurvey":"13/07/2018"}},{"type":"Feature","geometry":{"type":"Point","coordinates":[-1.627076,50.739938]},"properties":{"siteId":"80425","name":"Honeylake Wood","waterbody":null,"region":"South East","area":"Solent and South Downs","totalSurveys":2,"speciesCount":3,"firstSurvey":"02/10/2024","lastSurvey":"23/09/2025"}},{"type":"Feature","geometry":{"type":"Point","coordinates":[-1.592469,50.725182]},"properties":{"siteId":"66285","name":"Milford Bridge","waterbody":null,"region":"South East","area":"Solent and South Downs","totalSurveys":1,"speciesCount":4,"firstSurvey":"01/03/2016","lastSurvey":"01/03/2016"}},{"type":"Feature","geometry":{"type":"Point","coordinates":[-1.599771,50.72777]},"properties":{"siteId":"80426","name":"U/S New Valley Road","waterbody":null,"region":"South East","area":"Solent and South Downs","totalSurveys":2,"speciesCount":6,"firstSurvey":"02/10/2024","lastSurvey":"23/09/2025"}},{"type":"Feature","geometry":{"type":"Point","coordinates":[-1.625032,50.750992]},"properties":{"siteId":"80424","name":"White Croft","waterbody":null,"region":"South East","area":"Solent and South Downs","totalSurveys":2,"speciesCount":3,"firstSurvey":"02/10/2024","lastSurvey":"23/09/2025"}},{"type":"Feature","geometry":{"type":"Point","coordinates":[-1.379794,50.804208]},"properties":{"siteId":"4293","name":"Exbury Gas Pipleline","waterbody":"GB107042011330","region":"South East","area":"Solent and South Downs","totalSurveys":1,"speciesCount":2,"firstSurvey":"04/09/2001","lastSurvey":"04/09/2001"}},{"type":"Feature","geometry":{"type":"Point","coordinates":[-1.386806,50.81054]},"properties":{"siteId":"4294","name":"Gatewood Bridge","waterbody":"GB107042011330","region":"South East","area":"Solent and South Downs","totalSurveys":1,"speciesCount":1,"firstSurvey":"04/09/2001","lastSurvey":"04/09/2001"}},{"type":"Feature","geometry":{"type":"Point","coordinates":[-1.676705,50.861432]},"properties":{"siteId":"50683","name":"Blackensford Bottom tributary","waterbody":"GB107042016710","region":"South East","area":"Solent and South Downs","totalSurveys":1,"speciesCount":5,"firstSurvey":"02/09/2013","lastSurvey":"02/09/2013"}},{"type":"Feature","geometry":{"type":"Point","coordinates":[-1.673364,50.861674]},"properties":{"siteId":"10394","name":"Blackensford Lawn","waterbody":"GB107042016710","region":"South East","area":"Solent and South Downs","totalSurveys":6,"speciesCount":6,"firstSurvey":"20/06/2003","lastSurvey":"17/07/2025"}},{"type":"Feature","geometry":{"type":"Point","coordinates":[-1.588128,50.835704]},"properties":{"siteId":"4289","name":"Bolderford Bridge","waterbody":"GB107042011220","region":"South East","area":"Solent and South Downs","totalSurveys":6,"speciesCount":10,"firstSurvey":"11/09/2001","lastSurvey":"18/07/2025"}},{"type":"Feature","geometry":{"type":"Point","coordinates":[-1.672716,50.883317]},"properties":{"siteId":"28621","name":"Bratley Arch","waterbody":"GB107042016720","region":"South East","area":"Solent and South Downs","totalSurveys":4,"speciesCount":6,"firstSurvey":"10/09/2007","lastSurvey":"16/07/2025"}},{"type":"Feature","geometry":{"type":"Point","coordinates":[-1.670034,50.874524]},"properties":{"siteId":"28822","name":"Bratley Wood","waterbody":"GB107042016720","region":"South East","area":"Solent and South Downs","totalSurveys":4,"speciesCount":8,"firstSurvey":"31/10/2007","lastSurvey":"28/07/2025"}},{"type":"Feature","geometry":{"type":"Point","coordinates":[-1.659226,50.844206]},"properties":{"siteId":"10448","name":"Burley Lodge","waterbody":"GB107042016710","region":"South East","area":"Solent and South Downs","totalSurveys":2,"speciesCount":6,"firstSurvey":"01/07/2003","lastSurvey":"31/05/2006"}},{"type":"Feature","geometry":{"type":"Point","coordinates":[-1.663702,50.857717]},"properties":{"siteId":"34290","name":"d/s Blackensford / Bratley confluence","waterbody":"GB107042016710","region":"South East","area":"Solent and South Downs","totalSurveys":1,"speciesCount":6,"firstSurvey":"26/08/2009","lastSurvey":"26/08/2009"}},{"type":"Feature","geometry":{"type":"Point","coordinates":[-1.646443,50.844168]},"properties":{"siteId":"10393","name":"Dames Slough Enclosure","waterbody":"GB107042016710","region":"South East","area":"Solent and South Downs","totalSurveys":2,"speciesCount":8,"firstSurvey":"24/06/2003","lastSurvey":"16/05/2006"}},{"type":"Feature","geometry":{"type":"Point","coordinates":[-1.659195,50.844575]},"properties":{"siteId":"10523","name":"Dog Kennel Bridge","waterbody":"GB107042016710","region":"South East","area":"Solent and South Downs","totalSurveys":2,"speciesCount":7,"firstSurvey":"02/07/2003","lastSurvey":"18/05/2006"}},{"type":"Feature","geometry":{"type":"Point","coordinates":[-1.637374,50.841524]},"properties":{"siteId":"10397","name":"DS Blackwater Bridge","waterbody":"GB107042016710","region":"South East","area":"Solent and South Downs","totalSurveys":2,"speciesCount":8,"firstSurvey":"25/06/2003","lastSurvey":"16/05/2006"}},{"type":"Feature","geometry":{"type":"Point","coordinates":[-1.649297,50.887916]},"properties":{"siteId":"10396","name":"DS Confluence of Withybed Bottom + Highland Water","waterbody":"GB107042016720","region":"South East","area":"Solent and South Downs","totalSurveys":2,"speciesCount":6,"firstSurvey":"18/06/2003","lastSurvey":"04/05/2006"}},{"type":"Feature","geometry":{"type":"Point","coordinates":[-1.617722,50.854878]},"properties":{"siteId":"10395","name":"DS Warwickslade Bridge","waterbody":"GB107042016720","region":"South East","area":"Solent and South Downs","totalSurveys":2,"speciesCount":4,"firstSurvey":"24/06/2003","lastSurvey":"17/05/2006"}},{"type":"Feature","geometry":{"type":"Point","coordinates":[-1.609384,50.837755]},"properties":{"siteId":"10526","name":"Fletchers Water","waterbody":"GB107042016710","region":"South East","area":"Solent and South Downs","totalSurveys":6,"speciesCount":12,"firstSurvey":"26/06/2003","lastSurvey":"28/07/2025"}},{"type":"Feature","geometry":{"type":"Point","coordinates":[-1.608261,50.854784]},"properties":{"siteId":"28641","name":"Forest Gate","waterbody":"GB107042016720","region":"South East","area":"Solent and South Downs","totalSurveys":4,"speciesCount":5,"firstSurvey":"22/08/2007","lastSurvey":"24/07/2025"}},{"type":"Feature","geometry":{"type":"Point","coordinates":[-1.661445,50.855561]},"properties":{"siteId":"10435","name":"Hart Hill","waterbody":"GB107042016710","region":"South East","area":"Solent and South Downs","totalSurveys":2,"speciesCount":8,"firstSurvey":"27/06/2003","lastSurvey":"17/05/2006"}},{"type":"Feature","geometry":{"type":"Point","coordinates":[-1.548401,50.792321]},"properties":{"siteId":"4291","name":"Haywoods Bridge","waterbody":null,"region":"South East","area":"Solent and South Downs","totalSurveys":1,"speciesCount":5,"firstSurvey":"04/09/2001","lastSurvey":"04/09/2001"}},{"type":"Feature","geometry":{"type":"Point","coordinates":[-1.612591,50.860337]},"properties":{"siteId":"10450","name":"Highland water reptillary","waterbody":"GB107042016720","region":"South East","area":"Solent and South Downs","totalSurveys":2,"speciesCount":8,"firstSurvey":"18/06/2003","lastSurvey":"05/05/2006"}},{"type":"Feature","geometry":{"type":"Point","coordinates":[-1.554864,50.821374]},"properties":{"siteId":"4290","name":"Ivywood","waterbody":"GB107042011220","region":"South East","area":"Solent and South Downs","totalSurveys":6,"speciesCount":14,"firstSurvey":"23/08/2002","lastSurvey":"06/08/2013"}},{"type":"Feature","geometry":{"type":"Point","coordinates":[-1.648735,50.88894]},"properties":{"siteId":"28643","name":"Long Brook","waterbody":"GB107042016720","region":"South East","area":"Solent and South Downs","totalSurveys":4,"speciesCount":5,"firstSurvey":"20/08/2007","lastSurvey":"17/07/2025"}},{"type":"Feature","geometry":{"type":"Point","coordinates":[-1.651065,50.891051]},"properties":{"siteId":"10451","name":"Lucas Castle","waterbody":"GB107042016720","region":"South East","area":"Solent and South Downs","totalSurveys":6,"speciesCount":9,"firstSurvey":"16/06/2003","lastSurvey":"17/07/2025"}},{"type":"Feature","geometry":{"type":"Point","coordinates":[-1.621979,50.871276]},"properties":{"siteId":"71884","name":"Millyford Bridge","waterbody":null,"region":"South East","area":"Solent and South Downs","totalSurveys":1,"speciesCount":1,"firstSurvey":"20/06/2018","lastSurvey":"20/06/2018"}},{"type":"Feature","geometry":{"type":"Point","coordinates":[-1.67204,50.886463]},"properties":{"siteId":"81283","name":"Mogshade Bottom","waterbody":null,"region":"South East","area":"Solent and South Downs","totalSurveys":1,"speciesCount":5,"firstSurvey":"07/07/2025","lastSurvey":"07/07/2025"}},{"type":"Feature","geometry":{"type":"Point","coordinates":[-1.66042,50.90668]},"properties":{"siteId":"28662","name":"Ocknell Inclosure","waterbody":"GB107042016720","region":"South East","area":"Solent and South Downs","totalSurveys":4,"speciesCount":6,"firstSurvey":"24/08/2007","lastSurvey":"07/07/2025"}},{"type":"Feature","geometry":{"type":"Point","coordinates":[-1.597204,50.842066]},"properties":{"siteId":"10449","name":"Poundhill Heath","waterbody":"GB107042016720","region":"South East","area":"Solent and South Downs","totalSurveys":2,"speciesCount":9,"firstSurvey":"27/06/2003","lastSurvey":"05/05/2006"}},{"type":"Feature","geometry":{"type":"Point","coordinates":[-1.618044,50.824115]},"properties":{"siteId":"4295","name":"Puttle's Bridge","waterbody":"GB107042011360","region":"South East","area":"Solent and South Downs","totalSurveys":4,"speciesCount":11,"firstSurvey":"11/09/2001","lastSurvey":"20/06/2018"}},{"type":"Feature","geometry":{"type":"Point","coordinates":[-1.655771,50.833144]},"properties":{"siteId":"28640","name":"Red Rise","waterbody":"GB107042011360","region":"South East","area":"Solent and South Downs","totalSurveys":2,"speciesCount":9,"firstSurvey":"23/08/2007","lastSurvey":"12/05/2011"}},{"type":"Feature","geometry":{"type":"Point","coordinates":[-1.630282,50.840278]},"properties":{"siteId":"28823","name":"Rhinefield LIFE site","waterbody":"GB107042016710","region":"South East","area":"Solent and South Downs","totalSurveys":1,"speciesCount":2,"firstSurvey":"13/08/2007","lastSurvey":"13/08/2007"}},{"type":"Feature","geometry":{"type":"Point","coordinates":[-1.630701,50.839443]},"properties":{"siteId":"10527","name":"Rhinefield","waterbody":"GB107042016710","region":"South East","area":"Solent and South Downs","totalSurveys":3,"speciesCount":6,"firstSurvey":"11/09/2001","lastSurvey":"09/05/2006"}},{"type":"Feature","geometry":{"type":"Point","coordinates":[-1.672346,50.89149]},"properties":{"siteId":"28642","name":"Slufter's Inclosure","waterbody":"GB107042016720","region":"South East","area":"Solent and South Downs","totalSurveys":4,"speciesCount":5,"firstSurvey":"22/08/2007","lastSurvey":"07/07/2025"}},{"type":"Feature","geometry":{"type":"Point","coordinates":[-1.675532,50.866734]},"properties":{"siteId":"50684","name":"Stinking Edge Wood tributary","waterbody":null,"region":"South East","area":"Solent and South Downs","totalSurveys":1,"speciesCount":4,"firstSurvey":"02/09/2013","lastSurvey":"02/09/2013"}},{"type":"Feature","geometry":{"type":"Point","coordinates":[-1.708663,50.844979]},"properties":{"siteId":"28680","name":"Turfcroft Farm","waterbody":"GB107042011360","region":"South East","area":"Solent and South Downs","totalSurveys":4,"speciesCount":7,"firstSurvey":"24/08/2007","lastSurvey":"08/08/2025"}},{"type":"Feature","geometry":{"type":"Point","coordinates":[-1.664446,50.859095]},"properties":{"siteId":"28700","name":"u/s Blackensford / Bratley confluence","waterbody":"GB107042016710","region":"South East","area":"Solent and South Downs","totalSurveys":15,"speciesCount":14,"firstSurvey":"19/06/2003","lastSurvey":"17/09/2025"}},{"type":"Feature","geometry":{"type":"Point","coordinates":[-1.618798,50.823956]},"properties":{"siteId":"49743","name":"Upstream of Puttle's Bridge","waterbody":"GB107042011360","region":"South East","area":"Solent and South Downs","totalSurveys":3,"speciesCount":10,"firstSurvey":"06/08/2013","lastSurvey":"18/07/2025"}},{"type":"Feature","geometry":{"type":"Point","coordinates":[-1.70847,50.846372]},"properties":{"siteId":"73103","name":"Upstream of Turfcroft Farm","waterbody":null,"region":"South East","area":"Solent and South Downs","totalSurveys":1,"speciesCount":4,"firstSurvey":"09/07/2019","lastSurvey":"09/07/2019"}},{"type":"Feature","geometry":{"type":"Point","coordinates":[-1.644517,50.88087]},"properties":{"siteId":"28702","name":"Withybed Bottom","waterbody":"GB107042016720","region":"South East","area":"Solent and South Downs","totalSurveys":13,"speciesCount":8,"firstSurvey":"05/12/2002","lastSurvey":"17/07/2025"}},{"type":"Feature","geometry":{"type":"Point","coordinates":[-1.663955,50.858167]},"properties":{"siteId":"10398","name":"Woolsfield Hill","waterbody":"GB107042016710","region":"South East","area":"Solent and South Downs","totalSurveys":2,"speciesCount":6,"firstSurvey":"30/06/2003","lastSurvey":"17/05/2006"}},{"type":"Feature","geometry":{"type":"Point","coordinates":[-1.643433,50.879545]},"properties":{"siteId":"8937","name":"Woolsmoor Meads 1","waterbody":"GB107042016720","region":"South East","area":"Solent and South Downs","totalSurveys":1,"speciesCount":2,"firstSurvey":"06/12/2002","lastSurvey":"06/12/2002"}},{"type":"Feature","geometry":{"type":"Point","coordinates":[-1.643446,50.879608]},"properties":{"siteId":"8906","name":"Woolsmoor meads 2","waterbody":"GB107042016720","region":"South East","area":"Solent and South Downs","totalSurveys":1,"speciesCount":2,"firstSurvey":"06/12/2002","lastSurvey":"06/12/2002"}},{"type":"Feature","geometry":{"type":"Point","coordinates":[-1.508285,50.945787]},"properties":{"siteId":"39426","name":"Broadlands Fishery","waterbody":"GB107042016790","region":"South East","area":"Solent and South Downs","totalSurveys":9,"speciesCount":19,"firstSurvey":"20/09/2011","lastSurvey":"16/09/2025"}},{"type":"Feature","geometry":{"type":"Point","coordinates":[-1.577416,50.991846]},"properties":{"siteId":"74124","name":"Dandy's Lake: Section 1","waterbody":null,"region":"South East","area":"Solent and South Downs","totalSurveys":1,"speciesCount":1,"firstSurvey":"31/01/2020","lastSurvey":"31/01/2020"}},{"type":"Feature","geometry":{"type":"Point","coordinates":[-1.57787,50.992028]},"properties":{"siteId":"74125","name":"Dandy's Lake: Section 2","waterbody":null,"region":"South East","area":"Solent and South Downs","totalSurveys":1,"speciesCount":2,"firstSurvey":"31/01/2020","lastSurvey":"31/01/2020"}},{"type":"Feature","geometry":{"type":"Point","coordinates":[-1.578606,50.992552]},"properties":{"siteId":"74126","name":"Dandy's Lake: Section 3","waterbody":null,"region":"South East","area":"Solent and South Downs","totalSurveys":1,"speciesCount":4,"firstSurvey":"31/01/2020","lastSurvey":"31/01/2020"}},{"type":"Feature","geometry":{"type":"Point","coordinates":[-1.57821,50.9922]},"properties":{"siteId":"74127","name":"Dandy's Lake: Section 4","waterbody":null,"region":"South East","area":"Solent and South Downs","totalSurveys":1,"speciesCount":4,"firstSurvey":"31/01/2020","lastSurvey":"31/01/2020"}},{"type":"Feature","geometry":{"type":"Point","coordinates":[-1.578126,50.992127]},"properties":{"siteId":"74623","name":"Dandy's Lake: Whole Lake","waterbody":null,"region":"South East","area":"Solent and South Downs","totalSurveys":2,"speciesCount":3,"firstSurvey":"11/02/2020","lastSurvey":"12/02/2020"}},{"type":"Feature","geometry":{"type":"Point","coordinates":[-1.542235,50.967344]},"properties":{"siteId":"13478","name":"Hammonds Farm","waterbody":"GB107042016790","region":"South East","area":"Solent and South Downs","totalSurveys":1,"speciesCount":6,"firstSurvey":"06/09/2004","lastSurvey":"06/09/2004"}},{"type":"Feature","geometry":{"type":"Point","coordinates":[-1.633324,50.97762]},"properties":{"siteId":"6294","name":"Landford","waterbody":"GB107042016820","region":"South East","area":"Solent and South Downs","totalSurveys":15,"speciesCount":12,"firstSurvey":"20/09/2001","lastSurvey":"18/09/2025"}},{"type":"Feature","geometry":{"type":"Point","coordinates":[-1.591031,50.979548]},"properties":{"siteId":"43602","name":"Lower Bridge Farm","waterbody":"GB107042016820","region":"South East","area":"Solent and South Downs","totalSurveys":1,"speciesCount":7,"firstSurvey":"31/07/2012","lastSurvey":"31/07/2012"}},{"type":"Feature","geometry":{"type":"Point","coordinates":[-1.559721,50.975091]},"properties":{"siteId":"38446","name":"Lower Whinwhistle","waterbody":"GB107042016790","region":"South East","area":"Solent and South Downs","totalSurveys":1,"speciesCount":9,"firstSurvey":"28/07/2011","lastSurvey":"28/07/2011"}},{"type":"Feature","geometry":{"type":"Point","coordinates":[-1.567888,50.975976]},"properties":{"siteId":"39411","name":"Upper Whinwhistle","waterbody":"GB107042016790","region":"South East","area":"Solent and South Downs","totalSurveys":1,"speciesCount":11,"firstSurvey":"20/09/2011","lastSurvey":"20/09/2011"}},{"type":"Feature","geometry":{"type":"Point","coordinates":[-1.512885,50.950941]},"properties":{"siteId":"6314","name":"Wade Bridge","waterbody":"GB107042016790","region":"South East","area":"Solent and South Downs","totalSurveys":6,"speciesCount":11,"firstSurvey":"16/09/2002","lastSurvey":"23/07/2018"}},{"type":"Feature","geometry":{"type":"Point","coordinates":[-1.509241,50.992857]},"properties":{"siteId":"30268","name":"Burnt Mill","waterbody":"GB107042016460","region":"South East","area":"Solent and South Downs","totalSurveys":11,"speciesCount":7,"firstSurvey":"07/09/2010","lastSurvey":"16/09/2025"}},{"type":"Feature","geometry":{"type":"Point","coordinates":[-1.575822,50.939973]},"properties":{"siteId":"4286","name":"Newbridge","waterbody":"GB107042016380","region":"South East","area":"Solent and South Downs","totalSurveys":11,"speciesCount":13,"firstSurvey":"07/09/2001","lastSurvey":"17/09/2025"}},{"type":"Feature","geometry":{"type":"Point","coordinates":[-1.598106,50.922309]},"properties":{"siteId":"43366","name":"Wittensford Bridge","waterbody":"GB107042016380","region":"South East","area":"Solent and South Downs","totalSurveys":9,"speciesCount":8,"firstSurvey":"25/07/2012","lastSurvey":"17/09/2025"}},{"type":"Feature","geometry":{"type":"Point","coordinates":[-1.505199,50.987085]},"properties":{"siteId":"12880","name":"Dead End","waterbody":"GB107042016460","region":"South East","area":"Solent and South Downs","totalSurveys":1,"speciesCount":6,"firstSurvey":"30/07/2004","lastSurvey":"30/07/2004"}},{"type":"Feature","geometry":{"type":"Point","coordinates":[-1.496665,50.997596]},"properties":{"siteId":"7025","name":"Fish Lake","waterbody":"GB107042016460","region":"South East","area":"Solent and South Downs","totalSurveys":7,"speciesCount":10,"firstSurvey":"23/09/2002","lastSurvey":"15/07/2014"}},{"type":"Feature","geometry":{"type":"Point","coordinates":[-1.498927,50.984684]},"properties":{"siteId":"13447","name":"House Beat","waterbody":"GB107042016430","region":"South East","area":"Solent and South Downs","totalSurveys":1,"speciesCount":9,"firstSurvey":"02/09/2004","lastSurvey":"02/09/2004"}},{"type":"Feature","geometry":{"type":"Point","coordinates":[-1.496071,50.959025]},