{"type":"FeatureCollection","features":[{"type":"Feature","geometry":{"type":"Point","coordinates":[1.052281,51.854252]},"properties":{"siteId":"540","name":"Hill House Farm","waterbody":"GB105037034220","region":"Anglian","area":"Eastern","totalSurveys":3,"speciesCount":2,"firstSurvey":"31/01/1997","lastSurvey":"22/02/2011"}},{"type":"Feature","geometry":{"type":"Point","coordinates":[1.059456,51.83158]},"properties":{"siteId":"539","name":"Saltwater Bridge","waterbody":"GB105037034220","region":"Anglian","area":"Eastern","totalSurveys":3,"speciesCount":4,"firstSurvey":"31/01/1997","lastSurvey":"22/02/2011"}},{"type":"Feature","geometry":{"type":"Point","coordinates":[1.025815,51.89271]},"properties":{"siteId":"543","name":"Great Bromley","waterbody":"GB105037077810","region":"Anglian","area":"Eastern","totalSurveys":2,"speciesCount":4,"firstSurvey":"31/01/1997","lastSurvey":"02/02/2007"}},{"type":"Feature","geometry":{"type":"Point","coordinates":[1.012644,51.869664]},"properties":{"siteId":"542","name":"Hill Farm","waterbody":"GB105037034200","region":"Anglian","area":"Eastern","totalSurveys":4,"speciesCount":4,"firstSurvey":"30/01/1997","lastSurvey":"14/03/2017"}},{"type":"Feature","geometry":{"type":"Point","coordinates":[1.016883,51.846172]},"properties":{"siteId":"541","name":"Thorrington STW","waterbody":"GB105037041310","region":"Anglian","area":"Eastern","totalSurveys":3,"speciesCount":9,"firstSurvey":"30/01/1997","lastSurvey":"24/02/2014"}},{"type":"Feature","geometry":{"type":"Point","coordinates":[1.077339,51.902166]},"properties":{"siteId":"502","name":"A120 Road Bridge","waterbody":"GB105037077810","region":"Anglian","area":"Eastern","totalSurveys":2,"speciesCount":1,"firstSurvey":"03/04/1997","lastSurvey":"07/02/2007"}},{"type":"Feature","geometry":{"type":"Point","coordinates":[1.096175,51.880086]},"properties":{"siteId":"501","name":"Little Bentley Hall","waterbody":"GB105037077810","region":"Anglian","area":"Eastern","totalSurveys":3,"speciesCount":6,"firstSurvey":"03/04/1997","lastSurvey":"19/02/2014"}},{"type":"Feature","geometry":{"type":"Point","coordinates":[1.129616,51.859413]},"properties":{"siteId":"500","name":"Thorpe Road Nursery","waterbody":"GB105037077810","region":"Anglian","area":"Eastern","totalSurveys":2,"speciesCount":4,"firstSurvey":"03/04/1997","lastSurvey":"07/02/2007"}},{"type":"Feature","geometry":{"type":"Point","coordinates":[1.211829,51.810425]},"properties":{"siteId":"911","name":"Clacton STW","waterbody":"GB105037033970","region":"Anglian","area":"Eastern","totalSurveys":6,"speciesCount":9,"firstSurvey":"09/11/1984","lastSurvey":"18/11/1999"}},{"type":"Feature","geometry":{"type":"Point","coordinates":[1.186711,51.824601]},"properties":{"siteId":"914","name":"Fan Bridge","waterbody":"GB105037077810","region":"Anglian","area":"Eastern","totalSurveys":8,"speciesCount":15,"firstSurvey":"15/11/1984","lastSurvey":"22/10/2014"}},{"type":"Feature","geometry":{"type":"Point","coordinates":[1.201691,51.810702]},"properties":{"siteId":"912","name":"Holland Bridge","waterbody":"GB105037077810","region":"Anglian","area":"Eastern","totalSurveys":9,"speciesCount":16,"firstSurvey":"12/11/1984","lastSurvey":"16/09/2019"}},{"type":"Feature","geometry":{"type":"Point","coordinates":[1.178588,51.832915]},"properties":{"siteId":"915","name":"Railway Bridge","waterbody":"GB105037077810","region":"Anglian","area":"Eastern","totalSurveys":5,"speciesCount":7,"firstSurvey":"21/11/1984","lastSurvey":"15/11/1999"}},{"type":"Feature","geometry":{"type":"Point","coordinates":[1.196216,51.815348]},"properties":{"siteId":"913","name":"Sladburys","waterbody":"GB105037077810","region":"Anglian","area":"Eastern","totalSurveys":6,"speciesCount":10,"firstSurvey":"13/11/1984","lastSurvey":"25/11/1999"}},{"type":"Feature","geometry":{"type":"Point","coordinates":[1.170399,51.840332]},"properties":{"siteId":"916","name":"Thorpe Park","waterbody":"GB105037077810","region":"Anglian","area":"Eastern","totalSurveys":4,"speciesCount":6,"firstSurvey":"30/11/1984","lastSurvey":"15/11/1999"}},{"type":"Feature","geometry":{"type":"Point","coordinates":[1.162081,51.845953]},"properties":{"siteId":"917","name":"Thorpe STW","waterbody":"GB105037077810","region":"Anglian","area":"Eastern","totalSurveys":6,"speciesCount":10,"firstSurvey":"05/12/1984","lastSurvey":"30/11/1999"}},{"type":"Feature","geometry":{"type":"Point","coordinates":[1.226888,51.818108]},"properties":{"siteId":"919","name":"Frinton Golf Course","waterbody":"GB105037033970","region":"Anglian","area":"Eastern","totalSurveys":6,"speciesCount":10,"firstSurvey":"19/11/1984","lastSurvey":"11/11/1999"}},{"type":"Feature","geometry":{"type":"Point","coordinates":[1.219262,51.81292]},"properties":{"siteId":"918","name":"Holland Haven","waterbody":"GB105037033970","region":"Anglian","area":"Eastern","totalSurveys":6,"speciesCount":10,"firstSurvey":"08/11/1984","lastSurvey":"12/11/1999"}},{"type":"Feature","geometry":{"type":"Point","coordinates":[1.194514,51.811797]},"properties":{"siteId":"920","name":"Pickers Ditch Site","waterbody":"GB105037033960","region":"Anglian","area":"Eastern","totalSurveys":6,"speciesCount":8,"firstSurvey":"16/11/1984","lastSurvey":"23/11/1999"}},{"type":"Feature","geometry":{"type":"Point","coordinates":[1.048485,51.959129]},"properties":{"siteId":"12224","name":"Brantham Mill","waterbody":"GB105036040890","region":"Anglian","area":"Eastern","totalSurveys":1,"speciesCount":8,"firstSurvey":"23/10/2003","lastSurvey":"23/10/2003"}},{"type":"Feature","geometry":{"type":"Point","coordinates":[1.04028,51.956193]},"properties":{"siteId":"12239","name":"Cattawade - Flatford Mill","waterbody":"GB105036040890","region":"Anglian","area":"Eastern","totalSurveys":1,"speciesCount":8,"firstSurvey":"15/10/2003","lastSurvey":"15/10/2003"}},{"type":"Feature","geometry":{"type":"Point","coordinates":[1.011457,51.960532]},"properties":{"siteId":"12243","name":"Flatford lock - Fen Bridge","waterbody":"GB105036041000","region":"Anglian","area":"Eastern","totalSurveys":1,"speciesCount":4,"firstSurvey":"03/11/2003","lastSurvey":"03/11/2003"}},{"type":"Feature","geometry":{"type":"Point","coordinates":[1.022842,51.956643]},"properties":{"siteId":"12227","name":"Judas gap-Flatford mill","waterbody":"GB105036041000","region":"Anglian","area":"Eastern","totalSurveys":1,"speciesCount":6,"firstSurvey":"22/10/2003","lastSurvey":"22/10/2003"}},{"type":"Feature","geometry":{"type":"Point","coordinates":[1.018966,51.95962]},"properties":{"siteId":"12231","name":"U/S Flatford lock","waterbody":"GB105036041000","region":"Anglian","area":"Eastern","totalSurveys":1,"speciesCount":6,"firstSurvey":"03/11/2003","lastSurvey":"03/11/2003"}},{"type":"Feature","geometry":{"type":"Point","coordinates":[1.04028,51.956193]},"properties":{"siteId":"686","name":"Brantham Lock","waterbody":"GB105036041000","region":"Anglian","area":"Eastern","totalSurveys":9,"speciesCount":19,"firstSurvey":"12/06/1985","lastSurvey":"22/06/2009"}},{"type":"Feature","geometry":{"type":"Point","coordinates":[1.053419,51.956752]},"properties":{"siteId":"685","name":"Cattawade","waterbody":"GB105036040890","region":"Anglian","area":"Eastern","totalSurveys":8,"speciesCount":14,"firstSurvey":"30/08/1983","lastSurvey":"16/06/2003"}},{"type":"Feature","geometry":{"type":"Point","coordinates":[1.021208,51.953986]},"properties":{"siteId":"688","name":"Dedham (Old) River","waterbody":"GB105036041000","region":"Anglian","area":"Eastern","totalSurveys":8,"speciesCount":18,"firstSurvey":"24/08/1983","lastSurvey":"18/06/2003"}},{"type":"Feature","geometry":{"type":"Point","coordinates":[1.008611,51.961504]},"properties":{"siteId":"689","name":"Fen Bridge","waterbody":"GB105036041000","region":"Anglian","area":"Eastern","totalSurveys":22,"speciesCount":21,"firstSurvey":"23/08/1983","lastSurvey":"15/07/2025"}},{"type":"Feature","geometry":{"type":"Point","coordinates":[1.022782,51.955745]},"properties":{"siteId":"687","name":"Flatford Mill","waterbody":"GB105036041000","region":"Anglian","area":"Eastern","totalSurveys":12,"speciesCount":17,"firstSurvey":"25/08/1983","lastSurvey":"01/07/2015"}},{"type":"Feature","geometry":{"type":"Point","coordinates":[1.021377,51.958884]},"properties":{"siteId":"80847","name":"Judas Gap Elver Trap","waterbody":"GB105033047921","region":"Anglian","area":"Eastern","totalSurveys":1357,"speciesCount":5,"firstSurvey":"11/04/2007","lastSurvey":"19/10/2023"}},{"type":"Feature","geometry":{"type":"Point","coordinates":[1.076631,51.976834]},"properties":{"siteId":"504","name":"Keebles Grove","waterbody":"GB105036040890","region":"Anglian","area":"Eastern","totalSurveys":4,"speciesCount":4,"firstSurvey":"02/04/1997","lastSurvey":"14/03/2017"}},{"type":"Feature","geometry":{"type":"Point","coordinates":[1.103631,51.967131]},"properties":{"siteId":"503","name":"Stutton Bridge","waterbody":"GB105036040890","region":"Anglian","area":"Eastern","totalSurveys":4,"speciesCount":5,"firstSurvey":"02/04/1997","lastSurvey":"14/03/2017"}},{"type":"Feature","geometry":{"type":"Point","coordinates":[1.021383,51.99985]},"properties":{"siteId":"505","name":"Wenham STW","waterbody":"GB105036040890","region":"Anglian","area":"Eastern","totalSurveys":1,"speciesCount":0,"firstSurvey":"02/04/1997","lastSurvey":"02/04/1997"}},{"type":"Feature","geometry":{"type":"Point","coordinates":[1.165114,51.971789]},"properties":{"siteId":"921","name":"Holbrook Sluice","waterbody":"GB105036040880","region":"Anglian","area":"Eastern","totalSurveys":6,"speciesCount":12,"firstSurvey":"01/12/1987","lastSurvey":"25/06/2003"}},{"type":"Feature","geometry":{"type":"Point","coordinates":[1.245491,51.935421]},"properties":{"siteId":"908","name":"Gross Farm","waterbody":"GB105036040830","region":"Anglian","area":"Eastern","totalSurveys":6,"speciesCount":11,"firstSurvey":"26/11/1985","lastSurvey":"16/11/2000"}},{"type":"Feature","geometry":{"type":"Point","coordinates":[1.257563,51.941383]},"properties":{"siteId":"907","name":"Parkeston","waterbody":"GB105036040830","region":"Anglian","area":"Eastern","totalSurveys":10,"speciesCount":14,"firstSurvey":"25/11/1985","lastSurvey":"28/05/2025"}},{"type":"Feature","geometry":{"type":"Point","coordinates":[1.229516,51.93586]},"properties":{"siteId":"909","name":"Pond Hall Farm","waterbody":"GB105036040830","region":"Anglian","area":"Eastern","totalSurveys":8,"speciesCount":13,"firstSurvey":"27/11/1985","lastSurvey":"20/05/2013"}},{"type":"Feature","geometry":{"type":"Point","coordinates":[1.221933,51.931571]},"properties":{"siteId":"910","name":"Ramsey","waterbody":"GB105036040830","region":"Anglian","area":"Eastern","totalSurveys":6,"speciesCount":8,"firstSurvey":"28/11/1985","lastSurvey":"17/11/2000"}},{"type":"Feature","geometry":{"type":"Point","coordinates":[1.306326,51.131939]},"properties":{"siteId":"43883","name":"d/s Bridge St Bridge","waterbody":"GB107040073310","region":"South East","area":"Kent and South London","totalSurveys":1,"speciesCount":2,"firstSurvey":"15/05/2012","lastSurvey":"15/05/2012"}},{"type":"Feature","geometry":{"type":"Point","coordinates":[1.314904,51.126956]},"properties":{"siteId":"27978","name":"d/s Pencester Foot Bridge","waterbody":"GB107040073310","region":"South East","area":"Kent and South London","totalSurveys":1,"speciesCount":3,"firstSurvey":"19/09/2007","lastSurvey":"19/09/2007"}},{"type":"Feature","geometry":{"type":"Point","coordinates":[1.266732,51.147418]},"properties":{"siteId":"16274","name":"d/s Russell Gardens","waterbody":"GB107040019490","region":"South East","area":"Kent and South London","totalSurveys":4,"speciesCount":6,"firstSurvey":"12/09/2005","lastSurvey":"08/05/2012"}},{"type":"Feature","geometry":{"type":"Point","coordinates":[1.303436,51.134513]},"properties":{"siteId":"43481","name":"Lime Road","waterbody":"GB107040073310","region":"South East","area":"Kent and South London","totalSurveys":1,"speciesCount":3,"firstSurvey":"03/05/2012","lastSurvey":"03/05/2012"}},{"type":"Feature","geometry":{"type":"Point","coordinates":[1.313461,51.127563]},"properties":{"siteId":"2566","name":"Pencester Gardens","waterbody":"GB107040073310","region":"South East","area":"Kent and South London","totalSurveys":8,"speciesCount":6,"firstSurvey":"11/05/2001","lastSurvey":"12/06/2024"}},{"type":"Feature","geometry":{"type":"Point","coordinates":[1.280849,51.143218]},"properties":{"siteId":"40666","name":"u/s Crabble Mill","waterbody":"GB107040073310","region":"South East","area":"Kent and South London","totalSurveys":2,"speciesCount":4,"firstSurvey":"14/10/2011","lastSurvey":"03/05/2012"}},{"type":"Feature","geometry":{"type":"Point","coordinates":[1.039723,51.265445]},"properties":{"siteId":"76603","name":"Bretts Roundabout","waterbody":null,"region":"South East","area":"Kent and South London","totalSurveys":2,"speciesCount":11,"firstSurvey":"24/03/2022","lastSurvey":"30/07/2024"}},{"type":"Feature","geometry":{"type":"Point","coordinates":[1.211276,51.323484]},"properties":{"siteId":"23962","name":"Grove Ferry","waterbody":"GB107040019620","region":"South East","area":"Kent and South London","totalSurveys":8,"speciesCount":14,"firstSurvey":"31/10/2006","lastSurvey":"14/06/2018"}},{"type":"Feature","geometry":{"type":"Point","coordinates":[1.255256,51.324418]},"properties":{"siteId":"23964","name":"Plucks Gutter","waterbody":"GB107040019600","region":"South East","area":"Kent and South London","totalSurveys":8,"speciesCount":16,"firstSurvey":"02/11/2006","lastSurvey":"14/06/2018"}},{"type":"Feature","geometry":{"type":"Point","coordinates":[1.106095,51.29718]},"properties":{"siteId":"8301","name":"Sturry STW","waterbody":"GB107040019743","region":"South East","area":"Kent and South London","totalSurveys":10,"speciesCount":21,"firstSurvey":"03/10/2002","lastSurvey":"09/06/2015"}},{"type":"Feature","geometry":{"type":"Point","coordinates":[1.08902,51.28861]},"properties":{"siteId":"10529","name":"Willow Close","waterbody":"GB107040019743","region":"South East","area":"Kent and South London","totalSurveys":1,"speciesCount":8,"firstSurvey":"21/07/2003","lastSurvey":"21/07/2003"}},{"type":"Feature","geometry":{"type":"Point","coordinates":[1.30436,51.288366]},"properties":{"siteId":"51207","name":"Cooper Street","waterbody":"GB107040019570","region":"South East","area":"Kent and South London","totalSurveys":1,"speciesCount":4,"firstSurvey":"01/10/2013","lastSurvey":"01/10/2013"}},{"type":"Feature","geometry":{"type":"Point","coordinates":[1.26501,51.309548]},"properties":{"siteId":"51206","name":"Westmarsh Grove","waterbody":"GB107040019600","region":"South East","area":"Kent and South London","totalSurveys":1,"speciesCount":1,"firstSurvey":"02/10/2013","lastSurvey":"02/10/2013"}},{"type":"Feature","geometry":{"type":"Point","coordinates":[1.18287,51.29929]},"properties":{"siteId":"50746","name":"Sawkinge Farm","waterbody":"GB107040019790","region":"South East","area":"Kent and South London","totalSurveys":1,"speciesCount":2,"firstSurvey":"19/09/2013","lastSurvey":"19/09/2013"}},{"type":"Feature","geometry":{"type":"Point","coordinates":[1.194607,51.309]},"properties":{"siteId":"32599","name":"Stodmarsh Dyke A1","waterbody":"GB107040019790","region":"South East","area":"Kent and South London","totalSurveys":1,"speciesCount":1,"firstSurvey":"07/05/2009","lastSurvey":"07/05/2009"}},{"type":"Feature","geometry":{"type":"Point","coordinates":[1.189437,51.306892]},"properties":{"siteId":"32596","name":"Stodmarsh Dyke A2","waterbody":"GB107040019790","region":"South East","area":"Kent and South London","totalSurveys":1,"speciesCount":2,"firstSurvey":"07/05/2009","lastSurvey":"07/05/2009"}},{"type":"Feature","geometry":{"type":"Point","coordinates":[1.188316,51.31142]},"properties":{"siteId":"32593","name":"Stodmarsh Dyke A4","waterbody":"GB107040019790","region":"South East","area":"Kent and South London","totalSurveys":1,"speciesCount":2,"firstSurvey":"07/05/2009","lastSurvey":"07/05/2009"}},{"type":"Feature","geometry":{"type":"Point","coordinates":[1.189132,51.30663]},"properties":{"siteId":"32598","name":"Stodmarsh Dyke A6","waterbody":"GB107040019790","region":"South East","area":"Kent and South London","totalSurveys":1,"speciesCount":0,"firstSurvey":"07/05/2009","lastSurvey":"07/05/2009"}},{"type":"Feature","geometry":{"type":"Point","coordinates":[1.18897,51.310502]},"properties":{"siteId":"32594","name":"Stodmarsh Dyke B1","waterbody":"GB107040019790","region":"South East","area":"Kent and South London","totalSurveys":1,"speciesCount":1,"firstSurvey":"07/05/2009","lastSurvey":"07/05/2009"}},{"type":"Feature","geometry":{"type":"Point","coordinates":[1.183708,51.307048]},"properties":{"siteId":"32600","name":"Stodmarsh Dyke S1","waterbody":"GB107040019790","region":"South East","area":"Kent and South London","totalSurveys":1,"speciesCount":4,"firstSurvey":"07/05/2009","lastSurvey":"07/05/2009"}},{"type":"Feature","geometry":{"type":"Point","coordinates":[1.187569,51.31099]},"properties":{"siteId":"32595","name":"Stodmarsh Lake (beside Undertrees Farm)","waterbody":"GB107040019790","region":"South East","area":"Kent and South London","totalSurveys":1,"speciesCount":4,"firstSurvey":"07/05/2009","lastSurvey":"07/05/2009"}},{"type":"Feature","geometry":{"type":"Point","coordinates":[1.21569,51.312919]},"properties":{"siteId":"8554","name":"Blue Bridge","waterbody":"GB107040019590","region":"South East","area":"Kent and South London","totalSurveys":4,"speciesCount":8,"firstSurvey":"22/08/2002","lastSurvey":"27/06/2024"}},{"type":"Feature","geometry":{"type":"Point","coordinates":[1.175658,51.279626]},"properties":{"siteId":"2590","name":"D/s Littlebourne Mill","waterbody":"GB107040019590","region":"South East","area":"Kent and South London","totalSurveys":9,"speciesCount":10,"firstSurvey":"27/04/2001","lastSurvey":"13/06/2024"}},{"type":"Feature","geometry":{"type":"Point","coordinates":[1.169764,51.275468]},"properties":{"siteId":"2588","name":"D/s Weir Lodge STW","waterbody":"GB107040019590","region":"South East","area":"Kent and South London","totalSurveys":1,"speciesCount":5,"firstSurvey":"28/08/2001","lastSurvey":"28/08/2001"}},{"type":"Feature","geometry":{"type":"Point","coordinates":[1.187497,51.283252]},"properties":{"siteId":"68843","name":"Seaton Mill Upstream of","waterbody":null,"region":"South East","area":"Kent and South London","totalSurveys":1,"speciesCount":6,"firstSurvey":"26/09/2017","lastSurvey":"26/09/2017"}},{"type":"Feature","geometry":{"type":"Point","coordinates":[1.171443,51.27715]},"properties":{"siteId":"8532","name":"The Bench","waterbody":"GB107040019590","region":"South East","area":"Kent and South London","totalSurveys":6,"speciesCount":10,"firstSurvey":"05/11/2002","lastSurvey":"15/05/2012"}},{"type":"Feature","geometry":{"type":"Point","coordinates":[1.210291,51.280821]},"properties":{"siteId":"16276","name":"Wingham at Britton Farm","waterbody":"GB107040019570","region":"South East","area":"Kent and South London","totalSurveys":5,"speciesCount":10,"firstSurvey":"04/08/2005","lastSurvey":"09/07/2024"}},{"type":"Feature","geometry":{"type":"Point","coordinates":[1.220999,51.272755]},"properties":{"siteId":"43882","name":"Wingham at Dambridge","waterbody":"GB107040019570","region":"South East","area":"Kent and South London","totalSurveys":1,"speciesCount":3,"firstSurvey":"26/07/2012","lastSurvey":"26/07/2012"}},{"type":"Feature","geometry":{"type":"Point","coordinates":[1.352119,51.239396]},"properties":{"siteId":"43881","name":"Mole's Hole","waterbody":"GB107040019730","region":"South East","area":"Kent and South London","totalSurveys":1,"speciesCount":2,"firstSurvey":"05/07/2012","lastSurvey":"05/07/2012"}},{"type":"Feature","geometry":{"type":"Point","coordinates":[1.365018,51.269636]},"properties":{"siteId":"2579","name":"Sandwich","waterbody":"GB107040019550","region":"South East","area":"Kent and South London","totalSurveys":5,"speciesCount":6,"firstSurvey":"25/05/2001","lastSurvey":"26/06/2024"}},{"type":"Feature","geometry":{"type":"Point","coordinates":[1.020269,51.299994]},"properties":{"siteId":"81883","name":"Blean Woods","waterbody":null,"region":"South East","area":"Kent and South London","totalSurveys":1,"speciesCount":1,"firstSurvey":"20/10/2025","lastSurvey":"20/10/2025"}},{"type":"Feature","geometry":{"type":"Point","coordinates":[1.102141,51.315553]},"properties":{"siteId":"63903","name":"Brookside","waterbody":null,"region":"South East","area":"Kent and South London","totalSurveys":1,"speciesCount":3,"firstSurvey":"21/05/2015","lastSurvey":"21/05/2015"}},{"type":"Feature","geometry":{"type":"Point","coordinates":[1.116654,51.320042]},"properties":{"siteId":"13577","name":"Calcott","waterbody":"GB107040019620","region":"South East","area":"Kent and South London","totalSurveys":4,"speciesCount":11,"firstSurvey":"20/07/2004","lastSurvey":"16/07/2015"}},{"type":"Feature","geometry":{"type":"Point","coordinates":[1.233192,51.338099]},"properties":{"siteId":"11218","name":"Sarre","waterbody":"GB107040019620","region":"South East","area":"Kent and South London","totalSurveys":5,"speciesCount":13,"firstSurvey":"14/07/2003","lastSurvey":"18/05/2011"}},{"type":"Feature","geometry":{"type":"Point","coordinates":[1.142207,51.319017]},"properties":{"siteId":"17174","name":"Tile Lodge","waterbody":"GB107040019620","region":"South East","area":"Kent and South London","totalSurveys":5,"speciesCount":8,"firstSurvey":"03/08/2005","lastSurvey":"20/10/2025"}},{"type":"Feature","geometry":{"type":"Point","coordinates":[1.089601,51.309651]},"properties":{"siteId":"63883","name":"Tyler Hill - Little Hall Wood","waterbody":null,"region":"South East","area":"Kent and South London","totalSurveys":2,"speciesCount":3,"firstSurvey":"19/05/2015","lastSurvey":"21/10/2025"}},{"type":"Feature","geometry":{"type":"Point","coordinates":[1.172839,51.08686]},"properties":{"siteId":"27340","name":"Parkfield Road (Pent Stream)","waterbody":"GB107040019480","region":"South East","area":"Kent and South London","totalSurveys":3,"speciesCount":2,"firstSurvey":"17/07/2007","lastSurvey":"23/06/2015"}},{"type":"Feature","geometry":{"type":"Point","coordinates":[1.067795,51.077568]},"properties":{"siteId":"56543","name":"Brockhill Country Park","waterbody":null,"region":"South East","area":"Kent and South London","totalSurveys":1,"speciesCount":0,"firstSurvey":"30/04/2014","lastSurvey":"30/04/2014"}},{"type":"Feature","geometry":{"type":"Point","coordinates":[1.090627,51.082067]},"properties":{"siteId":"55904","name":"Grange Farm d/s Lake","waterbody":"GB107040019710","region":"South East","area":"Kent and South London","totalSurveys":1,"speciesCount":4,"firstSurvey":"24/04/2014","lastSurvey":"24/04/2014"}},{"type":"Feature","geometry":{"type":"Point","coordinates":[1.09264,51.089551]},"properties":{"siteId":"55903","name":"Grange Farm u/s Lake","waterbody":"GB107040019710","region":"South East","area":"Kent and South London","totalSurveys":1,"speciesCount":1,"firstSurvey":"24/04/2014","lastSurvey":"24/04/2014"}},{"type":"Feature","geometry":{"type":"Point","coordinates":[1.10563,51.096474]},"properties":{"siteId":"55883","name":"Frogholt Farm","waterbody":"GB107040019710","region":"South East","area":"Kent and South London","totalSurveys":1,"speciesCount":2,"firstSurvey":"23/04/2014","lastSurvey":"23/04/2014"}},{"type":"Feature","geometry":{"type":"Point","coordinates":[1.121592,51.076422]},"properties":{"siteId":"55885","name":"Horn Street","waterbody":"GB107040019710","region":"South East","area":"Kent and South London","totalSurveys":1,"speciesCount":1,"firstSurvey":"23/04/2014","lastSurvey":"23/04/2014"}},{"type":"Feature","geometry":{"type":"Point","coordinates":[1.100702,51.097118]},"properties":{"siteId":"14009","name":"Beachborough","waterbody":"GB107040019710","region":"South East","area":"Kent and South London","totalSurveys":1,"speciesCount":3,"firstSurvey":"15/12/2004","lastSurvey":"15/12/2004"}},{"type":"Feature","geometry":{"type":"Point","coordinates":[1.309982,51.291328]},"properties":{"siteId":"13746","name":"Swallows Brook Farm","waterbody":"GB107040019600","region":"South East","area":"Kent and South London","totalSurveys":1,"speciesCount":10,"firstSurvey":"29/10/2004","lastSurvey":"29/10/2004"}},{"type":"Feature","geometry":{"type":"Point","coordinates":[1.053731,51.343243]},"properties":{"siteId":"55185","name":"Convicts Wood","waterbody":"GB107040019630","region":"South East","area":"Kent and South London","totalSurveys":1,"speciesCount":1,"firstSurvey":"29/05/2014","lastSurvey":"29/05/2014"}},{"type":"Feature","geometry":{"type":"Point","coordinates":[1.036721,51.334673]},"properties":{"siteId":"55184","name":"Honey Hill","waterbody":"GB107040019630","region":"South East","area":"Kent and South London","totalSurveys":1,"speciesCount":2,"firstSurvey":"29/05/2014","lastSurvey":"29/05/2014"}},{"type":"Feature","geometry":{"type":"Point","coordinates":[1.207195,51.368857]},"properties":{"siteId":"8363","name":"Reculver North Stream","waterbody":"GB107040019770","region":"South East","area":"Kent and South London","totalSurveys":3,"speciesCount":3,"firstSurvey":"06/09/2002","lastSurvey":"24/08/2006"}},{"type":"Feature","geometry":{"type":"Point","coordinates":[1.233391,51.378022]},"properties":{"siteId":"8455","name":"Reculver Sea Wall","waterbody":"GB107040019770","region":"South East","area":"Kent and South London","totalSurveys":1,"speciesCount":0,"firstSurvey":"03/09/2002","lastSurvey":"03/09/2002"}},{"type":"Feature","geometry":{"type":"Point","coordinates":[1.225769,51.378781]},"properties":{"siteId":"8375","name":"Reculver Sluice","waterbody":"GB107040019770","region":"South East","area":"Kent and South London","totalSurveys":6,"speciesCount":16,"firstSurvey":"03/09/2002","lastSurvey":"14/07/2015"}},{"type":"Feature","geometry":{"type":"Point","coordinates":[1.230029,51.367843]},"properties":{"siteId":"8344","name":"Wantsum AC car park","waterbody":"GB107040019770","region":"South East","area":"Kent and South London","totalSurveys":8,"speciesCount":17,"firstSurvey":"06/09/2002","lastSurvey":"21/07/2015"}}]}