{"type":"FeatureCollection","features":[{"type":"Feature","geometry":{"type":"Point","coordinates":[-1.67883,53.067686]},"properties":{"siteId":"21264","name":"Bradbourne","waterbody":"GB104028052750","region":"Midlands","area":"Central","totalSurveys":4,"speciesCount":4,"firstSurvey":"16/04/1991","lastSurvey":"18/10/2006"}},{"type":"Feature","geometry":{"type":"Point","coordinates":[-1.704505,53.071079]},"properties":{"siteId":"5697","name":"U/S Tissington Ford","waterbody":"GB104028052750","region":"Midlands","area":"Central","totalSurveys":1,"speciesCount":4,"firstSurvey":"27/06/2002","lastSurvey":"27/06/2002"}},{"type":"Feature","geometry":{"type":"Point","coordinates":[-1.758501,53.012861]},"properties":{"siteId":"374","name":"D/S Ashbourne Stw","waterbody":"GB104028052750","region":"Midlands","area":"Central","totalSurveys":2,"speciesCount":5,"firstSurvey":"08/07/1997","lastSurvey":"18/10/2006"}},{"type":"Feature","geometry":{"type":"Point","coordinates":[-1.707191,53.057988]},"properties":{"siteId":"65243","name":"D/S Horsley Farm","waterbody":null,"region":"Midlands","area":"Central","totalSurveys":1,"speciesCount":4,"firstSurvey":"25/08/2015","lastSurvey":"25/08/2015"}},{"type":"Feature","geometry":{"type":"Point","coordinates":[-1.745515,53.018623]},"properties":{"siteId":"51563","name":"Mapleton Bridge","waterbody":"GB104028052750","region":"Midlands","area":"Central","totalSurveys":1,"speciesCount":4,"firstSurvey":"22/08/2013","lastSurvey":"22/08/2013"}},{"type":"Feature","geometry":{"type":"Point","coordinates":[-1.757005,53.013757]},"properties":{"siteId":"373","name":"U/S Ashbourne Stw","waterbody":"GB104028052750","region":"Midlands","area":"Central","totalSurveys":2,"speciesCount":4,"firstSurvey":"08/07/1997","lastSurvey":"18/10/2006"}},{"type":"Feature","geometry":{"type":"Point","coordinates":[-1.71065,53.053844]},"properties":{"siteId":"65245","name":"Woodside","waterbody":null,"region":"Midlands","area":"Central","totalSurveys":1,"speciesCount":5,"firstSurvey":"25/08/2015","lastSurvey":"25/08/2015"}},{"type":"Feature","geometry":{"type":"Point","coordinates":[-1.810414,53.128563]},"properties":{"siteId":"73","name":"Beresford Dale","waterbody":"GB104028057780","region":"Midlands","area":"Central","totalSurveys":6,"speciesCount":5,"firstSurvey":"14/10/1997","lastSurvey":"18/09/2014"}},{"type":"Feature","geometry":{"type":"Point","coordinates":[-1.848937,53.181365]},"properties":{"siteId":"10359","name":"Crowdecote","waterbody":"GB104028057780","region":"Midlands","area":"Central","totalSurveys":7,"speciesCount":8,"firstSurvey":"05/02/1999","lastSurvey":"27/08/2019"}},{"type":"Feature","geometry":{"type":"Point","coordinates":[-1.784191,53.052786]},"properties":{"siteId":"40049","name":"D/S Dovedale","waterbody":"GB104028057780","region":"Midlands","area":"Central","totalSurveys":7,"speciesCount":10,"firstSurvey":"18/10/2011","lastSurvey":"09/09/2025"}},{"type":"Feature","geometry":{"type":"Point","coordinates":[-1.818322,53.14241]},"properties":{"siteId":"4978","name":"D/S Hartington Creamery","waterbody":"GB104028057780","region":"Midlands","area":"Central","totalSurveys":3,"speciesCount":6,"firstSurvey":"18/04/2002","lastSurvey":"08/02/2005"}},{"type":"Feature","geometry":{"type":"Point","coordinates":[-1.820147,53.134862]},"properties":{"siteId":"4977","name":"D/S Hartington Road Bridge","waterbody":"GB104028057780","region":"Midlands","area":"Central","totalSurveys":2,"speciesCount":5,"firstSurvey":"17/04/2002","lastSurvey":"16/04/2003"}},{"type":"Feature","geometry":{"type":"Point","coordinates":[-1.874228,53.195516]},"properties":{"siteId":"10388","name":"Glutton Bridge","waterbody":"GB104028057780","region":"Midlands","area":"Central","totalSurveys":4,"speciesCount":7,"firstSurvey":"17/06/1998","lastSurvey":"03/08/2006"}},{"type":"Feature","geometry":{"type":"Point","coordinates":[-1.679426,53.023461]},"properties":{"siteId":"163","name":"Agnes Meadow","waterbody":"GB104028052700","region":"Midlands","area":"Central","totalSurveys":2,"speciesCount":2,"firstSurvey":"26/01/1993","lastSurvey":"13/03/1998"}},{"type":"Feature","geometry":{"type":"Point","coordinates":[-1.727178,53.016389]},"properties":{"siteId":"334","name":"Ashbourne","waterbody":"GB104028052700","region":"Midlands","area":"Central","totalSurveys":2,"speciesCount":4,"firstSurvey":"02/03/1993","lastSurvey":"06/05/1998"}},{"type":"Feature","geometry":{"type":"Point","coordinates":[-1.656943,53.03868]},"properties":{"siteId":"149","name":"Atlow","waterbody":"GB104028052700","region":"Midlands","area":"Central","totalSurveys":4,"speciesCount":5,"firstSurvey":"26/01/1993","lastSurvey":"29/09/2011"}},{"type":"Feature","geometry":{"type":"Point","coordinates":[-1.770463,53.005693]},"properties":{"siteId":"335","name":"Dole'S Farm Clifton","waterbody":"GB104028052700","region":"Midlands","area":"Central","totalSurveys":2,"speciesCount":3,"firstSurvey":"20/04/1993","lastSurvey":"06/05/1998"}},{"type":"Feature","geometry":{"type":"Point","coordinates":[-1.70182,53.019025]},"properties":{"siteId":"336","name":"Sturston Mill","waterbody":"GB104028052700","region":"Midlands","area":"Central","totalSurveys":2,"speciesCount":2,"firstSurvey":"02/03/1993","lastSurvey":"13/03/1998"}},{"type":"Feature","geometry":{"type":"Point","coordinates":[-1.897075,53.199556]},"properties":{"siteId":"96","name":"Hollinsclough","waterbody":"GB104028057780","region":"Midlands","area":"Central","totalSurveys":4,"speciesCount":4,"firstSurvey":"16/08/2006","lastSurvey":"02/09/2025"}},{"type":"Feature","geometry":{"type":"Point","coordinates":[-1.783646,53.051563]},"properties":{"siteId":"78","name":"Izaak Walton Farm","waterbody":"GB104028057780","region":"Midlands","area":"Central","totalSurveys":1,"speciesCount":2,"firstSurvey":"23/09/1998","lastSurvey":"23/09/1998"}},{"type":"Feature","geometry":{"type":"Point","coordinates":[-1.821381,53.16183]},"properties":{"siteId":"97","name":"Ludwell Farm","waterbody":"GB104028057780","region":"Midlands","area":"Central","totalSurveys":5,"speciesCount":8,"firstSurvey":"17/04/2002","lastSurvey":"29/08/2019"}},{"type":"Feature","geometry":{"type":"Point","coordinates":[-1.784029,53.094306]},"properties":{"siteId":"77","name":"Milldale","waterbody":"GB104028057780","region":"Midlands","area":"Central","totalSurveys":3,"speciesCount":7,"firstSurvey":"16/08/2006","lastSurvey":"05/09/2019"}},{"type":"Feature","geometry":{"type":"Point","coordinates":[-1.757497,53.029749]},"properties":{"siteId":"24563","name":"Oakover Estate","waterbody":"GB104028052670","region":"Midlands","area":"Central","totalSurveys":2,"speciesCount":7,"firstSurvey":"14/05/2008","lastSurvey":"23/05/2013"}},{"type":"Feature","geometry":{"type":"Point","coordinates":[-1.974583,53.077824]},"properties":{"siteId":"84","name":"Apesford Farm","waterbody":"GB104028052690","region":"Midlands","area":"Central","totalSurveys":1,"speciesCount":1,"firstSurvey":"28/05/1998","lastSurvey":"28/05/1998"}},{"type":"Feature","geometry":{"type":"Point","coordinates":[-1.993989,53.069737]},"properties":{"siteId":"83","name":"Combes Valley Nature Reserve","waterbody":"GB104028052690","region":"Midlands","area":"Central","totalSurveys":7,"speciesCount":6,"firstSurvey":"24/04/1991","lastSurvey":"11/10/2012"}},{"type":"Feature","geometry":{"type":"Point","coordinates":[-1.946312,53.004104]},"properties":{"siteId":"167","name":"Eastwall Farm","waterbody":"GB104028052652","region":"Midlands","area":"Central","totalSurveys":10,"speciesCount":15,"firstSurvey":"20/09/1989","lastSurvey":"27/09/2018"}},{"type":"Feature","geometry":{"type":"Point","coordinates":[-1.999317,53.140022]},"properties":{"siteId":"2492","name":"Middle Hulme Farm","waterbody":"GB104028052800","region":"Midlands","area":"Central","totalSurveys":12,"speciesCount":10,"firstSurvey":"10/10/1989","lastSurvey":"19/09/2024"}},{"type":"Feature","geometry":{"type":"Point","coordinates":[-1.921596,53.000927]},"properties":{"siteId":"44422","name":"Oakamoor","waterbody":null,"region":"Midlands","area":"Central","totalSurveys":2,"speciesCount":9,"firstSurvey":"13/09/2012","lastSurvey":"09/10/2018"}},{"type":"Feature","geometry":{"type":"Point","coordinates":[-1.964179,53.022988]},"properties":{"siteId":"166","name":"Thomas Bolton Ltd.","waterbody":"GB104028052652","region":"Midlands","area":"Central","totalSurveys":9,"speciesCount":15,"firstSurvey":"05/10/1989","lastSurvey":"06/09/2006"}},{"type":"Feature","geometry":{"type":"Point","coordinates":[-1.962694,53.015797]},"properties":{"siteId":"168","name":"Whiston Bridge","waterbody":"GB104028052652","region":"Midlands","area":"Central","totalSurveys":5,"speciesCount":11,"firstSurvey":"19/09/1989","lastSurvey":"16/01/2002"}},{"type":"Feature","geometry":{"type":"Point","coordinates":[-1.875826,53.160461]},"properties":{"siteId":"13701","name":"Bridge End","waterbody":"GB104028052930","region":"Midlands","area":"Central","totalSurveys":8,"speciesCount":5,"firstSurvey":"18/05/1994","lastSurvey":"11/09/2025"}},{"type":"Feature","geometry":{"type":"Point","coordinates":[-1.852433,53.147913]},"properties":{"siteId":"91","name":"Brund","waterbody":"GB104028052920","region":"Midlands","area":"Central","totalSurveys":5,"speciesCount":9,"firstSurvey":"09/11/2004","lastSurvey":"25/09/2025"}},{"type":"Feature","geometry":{"type":"Point","coordinates":[-1.862075,53.176446]},"properties":{"siteId":"30407","name":"Gabions Stretch","waterbody":"GB104028058030","region":"Midlands","area":"Central","totalSurveys":1,"speciesCount":4,"firstSurvey":"03/04/2008","lastSurvey":"03/04/2008"}},{"type":"Feature","geometry":{"type":"Point","coordinates":[-1.901193,53.179083]},"properties":{"siteId":"13917","name":"Hardings Booth","waterbody":"GB104028058030","region":"Midlands","area":"Central","totalSurveys":5,"speciesCount":5,"firstSurvey":"14/12/2004","lastSurvey":"11/09/2025"}},{"type":"Feature","geometry":{"type":"Point","coordinates":[-1.843107,53.130364]},"properties":{"siteId":"72","name":"Hulme End","waterbody":"GB104028052920","region":"Midlands","area":"Central","totalSurveys":4,"speciesCount":7,"firstSurvey":"03/02/1998","lastSurvey":"30/09/2025"}},{"type":"Feature","geometry":{"type":"Point","coordinates":[-1.797503,53.055084]},"properties":{"siteId":"11244","name":"Ilam","waterbody":"GB104028052670","region":"Midlands","area":"Central","totalSurveys":2,"speciesCount":4,"firstSurvey":"29/10/2003","lastSurvey":"02/10/2014"}},{"type":"Feature","geometry":{"type":"Point","coordinates":[-1.871135,53.178524]},"properties":{"siteId":"90","name":"Longnor","waterbody":"GB104028058030","region":"Midlands","area":"Central","totalSurveys":1,"speciesCount":4,"firstSurvey":"14/12/2004","lastSurvey":"14/12/2004"}},{"type":"Feature","geometry":{"type":"Point","coordinates":[-1.900483,53.052149]},"properties":{"siteId":"32457","name":"Dukeslane Bridge","waterbody":"GB104028052900","region":"Midlands","area":"Central","totalSurveys":1,"speciesCount":6,"firstSurvey":"30/03/2009","lastSurvey":"30/03/2009"}},{"type":"Feature","geometry":{"type":"Point","coordinates":[-1.908884,53.086781]},"properties":{"siteId":"375","name":"Ford","waterbody":"GB104028052900","region":"Midlands","area":"Central","totalSurveys":7,"speciesCount":7,"firstSurvey":"02/09/1997","lastSurvey":"19/09/2025"}},{"type":"Feature","geometry":{"type":"Point","coordinates":[-1.933339,53.010121]},"properties":{"siteId":"81625","name":"Green Farm","waterbody":null,"region":"Midlands","area":"Central","totalSurveys":1,"speciesCount":4,"firstSurvey":"15/09/2025","lastSurvey":"15/09/2025"}},{"type":"Feature","geometry":{"type":"Point","coordinates":[-1.931533,53.115741]},"properties":{"siteId":"380","name":"Mixon Mines","waterbody":"GB104028052900","region":"Midlands","area":"Central","totalSurveys":1,"speciesCount":0,"firstSurvey":"24/05/2001","lastSurvey":"24/05/2001"}},{"type":"Feature","geometry":{"type":"Point","coordinates":[-1.934249,53.097585]},"properties":{"siteId":"249","name":"Onecote Grange","waterbody":"GB104028052900","region":"Midlands","area":"Central","totalSurveys":9,"speciesCount":8,"firstSurvey":"09/04/1991","lastSurvey":"16/09/2025"}},{"type":"Feature","geometry":{"type":"Point","coordinates":[-1.899981,53.075709]},"properties":{"siteId":"10358","name":"Stonyslack Farm","waterbody":"GB104028052900","region":"Midlands","area":"Central","totalSurveys":1,"speciesCount":5,"firstSurvey":"17/04/2003","lastSurvey":"17/04/2003"}},{"type":"Feature","geometry":{"type":"Point","coordinates":[-1.875652,53.049339]},"properties":{"siteId":"11102","name":"Waterhouses","waterbody":"GB104028052900","region":"Midlands","area":"Central","totalSurveys":4,"speciesCount":6,"firstSurvey":"15/10/2003","lastSurvey":"01/10/2025"}},{"type":"Feature","geometry":{"type":"Point","coordinates":[-1.861191,53.102457]},"properties":{"siteId":"13610","name":"U/S Wetton Mill","waterbody":"GB104028052890","region":"Midlands","area":"Central","totalSurveys":1,"speciesCount":5,"firstSurvey":"04/02/1998","lastSurvey":"04/02/1998"}},{"type":"Feature","geometry":{"type":"Point","coordinates":[-1.842781,53.133761]},"properties":{"siteId":"29972","name":"Upstream of Hulme End Campsite","waterbody":"GB104028052920","region":"Midlands","area":"Central","totalSurveys":1,"speciesCount":4,"firstSurvey":"03/04/2008","lastSurvey":"03/04/2008"}},{"type":"Feature","geometry":{"type":"Point","coordinates":[-1.896867,53.117334]},"properties":{"siteId":"311","name":"Stoneyfold Farm","waterbody":"GB104028052910","region":"Midlands","area":"Central","totalSurveys":8,"speciesCount":3,"firstSurvey":"22/03/1991","lastSurvey":"11/09/2025"}},{"type":"Feature","geometry":{"type":"Point","coordinates":[-1.861488,53.168338]},"properties":{"siteId":"30408","name":"Waterhouse Farm","waterbody":"GB104028058030","region":"Midlands","area":"Central","totalSurveys":1,"speciesCount":5,"firstSurvey":"03/04/2008","lastSurvey":"03/04/2008"}},{"type":"Feature","geometry":{"type":"Point","coordinates":[-1.858475,53.10178]},"properties":{"siteId":"76","name":"Wetton Mill","waterbody":"GB104028052890","region":"Midlands","area":"Central","totalSurveys":10,"speciesCount":10,"firstSurvey":"09/10/2002","lastSurvey":"22/10/2019"}},{"type":"Feature","geometry":{"type":"Point","coordinates":[-1.869326,53.178261]},"properties":{"siteId":"30396","name":"Windy Arbour Bridge","waterbody":"GB104028058030","region":"Midlands","area":"Central","totalSurveys":1,"speciesCount":5,"firstSurvey":"03/04/2008","lastSurvey":"03/04/2008"}},{"type":"Feature","geometry":{"type":"Point","coordinates":[-1.81801,53.145376]},"properties":{"siteId":"4979","name":"U/S Hartington Creamery","waterbody":"GB104028057780","region":"Midlands","area":"Central","totalSurveys":2,"speciesCount":5,"firstSurvey":"18/04/2002","lastSurvey":"29/05/2003"}},{"type":"Feature","geometry":{"type":"Point","coordinates":[-1.806003,53.122489]},"properties":{"siteId":"4981","name":"Wolfescote Dale","waterbody":"GB104028057780","region":"Midlands","area":"Central","totalSurveys":5,"speciesCount":7,"firstSurvey":"10/04/2002","lastSurvey":"29/08/2019"}},{"type":"Feature","geometry":{"type":"Point","coordinates":[-1.28833,53.132]},"properties":{"siteId":"41188","name":"Brierley Forest Park Lake","waterbody":null,"region":"Midlands","area":"East","totalSurveys":1,"speciesCount":7,"firstSurvey":"07/12/2011","lastSurvey":"07/12/2011"}},{"type":"Feature","geometry":{"type":"Point","coordinates":[-1.198587,53.015684]},"properties":{"siteId":"53783","name":"Bullwell Hall Lower Pond","waterbody":null,"region":"Midlands","area":"East","totalSurveys":1,"speciesCount":9,"firstSurvey":"19/11/2013","lastSurvey":"19/11/2013"}},{"type":"Feature","geometry":{"type":"Point","coordinates":[-1.198872,53.016369]},"properties":{"siteId":"53784","name":"Bullwell Hall Upper Pond","waterbody":null,"region":"Midlands","area":"East","totalSurveys":1,"speciesCount":8,"firstSurvey":"03/12/2013","lastSurvey":"03/12/2013"}},{"type":"Feature","geometry":{"type":"Point","coordinates":[-1.415885,53.106383]},"properties":{"siteId":"3593","name":"Brook Farm","waterbody":"GB104028052320","region":"Midlands","area":"East","totalSurveys":6,"speciesCount":10,"firstSurvey":"17/10/1997","lastSurvey":"18/06/2025"}},{"type":"Feature","geometry":{"type":"Point","coordinates":[-1.367913,53.112062]},"properties":{"siteId":"41971","name":"Westhouses","waterbody":"GB104028052350","region":"Midlands","area":"East","totalSurveys":2,"speciesCount":6,"firstSurvey":"12/09/2012","lastSurvey":"02/06/2014"}},{"type":"Feature","geometry":{"type":"Point","coordinates":[-1.423625,53.108425]},"properties":{"siteId":"65583","name":"Amber Mill Shirland","waterbody":null,"region":"Midlands","area":"East","totalSurveys":2,"speciesCount":5,"firstSurvey":"10/11/2015","lastSurvey":"25/10/2016"}},{"type":"Feature","geometry":{"type":"Point","coordinates":[-1.482823,53.061198]},"properties":{"siteId":"3590","name":"Ambergate","waterbody":"GB104028052330","region":"Midlands","area":"East","totalSurveys":5,"speciesCount":14,"firstSurvey":"29/09/1994","lastSurvey":"25/06/2014"}},{"type":"Feature","geometry":{"type":"Point","coordinates":[-1.460551,53.147943]},"properties":{"siteId":"3586","name":"Ashover Hay","waterbody":"GB104028052380","region":"Midlands","area":"East","totalSurveys":5,"speciesCount":3,"firstSurvey":"06/11/1997","lastSurvey":"19/06/2014"}},{"type":"Feature","geometry":{"type":"Point","coordinates":[-1.438399,53.067119]},"properties":{"siteId":"3588","name":"Hamlyn Mill","waterbody":"GB104028052330","region":"Midlands","area":"East","totalSurveys":2,"speciesCount":6,"firstSurvey":"07/11/1997","lastSurvey":"21/06/2004"}},{"type":"Feature","geometry":{"type":"Point","coordinates":[-1.427455,53.132741]},"properties":{"siteId":"58045","name":"Ogston","waterbody":"GB104028052340","region":"Midlands","area":"East","totalSurveys":3,"speciesCount":7,"firstSurvey":"19/06/2014","lastSurvey":"25/10/2016"}},{"type":"Feature","geometry":{"type":"Point","coordinates":[-1.456894,53.066737]},"properties":{"siteId":"3589","name":"Sawmills","waterbody":"GB104028052330","region":"Midlands","area":"East","totalSurveys":3,"speciesCount":7,"firstSurvey":"11/04/1995","lastSurvey":"21/06/2004"}},{"type":"Feature","geometry":{"type":"Point","coordinates":[-1.431686,53.096391]},"properties":{"siteId":"3587","name":"South Wingfield","waterbody":"GB104028052330","region":"Midlands","area":"East","totalSurveys":8,"speciesCount":11,"firstSurvey":"24/11/1994","lastSurvey":"11/11/2015"}},{"type":"Feature","geometry":{"type":"Point","coordinates":[-1.44129,53.06395]},"properties":{"siteId":"38910","name":"Wingfield Park","waterbody":"GB104028052330","region":"Midlands","area":"East","totalSurveys":2,"speciesCount":11,"firstSurvey":"30/08/2011","lastSurvey":"25/06/2014"}},{"type":"Feature","geometry":{"type":"Point","coordinates":[-1.485244,53.060858]},"properties":{"siteId":"3559","name":"Ambergate","waterbody":"GB104028052390","region":"Midlands","area":"East","totalSurveys":3,"speciesCount":9,"firstSurvey":"05/05/1993","lastSurvey":"18/05/2005"}},{"type":"Feature","geometry":{"type":"Point","coordinates":[-1.788817,53.403179]},"properties":{"siteId":"19210","name":"Upper Barn Farm","waterbody":"GB104028057940","region":"Midlands","area":"East","totalSurveys":5,"speciesCount":2,"firstSurvey":"16/08/2005","lastSurvey":"16/09/2024"}},{"type":"Feature","geometry":{"type":"Point","coordinates":[-1.789004,53.40184]},"properties":{"siteId":"37791","name":"DS Abstraction Weir","waterbody":null,"region":"Midlands","area":"East","totalSurveys":1,"speciesCount":2,"firstSurvey":"20/06/2011","lastSurvey":"20/06/2011"}},{"type":"Feature","geometry":{"type":"Point","coordinates":[-1.780235,53.399047]},"properties":{"siteId":"3569","name":"Lower Ashop Farm","waterbody":"GB104028057910","region":"Midlands","area":"East","totalSurveys":6,"speciesCount":4,"firstSurvey":"19/01/2001","lastSurvey":"16/09/2024"}},{"type":"Feature","geometry":{"type":"Point","coordinates":[-1.828344,53.406982]},"properties":{"siteId":"31766","name":"Upper House Farm","waterbody":"GB104028057930","region":"Midlands","area":"East","totalSurveys":2,"speciesCount":2,"firstSurvey":"10/09/2009","lastSurvey":"09/07/2014"}},{"type":"Feature","geometry":{"type":"Point","coordinates":[-1.753643,53.383741]},"properties":{"siteId":"37790","name":"US Ladybower Reservoir","waterbody":null,"region":"Midlands","area":"East","totalSurveys":1,"speciesCount":4,"firstSurvey":"20/06/2011","lastSurvey":"20/06/2011"}},{"type":"Feature","geometry":{"type":"Point","coordinates":[-1.614635,53.242287]},"properties":{"siteId":"34660","name":"Parkside","waterbody":"GB104028057790","region":"Midlands","area":"East","totalSurveys":3,"speciesCount":5,"firstSurvey":"24/09/2010","lastSurvey":"16/09/2024"}},{"type":"Feature","geometry":{"type":"Point","coordinates":[-1.622164,53.244935]},"properties":{"siteId":"3556","name":"Baslow","waterbody":"GB104028057880","region":"Midlands","area":"East","totalSurveys":2,"speciesCount":6,"firstSurvey":"28/01/1998","lastSurvey":"15/06/2005"}},{"type":"Feature","geometry":{"type":"Point","coordinates":[-1.488874,53.028989]},"properties":{"siteId":"70563","name":"Belper Weir Salmon Parr","waterbody":null,"region":"Midlands","area":"East","totalSurveys":2,"speciesCount":6,"firstSurvey":"17/10/2017","lastSurvey":"10/09/2018"}},{"type":"Feature","geometry":{"type":"Point","coordinates":[-1.635845,53.303324]},"properties":{"siteId":"48506","name":"Derwent Confluence","waterbody":"GB104028057880","region":"Midlands","area":"East","totalSurveys":1,"speciesCount":2,"firstSurvey":"03/06/2013","lastSurvey":"03/06/2013"}},{"type":"Feature","geometry":{"type":"Point","coordinates":[-1.605436,53.328495]},"properties":{"siteId":"48505","name":"DS Plantation","waterbody":"GB104027057750","region":"Midlands","area":"East","totalSurveys":1,"speciesCount":1,"firstSurvey":"03/06/2013","lastSurvey":"03/06/2013"}},{"type":"Feature","geometry":{"type":"Point","coordinates":[-1.607944,53.338256]},"properties":{"siteId":"48504","name":"US Plantation","waterbody":"GB104027057750","region":"Midlands","area":"East","totalSurveys":1,"speciesCount":1,"firstSurvey":"03/06/2013","lastSurvey":"03/06/2013"}},{"type":"Feature","geometry":{"type":"Point","coordinates":[-1.547138,53.11215]},"properties":{"siteId":"60347","name":"Cromford Salmon Parr","waterbody":null,"region":"Midlands","area":"East","totalSurveys":4,"speciesCount":6,"firstSurvey":"04/09/2014","lastSurvey":"17/10/2017"}},{"type":"Feature","geometry":{"type":"Point","coordinates":[-1.56181,53.110533]},"properties":{"siteId":"76863","name":"Cromford Willersley Castle Salmon parr","waterbody":null,"region":"Midlands","area":"East","totalSurveys":1,"speciesCount":4,"firstSurvey":"26/08/2022","lastSurvey":"26/08/2022"}},{"type":"Feature","geometry":{"type":"Point","coordinates":[-1.561194,53.112364]},"properties":{"siteId":"3557","name":"Cromford","waterbody":"GB104028052390","region":"Midlands","area":"East","totalSurveys":14,"speciesCount":16,"firstSurvey":"26/02/1998","lastSurvey":"06/09/2018"}},{"type":"Feature","geometry":{"type":"Point","coordinates":[-1.63251,53.274038]},"properties":{"siteId":"36190","name":"DS Calver Weir","waterbody":"GB104028057880","region":"Midlands","area":"East","totalSurveys":1,"speciesCount":3,"firstSurvey":"18/10/2010","lastSurvey":"18/10/2010"}},{"type":"Feature","geometry":{"type":"Point","coordinates":[-1.744849,53.448989]},"properties":{"siteId":"37794","name":"DS Slippery Stones","waterbody":null,"region":"Midlands","area":"East","totalSurveys":1,"speciesCount":1,"firstSurvey":"21/06/2011","lastSurvey":"21/06/2011"}},{"type":"Feature","geometry":{"type":"Point","coordinates":[-1.541031,53.021974]},"properties":{"siteId":"36665","name":"Franker Brook","waterbody":"GB104028052720","region":"Midlands","area":"East","totalSurveys":4,"speciesCount":7,"firstSurvey":"06/09/2010","lastSurvey":"15/07/2025"}},{"type":"Feature","geometry":{"type":"Point","coordinates":[-1.573364,53.043426]},"properties":{"siteId":"38646","name":"Jebbs Lane","waterbody":"GB104028052720","region":"Midlands","area":"East","totalSurveys":4,"speciesCount":5,"firstSurvey":"09/08/2011","lastSurvey":"10/09/2024"}},{"type":"Feature","geometry":{"type":"Point","coordinates":[-1.564766,53.026252]},"properties":{"siteId":"38648","name":"Shelbourne Brook","waterbody":"GB104028052720","region":"Midlands","area":"East","totalSurveys":1,"speciesCount":3,"firstSurvey":"09/08/2011","lastSurvey":"09/08/2011"}},{"type":"Feature","geometry":{"type":"Point","coordinates":[-1.543351,53.014091]},"properties":{"siteId":"29642","name":"Turnditch (D/S)","waterbody":"GB104028052720","region":"Midlands","area":"East","totalSurveys":3,"speciesCount":6,"firstSurvey":"04/03/2008","lastSurvey":"06/09/2010"}},{"type":"Feature","geometry":{"type":"Point","coordinates":[-1.54504,53.016452]},"properties":{"siteId":"29643","name":"Turnditch (U/S)","waterbody":"GB104028052720","region":"Midlands","area":"East","totalSurveys":3,"speciesCount":6,"firstSurvey":"04/03/2008","lastSurvey":"06/09/2010"}},{"type":"Feature","geometry":{"type":"Point","coordinates":[-1.63482,53.298557]},"properties":{"siteId":"36191","name":"Grindleford","waterbody":"GB104028057880","region":"Midlands","area":"East","totalSurveys":1,"speciesCount":2,"firstSurvey":"18/10/2010","lastSurvey":"18/10/2010"}},{"type":"Feature","geometry":{"type":"Point","coordinates":[-1.65085,53.321841]},"properties":{"siteId":"3555","name":"Hathersage","waterbody":"GB104028057880","region":"Midlands","area":"East","totalSurveys":14,"speciesCount":9,"firstSurvey":"29/01/1998","lastSurvey":"14/09/2022"}},{"type":"Feature","geometry":{"type":"Point","coordinates":[-1.753702,53.464809]},"properties":{"siteId":"3548","name":"Howden Moor","waterbody":"GB104028057960","region":"Midlands","area":"East","totalSurveys":7,"speciesCount":1,"firstSurvey":"13/11/1997","lastSurvey":"17/09/2024"}},{"type":"Feature","geometry":{"type":"Point","coordinates":[-1.680011,53.383099]},"properties":{"siteId":"67846","name":"U/S Cutthroat Bridge","waterbody":null,"region":"Midlands","area":"East","totalSurveys":1,"speciesCount":1,"firstSurvey":"07/09/2016","lastSurvey":"07/09/2016"}},{"type":"Feature","geometry":{"type":"Point","coordinates":[-1.497925,53.073946]},"properties":{"siteId":"3558","name":"Matlock Bath","waterbody":"GB104028052390","region":"Midlands","area":"East","totalSurveys":7,"speciesCount":10,"firstSurvey":"29/04/1993","lastSurvey":"03/09/2006"}},{"type":"Feature","geometry":{"type":"Point","coordinates":[-1.794228,53.36647]},"properties":{"siteId":"28785","name":"Backtor Farm","waterbody":"GB104028057890","region":"Midlands","area":"East","totalSurveys":1,"speciesCount":2,"firstSurvey":"03/10/2007","lastSurvey":"03/10/2007"}},{"type":"Feature","geometry":{"type":"Point","coordinates":[-1.830956,53.359049]},"properties":{"siteId":"3571","name":"Barber Booth","waterbody":"GB104028057890","region":"Midlands","area":"East","totalSurveys":5,"speciesCount":2,"firstSurvey":"30/11/1995","lastSurvey":"18/09/2024"}},{"type":"Feature","geometry":{"type":"Point","coordinates":[-1.736487,53.332874]},"properties":{"siteId":"29101","name":"Bradwell","waterbody":"GB104028057850","region":"Midlands","area":"East","totalSurveys":4,"speciesCount":2,"firstSurvey":"02/10/2007","lastSurvey":"12/09/2024"}},{"type":"Feature","geometry":{"type":"Point","coordinates":[-1.759222,53.372832]},"properties":{"siteId":"3572","name":"Edale End","waterbody":"GB104028057890","region":"Midlands","area":"East","totalSurveys":5,"speciesCount":3,"firstSurvey":"29/11/1995","lastSurvey":"04/10/2007"}},{"type":"Feature","geometry":{"type":"Point","coordinates":[-1.750658,53.359439]},"properties":{"siteId":"3573","name":"Fullwood Stile","waterbody":"GB104028057890","region":"Midlands","area":"East","totalSurveys":19,"speciesCount":12,"firstSurvey":"29/11/1995","lastSurvey":"18/09/2024"}},{"type":"Feature","geometry":{"type":"Point","coordinates":[-1.737635,53.346485]},"properties":{"siteId":"81604","name":"Hope","waterbody":null,"region":"Midlands","area":"East","totalSurveys":1,"speciesCount":4,"firstSurvey":"24/09/2025","lastSurvey":"24/09/2025"}},{"type":"Feature","geometry":{"type":"Point","coordinates":[-1.759711,53.374118]},"properties":{"siteId":"3575","name":"National Trust","waterbody":"GB104028057890","region":"Midlands","area":"East","totalSurveys":6,"speciesCount":3,"firstSurvey":"30/11/2000","lastSurvey":"12/09/2024"}},{"type":"Feature","geometry":{"type":"Point","coordinates":[-1.735934,53.344693]},"properties":{"siteId":"61603","name":"Laneshill","waterbody":null,"region":"Midlands","area":"East","totalSurveys":1,"speciesCount":5,"firstSurvey":"13/09/2018","lastSurvey":"13/09/2018"}},{"type":"Feature","geometry":{"type":"Point","coordinates":[-1.769768,53.345949]},"properties":{"siteId":"81603","name":"DS Spital Bridge","waterbody":null,"region":"Midlands","area":"East","totalSurveys":1,"speciesCount":2,"firstSurvey":"23/09/2025","lastSurvey":"23/09/2025"}},{"type":"Feature","geometry":{"type":"Point","coordinates":[-1.744108,53.34676]},"properties":{"siteId":"3577","name":"Hope","waterbody":"GB104028057860","region":"Midlands","area":"East","totalSurveys":7,"speciesCount":5,"firstSurvey":"17/11/1999","lastSurvey":"12/09/2024"}},{"type":"Feature","geometry":{"type":"Point","coordinates":[-1.696194,53.339924]},"properties":{"siteId":"81605","name":"Shatton","waterbody":null,"region":"Midlands","area":"East","totalSurveys":1,"speciesCount":2,"firstSurvey":"24/09/2025","lastSurvey":"24/09/2025"}},{"type":"Feature","geometry":{"type":"Point","coordinates":[-1.612785,53.184967]},"properties":{"siteId":"81963","name":"Rowsley","waterbody":null,"region":"Midlands","area":"East","totalSurveys":1,"speciesCount":1,"firstSurvey":"08/10/2025","lastSurvey":"08/10/2025"}},{"type":"Feature","geometry":{"type":"Point","coordinates":[-1.745627,53.449799]},"properties":{"siteId":"3552","name":"Slippery Stones","waterbody":"GB104028057960","region":"Midlands","area":"East","totalSurveys":6,"speciesCount":1,"firstSurvey":"03/03/1993","lastSurvey":"26/09/2013"}},{"type":"Feature","geometry":{"type":"Point","coordinates":[-1.638905,53.274992]},"properties":{"siteId":"28931","name":"Calver Marshes","waterbody":"GB104028057880","region":"Midlands","area":"East","totalSurveys":4,"speciesCount":3,"firstSurvey":"01/11/2007","lastSurvey":"28/09/2010"}},{"type":"Feature","geometry":{"type":"Point","coordinates":[-1.6432,53.274286]},"properties":{"siteId":"28913","name":"Calver","waterbody":"GB104028057880","region":"Midlands","area":"East","totalSurveys":7,"speciesCount":2,"firstSurvey":"01/11/2007","lastSurvey":"18/09/2024"}},{"type":"Feature","geometry":{"type":"Point","coordinates":[-1.746888,53.452993]},"properties":{"siteId":"37793","name":"US Slippery Stones","waterbody":null,"region":"Midlands","area":"East","totalSurveys":1,"speciesCount":1,"firstSurvey":"21/06/2011","lastSurvey":"21/06/2011"}},{"type":"Feature","geometry":{"type":"Point","coordinates":[-1.586998,53.15564]},"properties":{"siteId":"38912","name":"Derwent Confluence","waterbody":"GB104028052390","region":"Midlands","area":"East","totalSurveys":1,"speciesCount":5,"firstSurvey":"30/08/2011","lastSurvey":"30/08/2011"}},{"type":"Feature","geometry":{"type":"Point","coordinates":[-1.768448,53.431527]},"properties":{"siteId":"37792","name":"DS Foxes Piece","waterbody":null,"region":"Midlands","area":"East","totalSurveys":1,"speciesCount":1,"firstSurvey":"21/06/2011","lastSurvey":"21/06/2011"}},{"type":"Feature","geometry":{"type":"Point","coordinates":[-1.770866,53.432467]},"properties":{"siteId":"3567","name":"Foxs Piece","waterbody":"GB104028057950","region":"Midlands","area":"East","totalSurveys":8,"speciesCount":1,"firstSurvey":"17/10/1996","lastSurvey":"17/09/2024"}},{"type":"Feature","geometry":{"type":"Point","coordinates":[-1.905746,53.25915]},"properties":{"siteId":"14637","name":"Ashwood Park","waterbody":"GB104028058460","region":"Midlands","area":"East","totalSurveys":3,"speciesCount":2,"firstSurvey":"08/06/2005","lastSurvey":"06/08/2015"}},{"type":"Feature","geometry":{"type":"Point","coordinates":[-1.937248,53.253939]},"properties":{"siteId":"65704","name":"Buxton at Bridge Farm","waterbody":null,"region":"Midlands","area":"East","totalSurveys":1,"speciesCount":2,"firstSurvey":"06/08/2015","lastSurvey":"06/08/2015"}},{"type":"Feature","geometry":{"type":"Point","coordinates":[-1.61905,53.187226]},"properties":{"siteId":"58083","name":"Caudwell Mill","waterbody":"GB104028057820","region":"Midlands","area":"East","totalSurveys":3,"speciesCount":7,"firstSurvey":"20/08/2014","lastSurvey":"15/09/2023"}},{"type":"Feature","geometry":{"type":"Point","coordinates":[-1.821966,53.251738]},"properties":{"siteId":"24102","name":"Chee Dale","waterbody":"GB104028058460","region":"Midlands","area":"East","totalSurveys":1,"speciesCount":3,"firstSurvey":"06/10/2009","lastSurvey":"06/10/2009"}},{"type":"Feature","geometry":{"type":"Point","coordinates":[-1.639584,53.188755]},"properties":{"siteId":"3582","name":"Haddon Hall","waterbody":"GB104028057820","region":"Midlands","area":"East","totalSurveys":1,"speciesCount":4,"firstSurvey":"10/06/2005","lastSurvey":"10/06/2005"}},{"type":"Feature","geometry":{"type":"Point","coordinates":[-1.668948,53.178925]},"properties":{"siteId":"3584","name":"Alport","waterbody":"GB104028053460","region":"Midlands","area":"East","totalSurveys":3,"speciesCount":6,"firstSurvey":"06/06/2007","lastSurvey":"28/08/2015"}},{"type":"Feature","geometry":{"type":"Point","coordinates":[-1.674776,53.175894]},"properties":{"siteId":"39167","name":"Rheinstor Rock","waterbody":"GB104028053450","region":"Midlands","area":"East","totalSurveys":3,"speciesCount":7,"firstSurvey":"08/09/2011","lastSurvey":"27/08/2021"}},{"type":"Feature","geometry":{"type":"Point","coordinates":[-1.64223,53.187378]},"properties":{"siteId":"14636","name":"Congreave","waterbody":"GB104028053460","region":"Midlands","area":"East","totalSurveys":1,"speciesCount":2,"firstSurvey":"10/06/2005","lastSurvey":"10/06/2005"}},{"type":"Feature","geometry":{"type":"Point","coordinates":[-1.644963,53.18442]},"properties":{"siteId":"33937","name":"D/S of Bowers Hall","waterbody":"GB104028053460","region":"Midlands","area":"East","totalSurveys":1,"speciesCount":3,"firstSurvey":"06/10/2009","lastSurvey":"06/10/2009"}},{"type":"Feature","geometry":{"type":"Point","coordinates":[-1.709984,53.190834]},"properties":{"siteId":"49763","name":"Lathkill Dale","waterbody":"GB104028058450","region":"Midlands","area":"East","totalSurveys":1,"speciesCount":1,"firstSurvey":"01/08/2013","lastSurvey":"01/08/2013"}},{"type":"Feature","geometry":{"type":"Point","coordinates":[-1.67577,53.17898]},"properties":{"siteId":"28540","name":"U/S of Alport","waterbody":"GB104028058450","region":"Midlands","area":"East","totalSurveys":1,"speciesCount":2,"firstSurvey":"17/09/2007","lastSurvey":"17/09/2007"}},{"type":"Feature","geometry":{"type":"Point","coordinates":[-1.799224,53.25607]},"properties":{"siteId":"3581","name":"Millers Dale","waterbody":"GB104028058460","region":"Midlands","area":"East","totalSurveys":17,"speciesCount":3,"firstSurvey":"15/02/1999","lastSurvey":"28/08/2025"}},{"type":"Feature","geometry":{"type":"Point","coordinates":[-1.742436,53.240051]},"properties":{"siteId":"28541","name":"Monsal Dale","waterbody":"GB104028057820","region":"Midlands","area":"East","totalSurveys":3,"speciesCount":3,"firstSurvey":"13/07/2007","lastSurvey":"24/08/2015"}},{"type":"Feature","geometry":{"type":"Point","coordinates":[-1.924098,53.25688]},"properties":{"siteId":"3579","name":"Pavillon Gardens","waterbody":"GB104028058460","region":"Midlands","area":"East","totalSurveys":2,"speciesCount":2,"firstSurvey":"31/10/1995","lastSurvey":"02/02/1998"}},{"type":"Feature","geometry":{"type":"Point","coordinates":[-1.847259,53.249202]},"properties":{"siteId":"3580","name":"Wye Dale","waterbody":"GB104028058460","region":"Midlands","area":"East","totalSurveys":4,"speciesCount":3,"firstSurvey":"23/11/1995","lastSurvey":"21/08/2009"}},{"type":"Feature","geometry":{"type":"Point","coordinates":[-1.481652,53.036895]},"properties":{"siteId":"3561","name":"Wyver Lane","waterbody":"GB104028052310","region":"Midlands","area":"East","totalSurveys":2,"speciesCount":3,"firstSurvey":"09/02/1998","lastSurvey":"18/05/2005"}},{"type":"Feature","geometry":{"type":"Point","coordinates":[-1.703479,53.359214]},"properties":{"siteId":"3554","name":"Yorkshire Bridge","waterbody":"GB104028057880","region":"Midlands","area":"East","totalSurveys":10,"speciesCount":5,"firstSurvey":"31/01/1996","lastSurvey":"14/09/2018"}},{"type":"Feature","geometry":{"type":"Point","coordinates":[-1.029376,53.025409]},"properties":{"siteId":"3663","name":"Epperstone Wash Bridge","waterbody":"GB104028053370","region":"Midlands","area":"East","totalSurveys":3,"speciesCount":15,"firstSurvey":"09/02/1989","lastSurvey":"15/07/2002"}},{"type":"Feature","geometry":{"type":"Point","coordinates":[-1.308736,53.022649]},"properties":{"siteId":"64704","name":"Hall Park","waterbody":null,"region":"Midlands","area":"East","totalSurveys":1,"speciesCount":5,"firstSurvey":"26/06/2015","lastSurvey":"26/06/2015"}},{"type":"Feature","geometry":{"type":"Point","coordinates":[-1.330242,53.081814]},"properties":{"siteId":"3654","name":"Pinxton","waterbody":"GB104028052740","region":"Midlands","area":"East","totalSurveys":5,"speciesCount":9,"firstSurvey":"02/10/1997","lastSurvey":"25/08/2022"}},{"type":"Feature","geometry":{"type":"Point","coordinates":[-1.312512,53.004594]},"properties":{"siteId":"35050","name":"Shipley Gate","waterbody":"GB104028052510","region":"Midlands","area":"East","totalSurveys":4,"speciesCount":14,"firstSurvey":"20/05/2010","lastSurvey":"25/08/2022"}},{"type":"Feature","geometry":{"type":"Point","coordinates":[-1.334911,53.041388]},"properties":{"siteId":"3653","name":"Stoneyford","waterbody":"GB104028052740","region":"Midlands","area":"East","totalSurveys":5,"speciesCount":11,"firstSurvey":"24/09/1997","lastSurvey":"25/08/2022"}},{"type":"Feature","geometry":{"type":"Point","coordinates":[-1.014173,53.427685]},"properties":{"siteId":"3679","name":"Bawtry","waterbody":"GB104028058110","region":"Midlands","area":"East","totalSurveys":17,"speciesCount":26,"firstSurvey":"28/01/1983","lastSurvey":"23/08/2024"}},{"type":"Feature","geometry":{"type":"Point","coordinates":[-1.041238,53.196321]},"properties":{"siteId":"37406","name":"Carr Breck Farm","waterbody":"GB104028058040","region":"Midlands","area":"East","totalSurveys":1,"speciesCount":5,"firstSurvey":"19/05/2011","lastSurvey":"19/05/2011"}},{"type":"Feature","geometry":{"type":"Point","coordinates":[-1.12396,53.177765]},"properties":{"siteId":"3689","name":"Cavendish Bridge","waterbody":"GB104028052960","region":"Midlands","area":"East","totalSurveys":5,"speciesCount":7,"firstSurvey":"07/12/1989","lastSurvey":"20/05/2011"}},{"type":"Feature","geometry":{"type":"Point","coordinates":[-1.179383,53.159606]},"properties":{"siteId":"3690","name":"Maun Valley Park","waterbody":"GB104028052960","region":"Midlands","area":"East","totalSurveys":1,"speciesCount":3,"firstSurvey":"08/06/2011","lastSurvey":"08/06/2011"}},{"type":"Feature","geometry":{"type":"Point","coordinates":[-1.207323,53.135147]},"properties":{"siteId":"65723","name":"Mill Lane","waterbody":null,"region":"Midlands","area":"East","totalSurveys":1,"speciesCount":4,"firstSurvey":"09/07/2015","lastSurvey":"09/07/2015"}},{"type":"Feature","geometry":{"type":"Point","coordinates":[-1.041379,53.155079]},"properties":{"siteId":"37567","name":"Cutts Wood","waterbody":"GB104028052940","region":"Midlands","area":"East","totalSurveys":1,"speciesCount":4,"firstSurvey":"08/06/2011","lastSurvey":"08/06/2011"}},{"type":"Feature","geometry":{"type":"Point","coordinates":[-1.033025,53.18348]},"properties":{"siteId":"65703","name":"Rufford Mill","waterbody":null,"region":"Midlands","area":"East","totalSurveys":2,"speciesCount":9,"firstSurvey":"09/07/2015","lastSurvey":"24/07/2025"}},{"type":"Feature","geometry":{"type":"Point","coordinates":[-1.03457,53.17196]},"properties":{"siteId":"37767","name":"US Rufford Park","waterbody":"GB104028052940","region":"Midlands","area":"East","totalSurveys":1,"speciesCount":2,"firstSurvey":"17/06/2011","lastSurvey":"17/06/2011"}},{"type":"Feature","geometry":{"type":"Point","coordinates":[-1.166909,53.16583]},"properties":{"siteId":"77403","name":"Spa Lane","waterbody":null,"region":"Midlands","area":"East","totalSurveys":1,"speciesCount":1,"firstSurvey":"31/08/2022","lastSurvey":"31/08/2022"}},{"type":"Feature","geometry":{"type":"Point","coordinates":[-1.005791,53.228059]},"properties":{"siteId":"3688","name":"Whitewater Bridge","waterbody":"GB104028058080","region":"Midlands","area":"East","totalSurveys":11,"speciesCount":13,"firstSurvey":"07/11/1995","lastSurvey":"23/06/2023"}},{"type":"Feature","geometry":{"type":"Point","coordinates":[-1.074752,53.224883]},"properties":{"siteId":"3694","name":"Budby","waterbody":"GB104028058060","region":"Midlands","area":"East","totalSurveys":8,"speciesCount":14,"firstSurvey":"22/01/1992","lastSurvey":"20/06/2006"}},{"type":"Feature","geometry":{"type":"Point","coordinates":[-1.14289,53.212916]},"properties":{"siteId":"3696","name":"Church Warsop","waterbody":"GB104028058060","region":"Midlands","area":"East","totalSurveys":4,"speciesCount":9,"firstSurvey":"05/02/1992","lastSurvey":"08/07/2003"}},{"type":"Feature","geometry":{"type":"Point","coordinates":[-1.168922,53.202565]},"properties":{"siteId":"37426","name":"Hammerwater Bridge","waterbody":"GB104028058020","region":"Midlands","area":"East","totalSurveys":1,"speciesCount":3,"firstSurvey":"20/05/2011","lastSurvey":"20/05/2011"}},{"type":"Feature","geometry":{"type":"Point","coordinates":[-1.21092,53.181133]},"properties":{"siteId":"67084","name":"Littlewood (Northfield Plantation)","waterbody":null,"region":"Midlands","area":"East","totalSurveys":1,"speciesCount":4,"firstSurvey":"02/06/2016","lastSurvey":"02/06/2016"}},{"type":"Feature","geometry":{"type":"Point","coordinates":[-1.128071,53.220764]},"properties":{"siteId":"3695","name":"Meden Vale","waterbody":"GB104028058060","region":"Midlands","area":"East","totalSurveys":11,"speciesCount":13,"firstSurvey":"10/10/1995","lastSurvey":"03/06/2010"}},{"type":"Feature","geometry":{"type":"Point","coordinates":[-1.03219,53.233858]},"properties":{"siteId":"35090","name":"Perlethorpe Gauging Weir","waterbody":"GB104028058060","region":"Midlands","area":"East","totalSurveys":3,"speciesCount":15,"firstSurvey":"03/06/2010","lastSurvey":"23/05/2013"}},{"type":"Feature","geometry":{"type":"Point","coordinates":[-1.245236,53.173148]},"properties":{"siteId":"67083","name":"Pleasley Village","waterbody":null,"region":"Midlands","area":"East","totalSurveys":1,"speciesCount":4,"firstSurvey":"02/06/2016","lastSurvey":"02/06/2016"}},{"type":"Feature","geometry":{"type":"Point","coordinates":[-1.151666,53.209113]},"properties":{"siteId":"55884","name":"The Carrs","waterbody":"GB104028058060","region":"Midlands","area":"East","totalSurveys":1,"speciesCount":6,"firstSurvey":"13/05/2014","lastSurvey":"13/05/2014"}},{"type":"Feature","geometry":{"type":"Point","coordinates":[-1.019967,53.23899]},"properties":{"siteId":"3693","name":"Thoresby","waterbody":"GB104028058060","region":"Midlands","area":"East","totalSurveys":6,"speciesCount":11,"firstSurvey":"28/11/1991","lastSurvey":"27/05/2009"}},{"type":"Feature","geometry":{"type":"Point","coordinates":[-1.241618,53.178132]},"properties":{"siteId":"53743","name":"US Pleasley Vale","waterbody":"GB104028058020","region":"Midlands","area":"East","totalSurveys":2,"speciesCount":5,"firstSurvey":"13/05/2014","lastSurvey":"02/06/2016"}},{"type":"Feature","geometry":{"type":"Point","coordinates":[-1.085315,53.251456]},"properties":{"siteId":"3700","name":"Carburton","waterbody":"GB104028058140","region":"Midlands","area":"East","totalSurveys":7,"speciesCount":13,"firstSurvey":"21/11/1991","lastSurvey":"13/07/2015"}},{"type":"Feature","geometry":{"type":"Point","coordinates":[-1.21029,53.226802]},"properties":{"siteId":"3702","name":"Langwith","waterbody":"GB104028058130","region":"Midlands","area":"East","totalSurveys":3,"speciesCount":4,"firstSurvey":"22/10/1996","lastSurvey":"18/07/2007"}},{"type":"Feature","geometry":{"type":"Point","coordinates":[-1.202267,53.261132]},"properties":{"siteId":"65726","name":"Creswell Crags","waterbody":null,"region":"Midlands","area":"East","totalSurveys":2,"speciesCount":3,"firstSurvey":"22/09/2015","lastSurvey":"22/05/2025"}},{"type":"Feature","geometry":{"type":"Point","coordinates":[-1.21029,53.226802]},"properties":{"siteId":"3703","name":"Nether Langwith","waterbody":"GB104028058130","region":"Midlands","area":"East","totalSurveys":4,"speciesCount":5,"firstSurvey":"02/06/1993","lastSurvey":"30/06/2015"}},{"type":"Feature","geometry":{"type":"Point","coordinates":[-1.142859,53.240755]},"properties":{"siteId":"3701","name":"Norton","waterbody":"GB104028058130","region":"Midlands","area":"East","totalSurveys":3,"speciesCount":6,"firstSurvey":"26/05/1993","lastSurvey":"24/06/2002"}},{"type":"Feature","geometry":{"type":"Point","coordinates":[-1.033033,53.327397]},"properties":{"siteId":"3708","name":"Chequer Bridge","waterbody":"GB104028058101","region":"Midlands","area":"East","totalSurveys":6,"speciesCount":7,"firstSurvey":"13/10/2000","lastSurvey":"27/06/2006"}},{"type":"Feature","geometry":{"type":"Point","coordinates":[-1.133117,53.391295]},"properties":{"siteId":"64664","name":"Yews Mill","waterbody":null,"region":"Midlands","area":"East","totalSurveys":2,"speciesCount":5,"firstSurvey":"13/05/2015","lastSurvey":"21/07/2025"}},{"type":"Feature","geometry":{"type":"Point","coordinates":[-1.168232,53.329386]},"properties":{"siteId":"64643","name":"Potters Nook Bridge","waterbody":null,"region":"Midlands","area":"East","totalSurveys":1,"speciesCount":4,"firstSurvey":"13/05/2015","lastSurvey":"13/05/2015"}},{"type":"Feature","geometry":{"type":"Point","coordinates":[-1.065333,53.360913]},"properties":{"siteId":"3707","name":"Red Bridge Hodsock","waterbody":"GB104028058101","region":"Midlands","area":"East","totalSurveys":8,"speciesCount":12,"firstSurvey":"06/02/1992","lastSurvey":"27/06/2006"}},{"type":"Feature","geometry":{"type":"Point","coordinates":[-1.05255,53.31665]},"properties":{"siteId":"3709","name":"Scofton","waterbody":"GB104028058101","region":"Midlands","area":"East","totalSurveys":11,"speciesCount":12,"firstSurvey":"18/03/1992","lastSurvey":"21/07/2025"}},{"type":"Feature","geometry":{"type":"Point","coordinates":[-1.024998,53.416322]},"properties":{"siteId":"3705","name":"Scrooby","waterbody":"GB104028058102","region":"Midlands","area":"East","totalSurveys":8,"speciesCount":12,"firstSurvey":"30/01/1992","lastSurvey":"28/06/2006"}},{"type":"Feature","geometry":{"type":"Point","coordinates":[-1.04482,53.400608]},"properties":{"siteId":"3706","name":"Serlby","waterbody":"GB104028058101","region":"Midlands","area":"East","totalSurveys":8,"speciesCount":17,"firstSurvey":"19/10/1999","lastSurvey":"06/07/2017"}},{"type":"Feature","geometry":{"type":"Point","coordinates":[-1.168536,53.331492]},"properties":{"siteId":"3710","name":"Shireoaks","waterbody":"GB104028058101","region":"Midlands","area":"East","totalSurveys":3,"speciesCount":6,"firstSurvey":"23/01/1992","lastSurvey":"12/10/1999"}},{"type":"Feature","geometry":{"type":"Point","coordinates":[-1.186027,53.019311]},"properties":{"siteId":"76063","name":"Bayles Mill (Bulwell)","waterbody":null,"region":"Midlands","area":"East","totalSurveys":1,"speciesCount":10,"firstSurvey":"13/07/1982","lastSurvey":"13/07/1982"}},{"type":"Feature","geometry":{"type":"Point","coordinates":[-1.185976,53.022008]},"properties":{"siteId":"76123","name":"Bulwell Tip","waterbody":null,"region":"Midlands","area":"East","totalSurveys":1,"speciesCount":3,"firstSurvey":"09/11/1973","lastSurvey":"09/11/1973"}},{"type":"Feature","geometry":{"type":"Point","coordinates":[-1.197167,53.061637]},"properties":{"siteId":"76104","name":"D/S Quarry Bank","waterbody":null,"region":"Midlands","area":"East","totalSurveys":1,"speciesCount":9,"firstSurvey":"12/09/1985","lastSurvey":"12/09/1985"}},{"type":"Feature","geometry":{"type":"Point","coordinates":[-1.183977,53.048962]},"properties":{"siteId":"76043","name":"Grange Farm","waterbody":null,"region":"Midlands","area":"East","totalSurveys":2,"speciesCount":13,"firstSurvey":"17/10/1984","lastSurvey":"11/09/1985"}},{"type":"Feature","geometry":{"type":"Point","coordinates":[-1.184246,53.047355]},"properties":{"siteId":"3660","name":"Papplewick","waterbody":"GB104028052880","region":"Midlands","area":"East","totalSurveys":5,"speciesCount":14,"firstSurvey":"13/06/1995","lastSurvey":"29/07/2022"}},{"type":"Feature","geometry":{"type":"Point","coordinates":[-1.203069,53.065272]},"properties":{"siteId":"76105","name":"Quarry Bank","waterbody":null,"region":"Midlands","area":"East","totalSurveys":1,"speciesCount":5,"firstSurvey":"12/09/1985","lastSurvey":"12/09/1985"}},{"type":"Feature","geometry":{"type":"Point","coordinates":[-1.182859,53.029178]},"properties":{"siteId":"76084","name":"U/S Bestwood Park Lake","waterbody":null,"region":"Midlands","area":"East","totalSurveys":2,"speciesCount":9,"firstSurvey":"17/10/1984","lastSurvey":"11/09/1985"}},{"type":"Feature","geometry":{"type":"Point","coordinates":[-1.201544,53.06706]},"properties":{"siteId":"76103","name":"U/S Quarry Bank","waterbody":null,"region":"Midlands","area":"East","totalSurveys":1,"speciesCount":3,"firstSurvey":"12/09/1985","lastSurvey":"12/09/1985"}},{"type":"Feature","geometry":{"type":"Point","coordinates":[-1.183994,53.048063]},"properties":{"siteId":"76044","name":"Warp Mill Bridge","waterbody":null,"region":"Midlands","area":"East","totalSurveys":2,"speciesCount":11,"firstSurvey":"17/10/1984","lastSurvey":"11/09/1985"}},{"type":"Feature","geometry":{"type":"Point","coordinates":[-1.179792,53.033651]},"properties":{"siteId":"76124","name":"West View Farm Papplewick","waterbody":null,"region":"Midlands","area":"East","totalSurveys":1,"speciesCount":3,"firstSurvey":"09/11/1973","lastSurvey":"09/11/1973"}},{"type":"Feature","geometry":{"type":"Point","coordinates":[-1.042223,53.494116]},"properties":{"siteId":"48764","name":"Hayfield Lakes","waterbody":"GB104028064340","region":"Midlands","area":"East","totalSurveys":1,"speciesCount":5,"firstSurvey":"24/05/2013","lastSurvey":"24/05/2013"}},{"type":"Feature","geometry":{"type":"Point","coordinates":[-1.055192,53.489105]},"properties":{"siteId":"40008","name":"Rossington","waterbody":"GB104028058440","region":"Midlands","area":"East","totalSurveys":2,"speciesCount":13,"firstSurvey":"13/10/2011","lastSurvey":"05/05/2016"}},{"type":"Feature","geometry":{"type":"Point","coordinates":[-1.054878,53.48699]},"properties":{"siteId":"3729","name":"Rossington","waterbody":"GB104028058410","region":"Midlands","area":"East","totalSurveys":10,"speciesCount":15,"firstSurvey":"19/03/1992","lastSurvey":"28/05/2025"}},{"type":"Feature","geometry":{"type":"Point","coordinates":[-1.176246,53.789001]},"properties":{"siteId":"76743","name":"Selby Dam at Low Rest Park Farm","waterbody":null,"region":"Yorkshire and North East","area":"Yorkshire","totalSurveys":2,"speciesCount":5,"firstSurvey":"24/06/2022","lastSurvey":"11/06/2024"}},{"type":"Feature","geometry":{"type":"Point","coordinates":[-1.107613,53.779387]},"properties":{"siteId":"45354","name":"Selby Dam at Meadway","waterbody":"GB104027063620","region":"Yorkshire and North East","area":"Yorkshire","totalSurveys":4,"speciesCount":9,"firstSurvey":"09/08/2011","lastSurvey":"14/06/2016"}},{"type":"Feature","geometry":{"type":"Point","coordinates":[-1.099414,53.861056]},"properties":{"siteId":"44701","name":"Stillingfleet eel survey","waterbody":"GB104027063710","region":"Yorkshire and North East","area":"Yorkshire","totalSurveys":5,"speciesCount":18,"firstSurvey":"07/06/2010","lastSurvey":"05/08/2024"}},{"type":"Feature","geometry":{"type":"Point","coordinates":[-1.890447,53.93003]},"properties":{"siteId":"42107","name":"Tophill Low - Fry Survey","waterbody":null,"region":"Yorkshire and North East","area":"Yorkshire","totalSurveys":2,"speciesCount":7,"firstSurvey":"22/09/1989","lastSurvey":"17/09/1990"}},{"type":"Feature","geometry":{"type":"Point","coordinates":[-1.061515,53.997889]},"properties":{"siteId":"70927","name":"River Foss at Huntington Church","waterbody":null,"region":"Yorkshire and North East","area":"Yorkshire","totalSurveys":1,"speciesCount":7,"firstSurvey":"13/08/2019","lastSurvey":"13/08/2019"}},{"type":"Feature","geometry":{"type":"Point","coordinates":[-1.177312,53.78962]},"properties":{"siteId":"39272","name":"Selby Dam at Fairview Kennels","waterbody":"GB104027063620","region":"Yorkshire and North East","area":"Yorkshire","totalSurveys":1,"speciesCount":3,"firstSurvey":"09/08/2011","lastSurvey":"09/08/2011"}},{"type":"Feature","geometry":{"type":"Point","coordinates":[-1.06854,53.786029]},"properties":{"siteId":"39270","name":"Selby Dam at Pumping station","waterbody":"GB104027063620","region":"Yorkshire and North East","area":"Yorkshire","totalSurveys":1,"speciesCount":8,"firstSurvey":"09/08/2011","lastSurvey":"09/08/2011"}},{"type":"Feature","geometry":{"type":"Point","coordinates":[-1.107613,53.779387]},"properties":{"siteId":"39271","name":"Selby Dam D/S Thorpe Hall","waterbody":"GB104027063620","region":"Yorkshire and North East","area":"Yorkshire","totalSurveys":1,"speciesCount":4,"firstSurvey":"09/08/2011","lastSurvey":"09/08/2011"}},{"type":"Feature","geometry":{"type":"Point","coordinates":[-1.099399,53.861065]},"properties":{"siteId":"34958","name":"Stillingfleet Beck at Stillingfleet Bridge","waterbody":"GB104027063710","region":"Yorkshire and North East","area":"Yorkshire","totalSurveys":2,"speciesCount":7,"firstSurvey":"07/06/2010","lastSurvey":"28/06/2012"}},{"type":"Feature","geometry":{"type":"Point","coordinates":[-1.182525,53.987367]},"properties":{"siteId":"26495","name":"The Foss at Scagglethorpe Bridge","waterbody":"GB104027063750","region":"Yorkshire and North East","area":"Yorkshire","totalSurveys":3,"speciesCount":8,"firstSurvey":"14/06/2007","lastSurvey":"26/06/2013"}},{"type":"Feature","geometry":{"type":"Point","coordinates":[-1.220899,53.97414]},"properties":{"siteId":"26496","name":"The Foss nr Glebe Farm","waterbody":"GB104027063730","region":"Yorkshire and North East","area":"Yorkshire","totalSurveys":2,"speciesCount":1,"firstSurvey":"14/06/2007","lastSurvey":"26/06/2013"}},{"type":"Feature","geometry":{"type":"Point","coordinates":[-1.77146,53.834637]},"properties":{"siteId":"36763","name":"A657 road bridge","waterbody":"GB104027062860","region":"Yorkshire and North East","area":"Yorkshire","totalSurveys":3,"speciesCount":3,"firstSurvey":"15/08/2011","lastSurvey":"25/08/2022"}},{"type":"Feature","geometry":{"type":"Point","coordinates":[-1.791988,53.79493]},"properties":{"siteId":"28993","name":"Cemetery Road","waterbody":"GB104027062860","region":"Yorkshire and North East","area":"Yorkshire","totalSurveys":11,"speciesCount":2,"firstSurvey":"28/09/2007","lastSurvey":"29/08/2024"}},{"type":"Feature","geometry":{"type":"Point","coordinates":[-1.810904,53.791303]},"properties":{"siteId":"60044","name":"Leaventhorpe Lane Stables","waterbody":"GB104027062860","region":"Yorkshire and North East","area":"Yorkshire","totalSurveys":2,"speciesCount":2,"firstSurvey":"12/08/2014","lastSurvey":"13/09/2023"}},{"type":"Feature","geometry":{"type":"Point","coordinates":[-1.810124,53.792686]},"properties":{"siteId":"37167","name":"d/s Leaventhorpe Lane","waterbody":"GB104027062860","region":"Yorkshire and North East","area":"Yorkshire","totalSurveys":2,"speciesCount":3,"firstSurvey":"15/08/2011","lastSurvey":"13/09/2023"}},{"type":"Feature","geometry":{"type":"Point","coordinates":[-1.844805,53.880395]},"properties":{"siteId":"28995","name":"Botany","waterbody":"GB104027062950","region":"Yorkshire and North East","area":"Yorkshire","totalSurveys":4,"speciesCount":1,"firstSurvey":"28/09/2007","lastSurvey":"11/09/2023"}},{"type":"Feature","geometry":{"type":"Point","coordinates":[-1.850249,53.863945]},"properties":{"siteId":"45344","name":"Morton Lane","waterbody":"GB104027062950","region":"Yorkshire and North East","area":"Yorkshire","totalSurveys":2,"speciesCount":6,"firstSurvey":"30/09/2012","lastSurvey":"11/09/2023"}},{"type":"Feature","geometry":{"type":"Point","coordinates":[-1.98018,53.899367]},"properties":{"siteId":"29016","name":"Eastburn Beck","waterbody":"GB104027062960","region":"Yorkshire and North East","area":"Yorkshire","totalSurveys":2,"speciesCount":3,"firstSurvey":"23/08/2007","lastSurvey":"08/09/2014"}},{"type":"Feature","geometry":{"type":"Point","coordinates":[-1.992966,53.975881]},"properties":{"siteId":"68065","name":"D/S Skipton Road","waterbody":null,"region":"Yorkshire and North East","area":"Yorkshire","totalSurveys":1,"speciesCount":4,"firstSurvey":"13/09/2016","lastSurvey":"13/09/2016"}},{"type":"Feature","geometry":{"type":"Point","coordinates":[-1.996518,53.982577]},"properties":{"siteId":"70144","name":"Embsay Beck Reach 1","waterbody":null,"region":"Yorkshire and North East","area":"Yorkshire","totalSurveys":1,"speciesCount":2,"firstSurvey":"24/08/2017","lastSurvey":"24/08/2017"}},{"type":"Feature","geometry":{"type":"Point","coordinates":[-1.996823,53.983557]},"properties":{"siteId":"70145","name":"Embsay Beck Reach 2","waterbody":null,"region":"Yorkshire and North East","area":"Yorkshire","totalSurveys":1,"speciesCount":2,"firstSurvey":"24/08/2017","lastSurvey":"24/08/2017"}},{"type":"Feature","geometry":{"type":"Point","coordinates":[-1.997372,53.984258]},"properties":{"siteId":"70146","name":"Embsay Beck Reach 3","waterbody":null,"region":"Yorkshire and North East","area":"Yorkshire","totalSurveys":1,"speciesCount":2,"firstSurvey":"24/08/2017","lastSurvey":"24/08/2017"}},{"type":"Feature","geometry":{"type":"Point","coordinates":[-1.99696,53.981229]},"properties":{"siteId":"32972","name":"Pasture Road","waterbody":"GB104027063060","region":"Yorkshire and North East","area":"Yorkshire","totalSurveys":3,"speciesCount":2,"firstSurvey":"07/08/2009","lastSurvey":"13/09/2016"}},{"type":"Feature","geometry":{"type":"Point","coordinates":[-1.998119,53.974021]},"properties":{"siteId":"36768","name":"Skipton Road Bridge","waterbody":"GB104027063060","region":"Yorkshire and North East","area":"Yorkshire","totalSurveys":2,"speciesCount":4,"firstSurvey":"14/08/2014","lastSurvey":"25/08/2022"}},{"type":"Feature","geometry":{"type":"Point","coordinates":[-1.996884,53.982011]},"properties":{"siteId":"68064","name":"U/S Pasture Road","waterbody":null,"region":"Yorkshire and North East","area":"Yorkshire","totalSurveys":1,"speciesCount":0,"firstSurvey":"13/09/2016","lastSurvey":"13/09/2016"}},{"type":"Feature","geometry":{"type":"Point","coordinates":[-1.752653,53.859685]},"properties":{"siteId":"68063","name":"Cricket Club","waterbody":null,"region":"Yorkshire and North East","area":"Yorkshire","totalSurveys":1,"speciesCount":2,"firstSurvey":"19/09/2016","lastSurvey":"19/09/2016"}},{"type":"Feature","geometry":{"type":"Point","coordinates":[-1.737821,53.85373]},"properties":{"siteId":"68824","name":"Esholt Lane","waterbody":null,"region":"Yorkshire and North East","area":"Yorkshire","totalSurveys":1,"speciesCount":5,"firstSurvey":"14/09/2023","lastSurvey":"14/09/2023"}},{"type":"Feature","geometry":{"type":"Point","coordinates":[-1.768335,53.877845]},"properties":{"siteId":"68067","name":"Jum Beck","waterbody":null,"region":"Yorkshire and North East","area":"Yorkshire","totalSurveys":1,"speciesCount":1,"firstSurvey":"19/09/2016","lastSurvey":"19/09/2016"}},{"type":"Feature","geometry":{"type":"Point","coordinates":[-1.77032,53.868169]},"properties":{"siteId":"28946","name":"Moor Valley Caravan Park","waterbody":"GB104027062940","region":"Yorkshire and North East","area":"Yorkshire","totalSurveys":3,"speciesCount":2,"firstSurvey":"09/09/2014","lastSurvey":"14/09/2023"}},{"type":"Feature","geometry":{"type":"Point","coordinates":[-1.742933,53.85544]},"properties":{"siteId":"68825","name":"Tong Park Industrial Estate","waterbody":null,"region":"Yorkshire and North East","area":"Yorkshire","totalSurveys":1,"speciesCount":2,"firstSurvey":"14/09/2023","lastSurvey":"14/09/2023"}},{"type":"Feature","geometry":{"type":"Point","coordinates":[-1.841905,53.842642]},"properties":{"siteId":"11941","name":"Beckfoot Lane (Ford)","waterbody":"GB104027062870","region":"Yorkshire and North East","area":"Yorkshire","totalSurveys":11,"speciesCount":9,"firstSurvey":"04/10/2000","lastSurvey":"02/10/2023"}},{"type":"Feature","geometry":{"type":"Point","coordinates":[-1.844948,53.841747]},"properties":{"siteId":"28998","name":"Beckfoot Lane","waterbody":"GB104027062870","region":"Yorkshire and North East","area":"Yorkshire","totalSurveys":1,"speciesCount":4,"firstSurvey":"04/10/2007","lastSurvey":"04/10/2007"}},{"type":"Feature","geometry":{"type":"Point","coordinates":[-1.888269,53.810077]},"properties":{"siteId":"28942","name":"d/s Doe Park Res","waterbody":"GB104027062870","region":"Yorkshire and North East","area":"Yorkshire","totalSurveys":5,"speciesCount":3,"firstSurvey":"18/09/2007","lastSurvey":"02/10/2023"}},{"type":"Feature","geometry":{"type":"Point","coordinates":[-1.884686,53.804213]},"properties":{"siteId":"70424","name":"Meal Bridge Farm to Reservoir","waterbody":null,"region":"Yorkshire and North East","area":"Yorkshire","totalSurveys":1,"speciesCount":1,"firstSurvey":"24/09/2017","lastSurvey":"24/09/2017"}},{"type":"Feature","geometry":{"type":"Point","coordinates":[-1.867199,53.836372]},"properties":{"siteId":"28522","name":"Malt Shovel (Harden)","waterbody":"GB104027062870","region":"Yorkshire and North East","area":"Yorkshire","totalSurveys":3,"speciesCount":3,"firstSurvey":"18/09/2007","lastSurvey":"04/09/2014"}},{"type":"Feature","geometry":{"type":"Point","coordinates":[-1.806884,53.856971]},"properties":{"siteId":"11951","name":"d/s Eldwick Reservoir","waterbody":"GB104027063031","region":"Yorkshire and North East","area":"Yorkshire","totalSurveys":11,"speciesCount":3,"firstSurvey":"04/10/2000","lastSurvey":"10/09/2014"}},{"type":"Feature","geometry":{"type":"Point","coordinates":[-1.544391,53.81578]},"properties":{"siteId":"36764","name":"Buslingthorpe Lane","waterbody":"GB104027062900","region":"Yorkshire and North East","area":"Yorkshire","totalSurveys":3,"speciesCount":4,"firstSurvey":"20/08/2013","lastSurvey":"15/08/2024"}},{"type":"Feature","geometry":{"type":"Point","coordinates":[-1.571368,53.842349]},"properties":{"siteId":"79985","name":"DS Ring Road","waterbody":null,"region":"Yorkshire and North East","area":"Yorkshire","totalSurveys":1,"speciesCount":2,"firstSurvey":"21/08/2024","lastSurvey":"21/08/2024"}},{"type":"Feature","geometry":{"type":"Point","coordinates":[-1.577598,53.834938]},"properties":{"siteId":"28520","name":"Hustlers Row","waterbody":"GB104027062900","region":"Yorkshire and North East","area":"Yorkshire","totalSurveys":3,"speciesCount":5,"firstSurvey":"13/09/2007","lastSurvey":"15/08/2024"}},{"type":"Feature","geometry":{"type":"Point","coordinates":[-1.569529,53.843907]},"properties":{"siteId":"79984","name":"Scotland Wood","waterbody":null,"region":"Yorkshire and North East","area":"Yorkshire","totalSurveys":1,"speciesCount":2,"firstSurvey":"21/08/2024","lastSurvey":"21/08/2024"}},{"type":"Feature","geometry":{"type":"Point","coordinates":[-1.571293,53.760378]},"properties":{"siteId":"70883","name":"Millshaw Beck at White Rose Centre Footbridge","waterbody":null,"region":"Yorkshire and North East","area":"Yorkshire","totalSurveys":1,"speciesCount":1,"firstSurvey":"05/02/2018","lastSurvey":"05/02/2018"}},{"type":"Feature","geometry":{"type":"Point","coordinates":[-1.474403,53.750187]},"properties":{"siteId":"45501","name":"Oulton Beck - Springhead Park","waterbody":"GB104027062680","region":"Yorkshire and North East","area":"Yorkshire","totalSurveys":1,"speciesCount":1,"firstSurvey":"03/10/2012","lastSurvey":"03/10/2012"}},{"type":"Feature","geometry":{"type":"Point","coordinates":[-1.835799,53.787304]},"properties":{"siteId":"29343","name":"Chat Hill Road","waterbody":"GB104027062860","region":"Yorkshire and North East","area":"Yorkshire","totalSurveys":2,"speciesCount":2,"firstSurvey":"28/09/2007","lastSurvey":"10/09/2014"}},{"type":"Feature","geometry":{"type":"Point","coordinates":[-1.948322,53.81667]},"properties":{"siteId":"29019","name":"Bridgehouse Beck","waterbody":"GB104027064200","region":"Yorkshire and North East","area":"Yorkshire","totalSurveys":5,"speciesCount":2,"firstSurvey":"11/09/2007","lastSurvey":"06/08/2024"}},{"type":"Feature","geometry":{"type":"Point","coordinates":[-1.907095,53.860452]},"properties":{"siteId":"73944","name":"D/S Woodhouse Road - Site 1","waterbody":null,"region":"Yorkshire and North East","area":"Yorkshire","totalSurveys":1,"speciesCount":4,"firstSurvey":"12/09/2019","lastSurvey":"12/09/2019"}},{"type":"Feature","geometry":{"type":"Point","coordinates":[-1.907689,53.85985]},"properties":{"siteId":"73945","name":"Woodhouse Road - Site 2","waterbody":null,"region":"Yorkshire and North East","area":"Yorkshire","totalSurveys":1,"speciesCount":4,"firstSurvey":"12/09/2019","lastSurvey":"12/09/2019"}},{"type":"Feature","geometry":{"type":"Point","coordinates":[-1.908557,53.859302]},"properties":{"siteId":"73946","name":"Woodhouse Road - Site 3","waterbody":null,"region":"Yorkshire and North East","area":"Yorkshire","totalSurveys":1,"speciesCount":3,"firstSurvey":"12/09/2019","lastSurvey":"12/09/2019"}},{"type":"Feature","geometry":{"type":"Point","coordinates":[-1.990847,53.832858]},"properties":{"siteId":"11972","name":"D/S Ponden Mill (WR)","waterbody":"GB104027064210","region":"Yorkshire and North East","area":"Yorkshire","totalSurveys":12,"speciesCount":8,"firstSurvey":"12/10/2000","lastSurvey":"09/09/2014"}},{"type":"Feature","geometry":{"type":"Point","coordinates":[-1.894072,53.8696]},"properties":{"siteId":"73947","name":"Dalton Road","waterbody":null,"region":"Yorkshire and North East","area":"Yorkshire","totalSurveys":2,"speciesCount":6,"firstSurvey":"12/09/2019","lastSurvey":"17/08/2023"}},{"type":"Feature","geometry":{"type":"Point","coordinates":[-1.947234,53.82483]},"properties":{"siteId":"78143","name":"Haworth","waterbody":null,"region":"Yorkshire and North East","area":"Yorkshire","totalSurveys":2,"speciesCount":2,"firstSurvey":"17/08/2023","lastSurvey":"06/08/2024"}},{"type":"Feature","geometry":{"type":"Point","coordinates":[-1.921488,53.847034]},"properties":{"siteId":"51967","name":"Hermit Hole - u/s","waterbody":"GB104027064220","region":"Yorkshire and North East","area":"Yorkshire","totalSurveys":1,"speciesCount":2,"firstSurvey":"16/08/2013","lastSurvey":"16/08/2013"}},{"type":"Feature","geometry":{"type":"Point","coordinates":[-1.921458,53.84707]},"properties":{"siteId":"28740","name":"Hermit Hole","waterbody":"GB104027064220","region":"Yorkshire and North East","area":"Yorkshire","totalSurveys":4,"speciesCount":6,"firstSurvey":"17/09/2007","lastSurvey":"04/09/2014"}},{"type":"Feature","geometry":{"type":"Point","coordinates":[-1.946818,53.804985]},"properties":{"siteId":"29001","name":"d/s Leeming Res","waterbody":"GB104027064200","region":"Yorkshire and North East","area":"Yorkshire","totalSurveys":5,"speciesCount":5,"firstSurvey":"10/09/2007","lastSurvey":"05/08/2024"}},{"type":"Feature","geometry":{"type":"Point","coordinates":[-1.966551,53.813081]},"properties":{"siteId":"11986","name":"D/S Leeshaw Res (WR)","waterbody":"GB104027064200","region":"Yorkshire and North East","area":"Yorkshire","totalSurveys":12,"speciesCount":5,"firstSurvey":"12/10/2000","lastSurvey":"05/08/2024"}},{"type":"Feature","geometry":{"type":"Point","coordinates":[-1.966536,53.812982]},"properties":{"siteId":"71663","name":"West Shaw Lane","waterbody":null,"region":"Yorkshire and North East","area":"Yorkshire","totalSurveys":1,"speciesCount":2,"firstSurvey":"18/09/2018","lastSurvey":"18/09/2018"}},{"type":"Feature","geometry":{"type":"Point","coordinates":[-1.998443,53.859822]},"properties":{"siteId":"29026","name":"d/s Morkin Bridge","waterbody":"GB104027064230","region":"Yorkshire and North East","area":"Yorkshire","totalSurveys":5,"speciesCount":1,"firstSurvey":"27/09/2007","lastSurvey":"07/08/2024"}},{"type":"Feature","geometry":{"type":"Point","coordinates":[-1.960432,53.860715]},"properties":{"siteId":"28997","name":"Goose Eye","waterbody":"GB104027064230","region":"Yorkshire and North East","area":"Yorkshire","totalSurveys":5,"speciesCount":2,"firstSurvey":"27/09/2007","lastSurvey":"07/08/2024"}},{"type":"Feature","geometry":{"type":"Point","coordinates":[-1.949329,53.838178]},"properties":{"siteId":"16073","name":"Providence Lane","waterbody":"GB104027064210","region":"Yorkshire and North East","area":"Yorkshire","totalSurveys":11,"speciesCount":8,"firstSurvey":"21/09/2005","lastSurvey":"14/09/2021"}},{"type":"Feature","geometry":{"type":"Point","coordinates":[-1.891574,53.871368]},"properties":{"siteId":"52024","name":"Rock ramp weir - d/s","waterbody":"GB104027062890","region":"Yorkshire and North East","area":"Yorkshire","totalSurveys":1,"speciesCount":5,"firstSurvey":"16/08/2013","lastSurvey":"16/08/2013"}},{"type":"Feature","geometry":{"type":"Point","coordinates":[-1.972766,53.831561]},"properties":{"siteId":"31344","name":"Sladen Beck U/S Sladen Bridge","waterbody":"GB104027064210","region":"Yorkshire and North East","area":"Yorkshire","totalSurveys":1,"speciesCount":1,"firstSurvey":"02/09/2008","lastSurvey":"02/09/2008"}},{"type":"Feature","geometry":{"type":"Point","coordinates":[-1.934979,53.919915]},"properties":{"siteId":"28978","name":"Silsden Beck d/s Res","waterbody":"GB104027062990","region":"Yorkshire and North East","area":"Yorkshire","totalSurveys":2,"speciesCount":4,"firstSurvey":"23/08/2007","lastSurvey":"22/08/2013"}},{"type":"Feature","geometry":{"type":"Point","coordinates":[-1.899719,53.797539]},"properties":{"siteId":"31896","name":"Stubden Beck D/S Stubden Res","waterbody":"GB104027062870","region":"Yorkshire and North East","area":"Yorkshire","totalSurveys":2,"speciesCount":2,"firstSurvey":"30/09/2008","lastSurvey":"05/08/2009"}},{"type":"Feature","geometry":{"type":"Point","coordinates":[-1.62957,53.798268]},"properties":{"siteId":"60083","name":"Farnley Beck Ring Road Roundabout","waterbody":"GB104027062830","region":"Yorkshire and North East","area":"Yorkshire","totalSurveys":1,"speciesCount":1,"firstSurvey":"13/08/2014","lastSurvey":"13/08/2014"}},{"type":"Feature","geometry":{"type":"Point","coordinates":[-1.631714,53.797852]},"properties":{"siteId":"77005","name":"Farnley Beck Upper","waterbody":null,"region":"Yorkshire and North East","area":"Yorkshire","totalSurveys":1,"speciesCount":2,"firstSurvey":"26/09/2022","lastSurvey":"26/09/2022"}},{"type":"Feature","geometry":{"type":"Point","coordinates":[-1.640392,53.779076]},"properties":{"siteId":"77004","name":"Tong Beck","waterbody":null,"region":"Yorkshire and North East","area":"Yorkshire","totalSurveys":1,"speciesCount":2,"firstSurvey":"26/09/2022","lastSurvey":"26/09/2022"}},{"type":"Feature","geometry":{"type":"Point","coordinates":[-1.606599,53.78376]},"properties":{"siteId":"77007","name":"Wortley Beck d/s Farnley Res (site 2)","waterbody":null,"region":"Yorkshire and North East","area":"Yorkshire","totalSurveys":1,"speciesCount":6,"firstSurvey":"26/09/2022","lastSurvey":"26/09/2022"}},{"type":"Feature","geometry":{"type":"Point","coordinates":[-1.607317,53.786468]},"properties":{"siteId":"77006","name":"Wortley Beck d/s Farnley Res","waterbody":null,"region":"Yorkshire and North East","area":"Yorkshire","totalSurveys":1,"speciesCount":3,"firstSurvey":"26/09/2022","lastSurvey":"26/09/2022"}},{"type":"Feature","geometry":{"type":"Point","coordinates":[-1.48093,53.813716]},"properties":{"siteId":"78146","name":"Fearnville","waterbody":null,"region":"Yorkshire and North East","area":"Yorkshire","totalSurveys":1,"speciesCount":2,"firstSurvey":"09/08/2023","lastSurvey":"09/08/2023"}},{"type":"Feature","geometry":{"type":"Point","coordinates":[-1.488751,53.79128]},"properties":{"siteId":"78147","name":"Halton Moor","waterbody":null,"region":"Yorkshire and North East","area":"Yorkshire","totalSurveys":1,"speciesCount":1,"firstSurvey":"09/08/2023","lastSurvey":"09/08/2023"}},{"type":"Feature","geometry":{"type":"Point","coordinates":[-1.489367,53.82807]},"properties":{"siteId":"78145","name":"Wykebeck Woods","waterbody":null,"region":"Yorkshire and North East","area":"Yorkshire","totalSurveys":1,"speciesCount":4,"firstSurvey":"09/08/2023","lastSurvey":"09/08/2023"}},{"type":"Feature","geometry":{"type":"Point","coordinates":[-1.705344,53.837207]},"properties":{"siteId":"36755","name":"Apperley Bridge","waterbody":"GB104027063032","region":"Yorkshire and North East","area":"Yorkshire","totalSurveys":2,"speciesCount":9,"firstSurvey":"18/07/2013","lastSurvey":"01/07/2014"}},{"type":"Feature","geometry":{"type":"Point","coordinates":[-1.190738,53.723674]},"properties":{"siteId":"4250","name":"Beal","waterbody":"GB104027062760","region":"Yorkshire and North East","area":"Yorkshire","totalSurveys":1,"speciesCount":6,"firstSurvey":"01/09/1998","lastSurvey":"01/09/1998"}},{"type":"Feature","geometry":{"type":"Point","coordinates":[-1.828249,53.83723]},"properties":{"siteId":"7441","name":"Bingley D/S A650","waterbody":"GB104027063031","region":"Yorkshire and North East","area":"Yorkshire","totalSurveys":1,"speciesCount":7,"firstSurvey":"30/07/2002","lastSurvey":"30/07/2002"}},{"type":"Feature","geometry":{"type":"Point","coordinates":[-1.352764,53.728649]},"properties":{"siteId":"7440","name":"Castleford (Gill Net)","waterbody":"GB104027062760","region":"Yorkshire and North East","area":"Yorkshire","totalSurveys":2,"speciesCount":5,"firstSurvey":"22/08/2002","lastSurvey":"18/07/2003"}},{"type":"Feature","geometry":{"type":"Point","coordinates":[-1.351793,53.72868]},"properties":{"siteId":"44986","name":"Castleford Fry Survey","waterbody":"GB104027062760","region":"Yorkshire and North East","area":"Yorkshire","totalSurveys":5,"speciesCount":9,"firstSurvey":"14/08/2013","lastSurvey":"22/08/2017"}},{"type":"Feature","geometry":{"type":"Point","coordinates":[-1.352764,53.728649]},"properties":{"siteId":"4249","name":"Castleford","waterbody":"GB104027062760","region":"Yorkshire and North East","area":"Yorkshire","totalSurveys":10,"speciesCount":13,"firstSurvey":"19/08/1998","lastSurvey":"01/07/2010"}},{"type":"Feature","geometry":{"type":"Point","coordinates":[-1.128657,53.729765]},"properties":{"siteId":"42078","name":"Chapel Haddelsey - Fry Survey","waterbody":null,"region":"Yorkshire and North East","area":"Yorkshire","totalSurveys":14,"speciesCount":13,"firstSurvey":"21/09/2000","lastSurvey":"14/08/2025"}},{"type":"Feature","geometry":{"type":"Point","coordinates":[-1.128411,53.729925]},"properties":{"siteId":"11806","name":"Chapel Haddlesey - u/s A19 (Gill Net)","waterbody":"GB104027062760","region":"Yorkshire and North East","area":"Yorkshire","totalSurveys":1,"speciesCount":3,"firstSurvey":"18/07/2003","lastSurvey":"18/07/2003"}},{"type":"Feature","geometry":{"type":"Point","coordinates":[-1.128411,53.729925]},"properties":{"siteId":"4251","name":"Chappel Haddlesey - u/s A19","waterbody":"GB104027062760","region":"Yorkshire and North East","area":"Yorkshire","totalSurveys":10,"speciesCount":14,"firstSurvey":"01/09/1998","lastSurvey":"21/06/2010"}},{"type":"Feature","geometry":{"type":"Point","coordinates":[-1.857045,53.859738]},"properties":{"siteId":"4243","name":"Crossflatts","waterbody":"GB104027063031","region":"Yorkshire and North East","area":"Yorkshire","totalSurveys":14,"speciesCount":16,"firstSurvey":"18/08/1998","lastSurvey":"25/07/2017"}},{"type":"Feature","geometry":{"type":"Point","coordinates":[-1.548304,53.793748]},"properties":{"siteId":"36754","name":"Dark Arches","waterbody":"GB104027063032","region":"Yorkshire and North East","area":"Yorkshire","totalSurveys":1,"speciesCount":11,"firstSurvey":"24/06/2011","lastSurvey":"24/06/2011"}},{"type":"Feature","geometry":{"type":"Point","coordinates":[-1.736973,53.853243]},"properties":{"siteId":"4245","name":"Esholt STW","waterbody":"GB104027063031","region":"Yorkshire and North East","area":"Yorkshire","totalSurveys":2,"speciesCount":7,"firstSurvey":"26/08/1998","lastSurvey":"20/07/2002"}},{"type":"Feature","geometry":{"type":"Point","coordinates":[-1.308215,53.738926]},"properties":{"siteId":"29030","name":"Fairburn","waterbody":"GB104027062760","region":"Yorkshire and North East","area":"Yorkshire","totalSurveys":1,"speciesCount":6,"firstSurvey":"25/09/2007","lastSurvey":"25/09/2007"}},{"type":"Feature","geometry":{"type":"Point","coordinates":[-1.885586,53.87529]},"properties":{"siteId":"42087","name":"Keighley (River Worth Confluence) - Fry Survey","waterbody":null,"region":"Yorkshire and North East","area":"Yorkshire","totalSurveys":20,"speciesCount":12,"firstSurvey":"21/09/1984","lastSurvey":"25/09/2003"}},{"type":"Feature","geometry":{"type":"Point","coordinates":[-1.984712,53.907376]},"properties":{"siteId":"42088","name":"Kildwick - Fry Survey","waterbody":null,"region":"Yorkshire and North East","area":"Yorkshire","totalSurveys":1,"speciesCount":5,"firstSurvey":"24/09/1992","lastSurvey":"24/09/1992"}},{"type":"Feature","geometry":{"type":"Point","coordinates":[-1.984742,53.907457]},"properties":{"siteId":"7443","name":"Kildwick Bridge (Gill Net)","waterbody":"GB104027063031","region":"Yorkshire and North East","area":"Yorkshire","totalSurveys":1,"speciesCount":3,"firstSurvey":"25/07/2002","lastSurvey":"25/07/2002"}},{"type":"Feature","geometry":{"type":"Point","coordinates":[-1.984742,53.907457]},"properties":{"siteId":"7442","name":"Kildwick Bridge","waterbody":"GB104027063031","region":"Yorkshire and North East","area":"Yorkshire","totalSurveys":1,"speciesCount":9,"firstSurvey":"25/07/2002","lastSurvey":"25/07/2002"}},{"type":"Feature","geometry":{"type":"Point","coordinates":[-1.597541,53.808816]},"properties":{"siteId":"7439","name":"Kirkstall (400 metre d/s) (Gill Net)","waterbody":"GB104027063032","region":"Yorkshire and North East","area":"Yorkshire","totalSurveys":3,"speciesCount":6,"firstSurvey":"20/08/2002","lastSurvey":"16/07/2004"}},{"type":"Feature","geometry":{"type":"Point","coordinates":[-1.600561,53.810624]},"properties":{"siteId":"4246","name":"Kirkstall (400m d/s weir)","waterbody":"GB104027063032","region":"Yorkshire and North East","area":"Yorkshire","totalSurveys":13,"speciesCount":11,"firstSurvey":"27/08/1998","lastSurvey":"30/06/2014"}},{"type":"Feature","geometry":{"type":"Point","coordinates":[-1.504821,53.776184]},"properties":{"siteId":"42091","name":"Knostrop - Fry Survey","waterbody":null,"region":"Yorkshire and North East","area":"Yorkshire","totalSurveys":15,"speciesCount":8,"firstSurvey":"21/09/1984","lastSurvey":"22/09/1999"}},{"type":"Feature","geometry":{"type":"Point","coordinates":[-1.512197,53.777401]},"properties":{"siteId":"52003","name":"Knostrop weir","waterbody":"GB104027063032","region":"Yorkshire and North East","area":"Yorkshire","totalSurveys":1,"speciesCount":1,"firstSurvey":"30/09/2013","lastSurvey":"30/09/2013"}},{"type":"Feature","geometry":{"type":"Point","coordinates":[-1.631242,53.82752]},"properties":{"siteId":"17362","name":"Newlay lower weir","waterbody":"GB104027063032","region":"Yorkshire and North East","area":"Yorkshire","totalSurveys":1,"speciesCount":8,"firstSurvey":"19/07/2005","lastSurvey":"19/07/2005"}},{"type":"Feature","geometry":{"type":"Point","coordinates":[-1.643752,53.819496]},"properties":{"siteId":"22088","name":"Rodley","waterbody":"GB104027063032","region":"Yorkshire and North East","area":"Yorkshire","totalSurveys":2,"speciesCount":8,"firstSurvey":"20/07/2006","lastSurvey":"30/06/2014"}},{"type":"Feature","geometry":{"type":"Point","coordinates":[-1.945172,53.902952]},"properties":{"siteId":"4242","name":"Silsden Bridge","waterbody":"GB104027063031","region":"Yorkshire and North East","area":"Yorkshire","totalSurveys":11,"speciesCount":13,"firstSurvey":"18/08/1998","lastSurvey":"26/06/2014"}},{"type":"Feature","geometry":{"type":"Point","coordinates":[-1.49221,53.771305]},"properties":{"siteId":"51984","name":"Skelton Grange","waterbody":"GB104027063032","region":"Yorkshire and North East","area":"Yorkshire","totalSurveys":1,"speciesCount":6,"firstSurvey":"30/09/2013","lastSurvey":"30/09/2013"}},{"type":"Feature","geometry":{"type":"Point","coordinates":[-1.441768,53.760555]},"properties":{"siteId":"8813","name":"Swillington Bridge (gill net site)","waterbody":"GB104027063032","region":"Yorkshire and North East","area":"Yorkshire","totalSurveys":1,"speciesCount":0,"firstSurvey":"21/08/2002","lastSurvey":"21/08/2002"}},{"type":"Feature","geometry":{"type":"Point","coordinates":[-1.443285,53.760563]},"properties":{"siteId":"4248","name":"Swillington Bridge","waterbody":"GB104027063032","region":"Yorkshire and North East","area":"Yorkshire","totalSurveys":11,"speciesCount":10,"firstSurvey":"19/08/1998","lastSurvey":"02/07/2014"}},{"type":"Feature","geometry":{"type":"Point","coordinates":[-1.504164,53.776586]},"properties":{"siteId":"49923","name":"Thwaite Mill fry Survey","waterbody":"GB104027063032","region":"Yorkshire and North East","area":"Yorkshire","totalSurveys":9,"speciesCount":9,"firstSurvey":"14/08/2013","lastSurvey":"20/08/2025"}},{"type":"Feature","geometry":{"type":"Point","coordinates":[-1.505293,53.776114]},"properties":{"siteId":"7434","name":"Thwaite Weir (Gill Net)","waterbody":"GB104027063032","region":"Yorkshire and North East","area":"Yorkshire","totalSurveys":3,"speciesCount":6,"firstSurvey":"21/08/2002","lastSurvey":"12/07/2004"}},{"type":"Feature","geometry":{"type":"Point","coordinates":[-1.505282,53.777013]},"properties":{"siteId":"4247","name":"Thwaite Weir","waterbody":"GB104027063032","region":"Yorkshire and North East","area":"Yorkshire","totalSurveys":10,"speciesCount":16,"firstSurvey":"25/08/1998","lastSurvey":"05/07/2010"}},{"type":"Feature","geometry":{"type":"Point","coordinates":[-1.732474,53.855408]},"properties":{"siteId":"36756","name":"U/S Esholt STW","waterbody":"GB104027063032","region":"Yorkshire and North East","area":"Yorkshire","totalSurveys":1,"speciesCount":7,"firstSurvey":"02/07/2014","lastSurvey":"02/07/2014"}},{"type":"Feature","geometry":{"type":"Point","coordinates":[-1.53572,53.689087]},"properties":{"siteId":"25616","name":"Alverthorpe Dam","waterbody":"GB104027062620","region":"Yorkshire and North East","area":"Yorkshire","totalSurveys":1,"speciesCount":7,"firstSurvey":"08/03/2007","lastSurvey":"08/03/2007"}},{"type":"Feature","geometry":{"type":"Point","coordinates":[-1.800298,53.700812]},"properties":{"siteId":"29287","name":"Riley's Pond","waterbody":"GB104027062720","region":"Yorkshire and North East","area":"Yorkshire","totalSurveys":1,"speciesCount":9,"firstSurvey":"11/01/2008","lastSurvey":"11/01/2008"}},{"type":"Feature","geometry":{"type":"Point","coordinates":[-1.535084,53.689048]},"properties":{"siteId":"29404","name":"Alverthorpe Dam - u/s","waterbody":"GB104027062620","region":"Yorkshire and North East","area":"Yorkshire","totalSurveys":1,"speciesCount":0,"firstSurvey":"01/09/1999","lastSurvey":"01/09/1999"}},{"type":"Feature","geometry":{"type":"Point","coordinates":[-1.559199,53.699925]},"properties":{"siteId":"29402","name":"Gawthorpe Green Lane","waterbody":"GB104027062620","region":"Yorkshire and North East","area":"Yorkshire","totalSurveys":1,"speciesCount":0,"firstSurvey":"01/09/1999","lastSurvey":"01/09/1999"}},{"type":"Feature","geometry":{"type":"Point","coordinates":[-1.63004,53.699886]},"properties":{"siteId":"63386","name":"Batley Beck at Jack Lane","waterbody":null,"region":"Yorkshire and North East","area":"Yorkshire","totalSurveys":1,"speciesCount":0,"firstSurvey":"20/08/2015","lastSurvey":"20/08/2015"}},{"type":"Feature","geometry":{"type":"Point","coordinates":[-1.66956,53.732404]},"properties":{"siteId":"63385","name":"Scotland Beck nr Longbottom Dam","waterbody":null,"region":"Yorkshire and North East","area":"Yorkshire","totalSurveys":1,"speciesCount":1,"firstSurvey":"20/08/2015","lastSurvey":"20/08/2015"}},{"type":"Feature","geometry":{"type":"Point","coordinates":[-1.901569,53.674629]},"properties":{"siteId":"11821","name":"Barkisland","waterbody":"GB104027062570","region":"Yorkshire and North East","area":"Yorkshire","totalSurveys":5,"speciesCount":2,"firstSurvey":"09/09/1999","lastSurvey":"12/08/2015"}},{"type":"Feature","geometry":{"type":"Point","coordinates":[-1.863999,53.683949]},"properties":{"siteId":"80005","name":"d/s Holywell Brook Confluence","waterbody":null,"region":"Yorkshire and North East","area":"Yorkshire","totalSurveys":1,"speciesCount":3,"firstSurvey":"27/08/2024","lastSurvey":"27/08/2024"}},{"type":"Feature","geometry":{"type":"Point","coordinates":[-1.873692,53.682872]},"properties":{"siteId":"8299","name":"Freudenberg","waterbody":"GB104027062570","region":"Yorkshire and North East","area":"Yorkshire","totalSurveys":17,"speciesCount":3,"firstSurvey":"09/09/1999","lastSurvey":"07/09/2023"}},{"type":"Feature","geometry":{"type":"Point","coordinates":[-1.884899,53.681805]},"properties":{"siteId":"11837","name":"Gate Head Lane","waterbody":"GB104027062570","region":"Yorkshire and North East","area":"Yorkshire","totalSurveys":6,"speciesCount":2,"firstSurvey":"09/09/1999","lastSurvey":"15/10/2021"}},{"type":"Feature","geometry":{"type":"Point","coordinates":[-1.867733,53.671136]},"properties":{"siteId":"74405","name":"Deer Park (Lower)","waterbody":null,"region":"Yorkshire and North East","area":"Yorkshire","totalSurveys":1,"speciesCount":1,"firstSurvey":"15/06/2010","lastSurvey":"15/06/2010"}},{"type":"Feature","geometry":{"type":"Point","coordinates":[-1.868781,53.669996]},"properties":{"siteId":"74404","name":"Deer Park (Upper)","waterbody":null,"region":"Yorkshire and North East","area":"Yorkshire","totalSurveys":1,"speciesCount":1,"firstSurvey":"15/06/2010","lastSurvey":"15/06/2010"}},{"type":"Feature","geometry":{"type":"Point","coordinates":[-1.863837,53.682457]},"properties":{"siteId":"80003","name":"Holywell Brook confluence to Stainland Road","waterbody":null,"region":"Yorkshire and North East","area":"Yorkshire","totalSurveys":1,"speciesCount":4,"firstSurvey":"27/08/2024","lastSurvey":"27/08/2024"}},{"type":"Feature","geometry":{"type":"Point","coordinates":[-1.864438,53.679123]},"properties":{"siteId":"80004","name":"Holywell Brook Stainland Road to Viaduct","waterbody":null,"region":"Yorkshire and North East","area":"Yorkshire","totalSurveys":1,"speciesCount":1,"firstSurvey":"27/08/2024","lastSurvey":"27/08/2024"}},{"type":"Feature","geometry":{"type":"Point","coordinates":[-1.863837,53.682493]},"properties":{"siteId":"74408","name":"Jagger Bridge","waterbody":null,"region":"Yorkshire and North East","area":"Yorkshire","totalSurveys":1,"speciesCount":0,"firstSurvey":"15/06/2010","lastSurvey":"15/06/2010"}},{"type":"Feature","geometry":{"type":"Point","coordinates":[-1.862331,53.675364]},"properties":{"siteId":"74407","name":"Rawroyds Lane","waterbody":null,"region":"Yorkshire and North East","area":"Yorkshire","totalSurveys":1,"speciesCount":0,"firstSurvey":"15/06/2010","lastSurvey":"15/06/2010"}},{"type":"Feature","geometry":{"type":"Point","coordinates":[-1.863776,53.673154]},"properties":{"siteId":"74406","name":"Rhodia (DS Culvert)","waterbody":null,"region":"Yorkshire and North East","area":"Yorkshire","totalSurveys":1,"speciesCount":1,"firstSurvey":"15/06/2010","lastSurvey":"15/06/2010"}},{"type":"Feature","geometry":{"type":"Point","coordinates":[-1.904625,53.662048]},"properties":{"siteId":"11958","name":"Penny Hill (WR)","waterbody":"GB104027062570","region":"Yorkshire and North East","area":"Yorkshire","totalSurveys":11,"speciesCount":2,"firstSurvey":"08/08/2000","lastSurvey":"10/10/2010"}},{"type":"Feature","geometry":{"type":"Point","coordinates":[-1.745704,53.666311]},"properties":{"siteId":"29387","name":"Sonaco - u/s Weighbridge","waterbody":"GB104027062570","region":"Yorkshire and North East","area":"Yorkshire","totalSurveys":1,"speciesCount":1,"firstSurvey":"09/09/1999","lastSurvey":"09/09/1999"}},{"type":"Feature","geometry":{"type":"Point","coordinates":[-1.864136,53.683608]},"properties":{"siteId":"80006","name":"u/s Holywell Brook confluence","waterbody":null,"region":"Yorkshire and North East","area":"Yorkshire","totalSurveys":1,"speciesCount":3,"firstSurvey":"27/08/2024","lastSurvey":"27/08/2024"}},{"type":"Feature","geometry":{"type":"Point","coordinates":[-1.94549,53.65758]},"properties":{"siteId":"11983","name":"D/S Booth Dean Clough Res","waterbody":"GB104027062520","region":"Yorkshire and North East","area":"Yorkshire","totalSurveys":13,"speciesCount":2,"firstSurvey":"27/09/1990","lastSurvey":"10/08/2015"}},{"type":"Feature","geometry":{"type":"Point","coordinates":[-1.951557,53.644999]},"properties":{"siteId":"30392","name":"d/s Boothwood Reservoir","waterbody":"GB104027062520","region":"Yorkshire and North East","area":"Yorkshire","totalSurveys":1,"speciesCount":0,"firstSurvey":"19/09/1995","lastSurvey":"19/09/1995"}},{"type":"Feature","geometry":{"type":"Point","coordinates":[-1.883414,53.605134]},"properties":{"siteId":"34388","name":"Intake Lane","waterbody":"GB104027063330","region":"Yorkshire and North East","area":"Yorkshire","totalSurveys":1,"speciesCount":0,"firstSurvey":"02/09/2009","lastSurvey":"02/09/2009"}},{"type":"Feature","geometry":{"type":"Point","coordinates":[-1.795917,53.607399]},"properties":{"siteId":"36731","name":"Mag Brook at Honley","waterbody":"GB104027063590","region":"Yorkshire and North East","area":"Yorkshire","totalSurveys":2,"speciesCount":1,"firstSurvey":"12/08/2012","lastSurvey":"24/08/2015"}},{"type":"Feature","geometry":{"type":"Point","coordinates":[-1.851902,53.592786]},"properties":{"siteId":"11963","name":"Meltham (WR)","waterbody":"GB104027063590","region":"Yorkshire and North East","area":"Yorkshire","totalSurveys":12,"speciesCount":1,"firstSurvey":"05/09/2000","lastSurvey":"24/08/2015"}},{"type":"Feature","geometry":{"type":"Point","coordinates":[-1.94145,53.657632]},"properties":{"siteId":"34392","name":"Heys Lane","waterbody":"GB104027062520","region":"Yorkshire and North East","area":"Yorkshire","totalSurveys":1,"speciesCount":0,"firstSurvey":"02/09/2009","lastSurvey":"02/09/2009"}},{"type":"Feature","geometry":{"type":"Point","coordinates":[-1.778141,53.708853]},"properties":{"siteId":"52746","name":"Top of wellholme park","waterbody":"GB104027062700","region":"Yorkshire and North East","area":"Yorkshire","totalSurveys":3,"speciesCount":3,"firstSurvey":"20/08/2013","lastSurvey":"13/10/2021"}},{"type":"Feature","geometry":{"type":"Point","coordinates":[-1.983426,53.729073]},"properties":{"siteId":"76443","name":"DS Cragg Road","waterbody":null,"region":"Yorkshire and North East","area":"Yorkshire","totalSurveys":1,"speciesCount":3,"firstSurvey":"13/10/2021","lastSurvey":"13/10/2021"}},{"type":"Feature","geometry":{"type":"Point","coordinates":[-1.98329,53.728597]},"properties":{"siteId":"11867","name":"Mytholmroyd","waterbody":"GB104027062610","region":"Yorkshire and North East","area":"Yorkshire","totalSurveys":4,"speciesCount":3,"firstSurvey":"19/09/2003","lastSurvey":"13/10/2021"}},{"type":"Feature","geometry":{"type":"Point","coordinates":[-1.759467,53.558759]},"properties":{"siteId":"34062","name":"Dean Bridge Lane","waterbody":"GB104027057610","region":"Yorkshire and North East","area":"Yorkshire","totalSurveys":2,"speciesCount":3,"firstSurvey":"11/09/2009","lastSurvey":"24/08/2015"}},{"type":"Feature","geometry":{"type":"Point","coordinates":[-1.753867,53.563862]},"properties":{"siteId":"12005","name":"Jackson's Bridge","waterbody":"GB104027057610","region":"Yorkshire and North East","area":"Yorkshire","totalSurveys":9,"speciesCount":1,"firstSurvey":"10/08/2000","lastSurvey":"16/09/2012"}},{"type":"Feature","geometry":{"type":"Point","coordinates":[-1.760388,53.580252]},"properties":{"siteId":"34063","name":"Kirkbridge Lane","waterbody":"GB104027057610","region":"Yorkshire and North East","area":"Yorkshire","totalSurveys":3,"speciesCount":2,"firstSurvey":"10/09/2009","lastSurvey":"24/08/2015"}},{"type":"Feature","geometry":{"type":"Point","coordinates":[-1.743352,53.652311]},"properties":{"siteId":"29831","name":"Briggate Bridge","waterbody":"GB104027063340","region":"Yorkshire and North East","area":"Yorkshire","totalSurveys":2,"speciesCount":4,"firstSurvey":"11/09/2009","lastSurvey":"27/08/2015"}},{"type":"Feature","geometry":{"type":"Point","coordinates":[-1.724721,53.634806]},"properties":{"siteId":"29389","name":"Fenay Bridge","waterbody":"GB104027063340","region":"Yorkshire and North East","area":"Yorkshire","totalSurveys":3,"speciesCount":1,"firstSurvey":"23/09/1999","lastSurvey":"26/08/2015"}},{"type":"Feature","geometry":{"type":"Point","coordinates":[-1.727717,53.639307]},"properties":{"siteId":"29390","name":"Fenay Lea Bridge","waterbody":"GB104027063340","region":"Yorkshire and North East","area":"Yorkshire","totalSurveys":1,"speciesCount":1,"firstSurvey":"23/09/1999","lastSurvey":"23/09/1999"}},{"type":"Feature","geometry":{"type":"Point","coordinates":[-1.729659,53.650133]},"properties":{"siteId":"29857","name":"Oxfield Beck Routine Site","waterbody":"GB104027063340","region":"Yorkshire and North East","area":"Yorkshire","totalSurveys":3,"speciesCount":2,"firstSurvey":"11/09/2009","lastSurvey":"12/10/2017"}},{"type":"Feature","geometry":{"type":"Point","coordinates":[-1.727473,53.651341]},"properties":{"siteId":"70503","name":"Oxfield Beck WFDi 2017 site","waterbody":null,"region":"Yorkshire and North East","area":"Yorkshire","totalSurveys":1,"speciesCount":1,"firstSurvey":"12/10/2017","lastSurvey":"12/10/2017"}},{"type":"Feature","geometry":{"type":"Point","coordinates":[-1.73371,53.648308]},"properties":{"siteId":"29393","name":"Rugby Club New Channel","waterbody":"GB104027063340","region":"Yorkshire and North East","area":"Yorkshire","totalSurveys":1,"speciesCount":1,"firstSurvey":"23/09/1999","lastSurvey":"23/09/1999"}},{"type":"Feature","geometry":{"type":"Point","coordinates":[-1.730724,53.64201]},"properties":{"siteId":"29391","name":"Spa Mills","waterbody":"GB104027063340","region":"Yorkshire and North East","area":"Yorkshire","totalSurveys":1,"speciesCount":1,"firstSurvey":"23/09/1999","lastSurvey":"23/09/1999"}},{"type":"Feature","geometry":{"type":"Point","coordinates":[-1.850417,53.705406]},"properties":{"siteId":"75823","name":"Bottoms Bridge","waterbody":null,"region":"Yorkshire and North East","area":"Yorkshire","totalSurveys":2,"speciesCount":3,"firstSurvey":"31/08/2021","lastSurvey":"21/09/2022"}},{"type":"Feature","geometry":{"type":"Point","coordinates":[-1.89082,53.733942]},"properties":{"siteId":"11847","name":"Bracken Bed Lane Bridge","waterbody":"GB104027062780","region":"Yorkshire and North East","area":"Yorkshire","totalSurveys":2,"speciesCount":2,"firstSurvey":"28/08/2003","lastSurvey":"29/09/2008"}},{"type":"Feature","geometry":{"type":"Point","coordinates":[-1.902864,53.769904]},"properties":{"siteId":"11984","name":"Halifax Golf Club (Drought Site 12) (WR)","waterbody":"GB104027062780","region":"Yorkshire and North East","area":"Yorkshire","totalSurveys":10,"speciesCount":3,"firstSurvey":"22/08/2000","lastSurvey":"09/09/2009"}},{"type":"Feature","geometry":{"type":"Point","coordinates":[-1.894181,53.735562]},"properties":{"siteId":"34543","name":"Larch Close","waterbody":"GB104027062780","region":"Yorkshire and North East","area":"Yorkshire","totalSurveys":3,"speciesCount":2,"firstSurvey":"08/09/2009","lastSurvey":"01/09/2021"}},{"type":"Feature","geometry":{"type":"Point","coordinates":[-1.852897,53.702326]},"properties":{"siteId":"34545","name":"SalterHebble","waterbody":"GB104027062780","region":"Yorkshire and North East","area":"Yorkshire","totalSurveys":3,"speciesCount":3,"firstSurvey":"06/10/2010","lastSurvey":"21/09/2022"}},{"type":"Feature","geometry":{"type":"Point","coordinates":[-1.526388,53.684008]},"properties":{"siteId":"63388","name":"Ings Beck at Flanshaw (River Chald WB)","waterbody":null,"region":"Yorkshire and North East","area":"Yorkshire","totalSurveys":1,"speciesCount":1,"firstSurvey":"17/08/2015","lastSurvey":"17/08/2015"}},{"type":"Feature","geometry":{"type":"Point","coordinates":[-1.939333,53.730381]},"properties":{"siteId":"11927","name":"Luddenden","waterbody":"GB104027062770","region":"Yorkshire and North East","area":"Yorkshire","totalSurveys":11,"speciesCount":2,"firstSurvey":"29/08/2000","lastSurvey":"10/08/2015"}},{"type":"Feature","geometry":{"type":"Point","coordinates":[-1.824852,53.557695]},"properties":{"siteId":"11993","name":"d/s Digley Res (WR)","waterbody":"GB104027057600","region":"Yorkshire and North East","area":"Yorkshire","totalSurveys":11,"speciesCount":1,"firstSurvey":"09/08/2000","lastSurvey":"28/08/2025"}},{"type":"Feature","geometry":{"type":"Point","coordinates":[-1.913372,53.625006]},"properties":{"siteId":"34396","name":"Merry Dale Clough","waterbody":"GB104027063330","region":"Yorkshire and North East","area":"Yorkshire","totalSurveys":1,"speciesCount":0,"firstSurvey":"02/09/2009","lastSurvey":"02/09/2009"}},{"type":"Feature","geometry":{"type":"Point","coordinates":[-1.495994,53.665521]},"properties":{"siteId":"29400","name":"Confluence with Calder","waterbody":"GB104027062630","region":"Yorkshire and North East","area":"Yorkshire","totalSurveys":1,"speciesCount":4,"firstSurvey":"01/09/1999","lastSurvey":"01/09/1999"}},{"type":"Feature","geometry":{"type":"Point","coordinates":[-1.497753,53.644855]},"properties":{"siteId":"29397","name":"Kettlethorpe","waterbody":"GB104027062530","region":"Yorkshire and North East","area":"Yorkshire","totalSurveys":2,"speciesCount":7,"firstSurvey":"01/09/1999","lastSurvey":"17/08/2015"}},{"type":"Feature","geometry":{"type":"Point","coordinates":[-1.497689,53.650248]},"properties":{"siteId":"29398","name":"Milnthorpe","waterbody":"GB104027062530","region":"Yorkshire and North East","area":"Yorkshire","totalSurveys":1,"speciesCount":8,"firstSurvey":"01/09/1999","lastSurvey":"01/09/1999"}},{"type":"Feature","geometry":{"type":"Point","coordinates":[-1.468786,53.61346]},"properties":{"siteId":"64823","name":"Notton Pumping Station","waterbody":null,"region":"Yorkshire and North East","area":"Yorkshire","totalSurveys":1,"speciesCount":1,"firstSurvey":"17/08/2015","lastSurvey":"17/08/2015"}},{"type":"Feature","geometry":{"type":"Point","coordinates":[-1.481379,53.623213]},"properties":{"siteId":"29396","name":"Notton","waterbody":"GB104027062530","region":"Yorkshire and North East","area":"Yorkshire","totalSurveys":1,"speciesCount":3,"firstSurvey":"01/09/1999","lastSurvey":"01/09/1999"}},{"type":"Feature","geometry":{"type":"Point","coordinates":[-1.499085,53.660141]},"properties":{"siteId":"29399","name":"Pugneys","waterbody":"GB104027062530","region":"Yorkshire and North East","area":"Yorkshire","totalSurveys":1,"speciesCount":2,"firstSurvey":"01/09/1999","lastSurvey":"01/09/1999"}},{"type":"Feature","geometry":{"type":"Point","coordinates":[-1.823354,53.554996]},"properties":{"siteId":"11966","name":"Brownhill Reservoir (WR)","waterbody":"GB104027057600","region":"Yorkshire and North East","area":"Yorkshire","totalSurveys":11,"speciesCount":5,"firstSurvey":"09/08/2000","lastSurvey":"28/08/2025"}},{"type":"Feature","geometry":{"type":"Point","coordinates":[-1.815024,53.717311]},