{"type":"FeatureCollection","features":[{"type":"Feature","geometry":{"type":"Point","coordinates":[0.170352,53.339444]},"properties":{"siteId":"6616","name":"Barfen Farm","waterbody":"GB105029061660","region":"Anglian","area":"Northern","totalSurveys":4,"speciesCount":7,"firstSurvey":"12/10/1989","lastSurvey":"16/04/2003"}},{"type":"Feature","geometry":{"type":"Point","coordinates":[0.115246,53.288289]},"properties":{"siteId":"6612","name":"Belleau Spring","waterbody":"GB105029061660","region":"Anglian","area":"Northern","totalSurveys":11,"speciesCount":9,"firstSurvey":"18/08/1986","lastSurvey":"18/07/2024"}},{"type":"Feature","geometry":{"type":"Point","coordinates":[0.13395,53.302341]},"properties":{"siteId":"6613","name":"Claythorpe Gauging Station","waterbody":"GB105029061660","region":"Anglian","area":"Northern","totalSurveys":9,"speciesCount":13,"firstSurvey":"18/10/1989","lastSurvey":"01/06/2022"}},{"type":"Feature","geometry":{"type":"Point","coordinates":[0.207561,53.390906]},"properties":{"siteId":"6618","name":"Cloves Bridge U/S","waterbody":"GB105029061670","region":"Anglian","area":"Northern","totalSurveys":8,"speciesCount":14,"firstSurvey":"09/07/1986","lastSurvey":"02/04/2014"}},{"type":"Feature","geometry":{"type":"Point","coordinates":[0.119983,53.289419]},"properties":{"siteId":"69503","name":"DS Claythorpe Mill","waterbody":null,"region":"Anglian","area":"Northern","totalSurveys":2,"speciesCount":5,"firstSurvey":"23/10/2015","lastSurvey":"30/05/2018"}},{"type":"Feature","geometry":{"type":"Point","coordinates":[0.191382,53.368728]},"properties":{"siteId":"6611","name":"Gayton Engine","waterbody":"GB105029061660","region":"Anglian","area":"Northern","totalSurveys":8,"speciesCount":14,"firstSurvey":"20/05/1986","lastSurvey":"04/06/2018"}},{"type":"Feature","geometry":{"type":"Point","coordinates":[0.154937,53.331632]},"properties":{"siteId":"6615","name":"Gayton Le Marsh","waterbody":"GB105029061660","region":"Anglian","area":"Northern","totalSurveys":3,"speciesCount":8,"firstSurvey":"11/10/1989","lastSurvey":"22/05/1995"}},{"type":"Feature","geometry":{"type":"Point","coordinates":[0.187061,53.372404]},"properties":{"siteId":"6648","name":"Gayton Pump","waterbody":"GB105029061660","region":"Anglian","area":"Northern","totalSurveys":3,"speciesCount":8,"firstSurvey":"09/05/1986","lastSurvey":"18/05/1995"}},{"type":"Feature","geometry":{"type":"Point","coordinates":[0.205067,53.400842]},"properties":{"siteId":"6619","name":"Rimac","waterbody":"GB105029061670","region":"Anglian","area":"Northern","totalSurveys":3,"speciesCount":9,"firstSurvey":"10/07/1986","lastSurvey":"02/06/1995"}},{"type":"Feature","geometry":{"type":"Point","coordinates":[0.196281,53.405499]},"properties":{"siteId":"6620","name":"Sea View Road","waterbody":"GB105029061670","region":"Anglian","area":"Northern","totalSurveys":3,"speciesCount":11,"firstSurvey":"23/10/1989","lastSurvey":"02/04/2014"}},{"type":"Feature","geometry":{"type":"Point","coordinates":[0.198433,53.418046]},"properties":{"siteId":"6621","name":"U/S R/B Sea Doors","waterbody":"GB105029061670","region":"Anglian","area":"Northern","totalSurveys":3,"speciesCount":12,"firstSurvey":"27/06/1986","lastSurvey":"06/06/1995"}},{"type":"Feature","geometry":{"type":"Point","coordinates":[0.178772,53.357271]},"properties":{"siteId":"6617","name":"Will Row","waterbody":"GB105029061660","region":"Anglian","area":"Northern","totalSurveys":4,"speciesCount":11,"firstSurvey":"12/10/1989","lastSurvey":"25/05/1995"}},{"type":"Feature","geometry":{"type":"Point","coordinates":[0.136257,53.318482]},"properties":{"siteId":"6614","name":"Withern Road Bridge","waterbody":"GB105029061660","region":"Anglian","area":"Northern","totalSurveys":8,"speciesCount":15,"firstSurvey":"16/10/1989","lastSurvey":"02/06/2022"}},{"type":"Feature","geometry":{"type":"Point","coordinates":[0.094891,53.209532]},"properties":{"siteId":"6610","name":"Woods Farm","waterbody":"GB105029061620","region":"Anglian","area":"Northern","totalSurveys":9,"speciesCount":11,"firstSurvey":"18/08/1986","lastSurvey":"01/06/2018"}},{"type":"Feature","geometry":{"type":"Point","coordinates":[0.092133,53.337245]},"properties":{"siteId":"6650","name":"Castle Carlton","waterbody":"GB105029061670","region":"Anglian","area":"Northern","totalSurveys":6,"speciesCount":8,"firstSurvey":"07/05/1986","lastSurvey":"12/06/2012"}},{"type":"Feature","geometry":{"type":"Point","coordinates":[0.113944,53.353043]},"properties":{"siteId":"6647","name":"Glebe Farm","waterbody":"GB105029061670","region":"Anglian","area":"Northern","totalSurveys":7,"speciesCount":10,"firstSurvey":"07/05/1986","lastSurvey":"26/09/1996"}},{"type":"Feature","geometry":{"type":"Point","coordinates":[0.103491,53.346746]},"properties":{"siteId":"53043","name":"Little Carlton Mill","waterbody":"GB105029061670","region":"Anglian","area":"Northern","totalSurveys":3,"speciesCount":8,"firstSurvey":"19/11/2013","lastSurvey":"29/05/2018"}},{"type":"Feature","geometry":{"type":"Point","coordinates":[0.16954,53.382613]},"properties":{"siteId":"6651","name":"Three Bridges No1","waterbody":"GB105029061670","region":"Anglian","area":"Northern","totalSurveys":11,"speciesCount":14,"firstSurvey":"20/06/1986","lastSurvey":"28/06/2018"}},{"type":"Feature","geometry":{"type":"Point","coordinates":[0.149286,53.368595]},"properties":{"siteId":"6784","name":"Three Bridges No2","waterbody":"GB105029061670","region":"Anglian","area":"Northern","totalSurveys":1,"speciesCount":6,"firstSurvey":"27/05/1992","lastSurvey":"27/05/1992"}},{"type":"Feature","geometry":{"type":"Point","coordinates":[0.190387,53.378636]},"properties":{"siteId":"6622","name":"Twin Rivers No1","waterbody":"GB105029061670","region":"Anglian","area":"Northern","totalSurveys":4,"speciesCount":11,"firstSurvey":"14/07/1986","lastSurvey":"12/05/1995"}},{"type":"Feature","geometry":{"type":"Point","coordinates":[0.195079,53.382146]},"properties":{"siteId":"6783","name":"Twin Rivers No2","waterbody":"GB105029061670","region":"Anglian","area":"Northern","totalSurveys":1,"speciesCount":11,"firstSurvey":"26/10/1989","lastSurvey":"26/10/1989"}},{"type":"Feature","geometry":{"type":"Point","coordinates":[0.138549,53.364292]},"properties":{"siteId":"6649","name":"Walk Farm","waterbody":"GB105029061670","region":"Anglian","area":"Northern","totalSurveys":12,"speciesCount":13,"firstSurvey":"19/06/1986","lastSurvey":"29/05/2018"}},{"type":"Feature","geometry":{"type":"Point","coordinates":[0.240421,53.357928]},"properties":{"siteId":"6661","name":"Bleak House","waterbody":"GB105029061660","region":"Anglian","area":"Northern","totalSurveys":2,"speciesCount":7,"firstSurvey":"14/05/1992","lastSurvey":"05/10/1995"}},{"type":"Feature","geometry":{"type":"Point","coordinates":[0.219822,53.366404]},"properties":{"siteId":"6659","name":"Harps Bridge","waterbody":"GB105029061660","region":"Anglian","area":"Northern","totalSurveys":3,"speciesCount":7,"firstSurvey":"17/10/1989","lastSurvey":"08/06/1995"}},{"type":"Feature","geometry":{"type":"Point","coordinates":[0.260821,53.345855]},"properties":{"siteId":"6660","name":"Mablethorpe","waterbody":"GB105029061660","region":"Anglian","area":"Northern","totalSurveys":2,"speciesCount":3,"firstSurvey":"05/10/1995","lastSurvey":"15/06/2015"}},{"type":"Feature","geometry":{"type":"Point","coordinates":[0.207948,53.369322]},"properties":{"siteId":"6662","name":"Theddlethorpe","waterbody":"GB105029061660","region":"Anglian","area":"Northern","totalSurveys":4,"speciesCount":6,"firstSurvey":"13/10/1989","lastSurvey":"15/06/2015"}},{"type":"Feature","geometry":{"type":"Point","coordinates":[0.067096,53.409604]},"properties":{"siteId":"6653","name":"Alvingham High Bridge","waterbody":"GB104029062000","region":"Anglian","area":"Northern","totalSurveys":9,"speciesCount":14,"firstSurvey":"02/06/1986","lastSurvey":"14/05/2018"}},{"type":"Feature","geometry":{"type":"Point","coordinates":[0.059074,53.43042]},"properties":{"siteId":"6654","name":"Austen Fen","waterbody":"GB104029062020","region":"Anglian","area":"Northern","totalSurveys":4,"speciesCount":12,"firstSurvey":"13/06/1986","lastSurvey":"16/06/1999"}},{"type":"Feature","geometry":{"type":"Point","coordinates":[0.008106,53.371054]},"properties":{"siteId":"6701","name":"Brian Halls Mill","waterbody":"GB104029061990","region":"Anglian","area":"Northern","totalSurveys":4,"speciesCount":8,"firstSurvey":"17/02/1987","lastSurvey":"24/05/1999"}},{"type":"Feature","geometry":{"type":"Point","coordinates":[0.03591,53.449696]},"properties":{"siteId":"6658","name":"Covenham Reservoir Intake","waterbody":"GB104029062160","region":"Anglian","area":"Northern","totalSurveys":1,"speciesCount":4,"firstSurvey":"12/06/1986","lastSurvey":"12/06/1986"}},{"type":"Feature","geometry":{"type":"Point","coordinates":[0.034663,53.455112]},"properties":{"siteId":"6657","name":"Firebeacon","waterbody":"GB104029062160","region":"Anglian","area":"Northern","totalSurveys":8,"speciesCount":14,"firstSurvey":"13/06/1986","lastSurvey":"16/06/2015"}},{"type":"Feature","geometry":{"type":"Point","coordinates":[0.034453,53.387689]},"properties":{"siteId":"6652","name":"Keddington Corner","waterbody":"GB104029061990","region":"Anglian","area":"Northern","totalSurveys":5,"speciesCount":7,"firstSurvey":"28/05/1986","lastSurvey":"25/06/2015"}},{"type":"Feature","geometry":{"type":"Point","coordinates":[0.01241,53.494146]},"properties":{"siteId":"6655","name":"Tetney Lock","waterbody":"GB104029062100","region":"Anglian","area":"Northern","totalSurveys":9,"speciesCount":18,"firstSurvey":"10/06/1986","lastSurvey":"15/05/2018"}},{"type":"Feature","geometry":{"type":"Point","coordinates":[0.011602,53.477078]},"properties":{"siteId":"6656","name":"Thoresby Bridge","waterbody":"GB104029062080","region":"Anglian","area":"Northern","totalSurveys":5,"speciesCount":14,"firstSurvey":"09/06/1986","lastSurvey":"17/06/2015"}},{"type":"Feature","geometry":{"type":"Point","coordinates":[0.014257,53.501307]},"properties":{"siteId":"6751","name":"Oil Storage Tanks","waterbody":"GB104029062100","region":"Anglian","area":"Northern","totalSurveys":8,"speciesCount":15,"firstSurvey":"30/06/1986","lastSurvey":"16/05/2018"}},{"type":"Feature","geometry":{"type":"Point","coordinates":[0.161482,53.401639]},"properties":{"siteId":"6786","name":"1Mile U/S Queens Bridge","waterbody":"GB105029061680","region":"Anglian","area":"Northern","totalSurveys":1,"speciesCount":2,"firstSurvey":"03/11/1989","lastSurvey":"03/11/1989"}},{"type":"Feature","geometry":{"type":"Point","coordinates":[0.123281,53.389738]},"properties":{"siteId":"6788","name":"Grimboldby Ings","waterbody":"GB105029061680","region":"Anglian","area":"Northern","totalSurveys":1,"speciesCount":5,"firstSurvey":"16/11/1989","lastSurvey":"16/11/1989"}},{"type":"Feature","geometry":{"type":"Point","coordinates":[0.139854,53.390341]},"properties":{"siteId":"6787","name":"North End Lane","waterbody":"GB105029061680","region":"Anglian","area":"Northern","totalSurveys":1,"speciesCount":4,"firstSurvey":"03/11/1989","lastSurvey":"03/11/1989"}},{"type":"Feature","geometry":{"type":"Point","coordinates":[0.170774,53.406865]},"properties":{"siteId":"6624","name":"Queens Bridge","waterbody":"GB105029061680","region":"Anglian","area":"Northern","totalSurveys":4,"speciesCount":12,"firstSurvey":"04/07/1986","lastSurvey":"05/06/1995"}},{"type":"Feature","geometry":{"type":"Point","coordinates":[0.11303,53.395314]},"properties":{"siteId":"6731","name":"Church Lane","waterbody":"GB105029061680","region":"Anglian","area":"Northern","totalSurveys":2,"speciesCount":10,"firstSurvey":"02/11/1989","lastSurvey":"03/09/1992"}},{"type":"Feature","geometry":{"type":"Point","coordinates":[0.160844,53.418732]},"properties":{"siteId":"6730","name":"Grange Farm","waterbody":"GB105029061680","region":"Anglian","area":"Northern","totalSurveys":3,"speciesCount":10,"firstSurvey":"07/07/1986","lastSurvey":"12/05/1992"}},{"type":"Feature","geometry":{"type":"Point","coordinates":[0.184717,53.414702]},"properties":{"siteId":"6623","name":"South Dyke Confluence","waterbody":"GB105029061680","region":"Anglian","area":"Northern","totalSurveys":3,"speciesCount":13,"firstSurvey":"03/07/1986","lastSurvey":"05/06/1995"}},{"type":"Feature","geometry":{"type":"Point","coordinates":[0.313188,53.25854]},"properties":{"siteId":"6583","name":"Anderby Pump","waterbody":"GB105029061730","region":"Anglian","area":"Northern","totalSurveys":3,"speciesCount":6,"firstSurvey":"24/04/1986","lastSurvey":"28/06/1995"}},{"type":"Feature","geometry":{"type":"Point","coordinates":[0.301157,53.257874]},"properties":{"siteId":"6584","name":"Anderby Road Bridge","waterbody":"GB105029061730","region":"Anglian","area":"Northern","totalSurveys":3,"speciesCount":5,"firstSurvey":"13/07/1992","lastSurvey":"18/09/2019"}},{"type":"Feature","geometry":{"type":"Point","coordinates":[0.314142,53.192888]},"properties":{"siteId":"6639","name":"Addlethorpe Bridge","waterbody":"GB105029061700","region":"Anglian","area":"Northern","totalSurveys":4,"speciesCount":11,"firstSurvey":"14/04/1986","lastSurvey":"12/05/2015"}},{"type":"Feature","geometry":{"type":"Point","coordinates":[0.3454,53.189579]},"properties":{"siteId":"6638","name":"Ingoldmells A52","waterbody":"GB105029061700","region":"Anglian","area":"Northern","totalSurveys":3,"speciesCount":7,"firstSurvey":"14/04/1986","lastSurvey":"04/10/1995"}},{"type":"Feature","geometry":{"type":"Point","coordinates":[0.316752,53.213516]},"properties":{"siteId":"6677","name":"A52 Layby","waterbody":"GB105029061710","region":"Anglian","area":"Northern","totalSurveys":2,"speciesCount":7,"firstSurvey":"15/04/1986","lastSurvey":"03/10/1995"}},{"type":"Feature","geometry":{"type":"Point","coordinates":[0.304975,53.217341]},"properties":{"siteId":"6775","name":"A52 Road Bridge Near Hogsthorpe","waterbody":"GB105029061710","region":"Anglian","area":"Northern","totalSurveys":4,"speciesCount":7,"firstSurvey":"24/04/1986","lastSurvey":"21/05/2015"}},{"type":"Feature","geometry":{"type":"Point","coordinates":[0.327956,53.226784]},"properties":{"siteId":"6774","name":"Roadside Chapel Saint Leonards","waterbody":"GB105029061710","region":"Anglian","area":"Northern","totalSurveys":3,"speciesCount":7,"firstSurvey":"16/07/1992","lastSurvey":"21/05/2015"}},{"type":"Feature","geometry":{"type":"Point","coordinates":[0.277318,53.2889]},"properties":{"siteId":"6589","name":"A52 Road Bridge U/S","waterbody":"GB105029061740","region":"Anglian","area":"Northern","totalSurveys":3,"speciesCount":10,"firstSurvey":"10/04/1986","lastSurvey":"27/06/1995"}},{"type":"Feature","geometry":{"type":"Point","coordinates":[0.229163,53.314984]},"properties":{"siteId":"6780","name":"Axletree Hurn STW","waterbody":"GB105029061650","region":"Anglian","area":"Northern","totalSurveys":3,"speciesCount":7,"firstSurvey":"25/04/1986","lastSurvey":"12/06/1995"}},{"type":"Feature","geometry":{"type":"Point","coordinates":[0.244397,53.319193]},"properties":{"siteId":"6781","name":"Bambers Bridge South","waterbody":"GB105029061650","region":"Anglian","area":"Northern","totalSurveys":7,"speciesCount":11,"firstSurvey":"11/04/1986","lastSurvey":"28/05/2015"}},{"type":"Feature","geometry":{"type":"Point","coordinates":[0.19719,53.268017]},"properties":{"siteId":"64003","name":"Bilsby Gauging Station","waterbody":null,"region":"Anglian","area":"Northern","totalSurveys":1,"speciesCount":3,"firstSurvey":"27/05/2015","lastSurvey":"27/05/2015"}},{"type":"Feature","geometry":{"type":"Point","coordinates":[0.2575,53.282983]},"properties":{"siteId":"6588","name":"Hannah Road Bridge","waterbody":"GB105029061740","region":"Anglian","area":"Northern","totalSurveys":3,"speciesCount":9,"firstSurvey":"22/04/1986","lastSurvey":"20/06/1995"}},{"type":"Feature","geometry":{"type":"Point","coordinates":[0.297092,53.293915]},"properties":{"siteId":"6590","name":"Pump Station","waterbody":"GB105029061740","region":"Anglian","area":"Northern","totalSurveys":1,"speciesCount":9,"firstSurvey":"04/10/1995","lastSurvey":"04/10/1995"}},{"type":"Feature","geometry":{"type":"Point","coordinates":[0.242991,53.321018]},"properties":{"siteId":"6748","name":"Bambers Bridge North","waterbody":"GB105029061650","region":"Anglian","area":"Northern","totalSurveys":3,"speciesCount":8,"firstSurvey":"11/04/1986","lastSurvey":"12/06/1995"}},{"type":"Feature","geometry":{"type":"Point","coordinates":[0.249133,53.3236]},"properties":{"siteId":"6749","name":"Trusthorpe Pump North","waterbody":"GB105029061650","region":"Anglian","area":"Northern","totalSurveys":2,"speciesCount":7,"firstSurvey":"24/08/1992","lastSurvey":"16/06/1995"}},{"type":"Feature","geometry":{"type":"Point","coordinates":[0.268968,53.329517]},"properties":{"siteId":"6779","name":"Trusthorpe Pump South","waterbody":"GB105029061650","region":"Anglian","area":"Northern","totalSurveys":1,"speciesCount":7,"firstSurvey":"15/06/1995","lastSurvey":"15/06/1995"}},{"type":"Feature","geometry":{"type":"Point","coordinates":[0.21143,53.292001]},"properties":{"siteId":"49805","name":"Washdyke Bridge","waterbody":null,"region":"Anglian","area":"Northern","totalSurveys":2,"speciesCount":5,"firstSurvey":"21/11/2013","lastSurvey":"07/05/2015"}},{"type":"Feature","geometry":{"type":"Point","coordinates":[0.049911,53.396415]},"properties":{"siteId":"7911","name":"Alvingham Fisheries","waterbody":"GB104029061990","region":"Anglian","area":"Northern","totalSurveys":1,"speciesCount":10,"firstSurvey":"05/02/1998","lastSurvey":"05/02/1998"}},{"type":"Feature","geometry":{"type":"Point","coordinates":[0.318767,53.167623]},"properties":{"siteId":"9351","name":"Birchwood Caravan Site","waterbody":"GB105029061700","region":"Anglian","area":"Northern","totalSurveys":1,"speciesCount":11,"firstSurvey":"14/01/2003","lastSurvey":"14/01/2003"}},{"type":"Feature","geometry":{"type":"Point","coordinates":[0.203857,53.114961]},"properties":{"siteId":"8048","name":"Bycroft Lake Wainfleet","waterbody":"GB105030056430","region":"Anglian","area":"Northern","totalSurveys":1,"speciesCount":1,"firstSurvey":"04/02/1999","lastSurvey":"04/02/1999"}},{"type":"Feature","geometry":{"type":"Point","coordinates":[0.151453,53.441378]},"properties":{"siteId":"7932","name":"Cypranids A.C. Lake","waterbody":"GB104029062150","region":"Anglian","area":"Northern","totalSurveys":1,"speciesCount":13,"firstSurvey":"14/02/2001","lastSurvey":"14/02/2001"}},{"type":"Feature","geometry":{"type":"Point","coordinates":[0.215945,53.241219]},"properties":{"siteId":"34469","name":"Farlesthorpe Lake","waterbody":"GB105029061720","region":"Anglian","area":"Northern","totalSurveys":1,"speciesCount":8,"firstSurvey":"08/12/2009","lastSurvey":"08/12/2009"}},{"type":"Feature","geometry":{"type":"Point","coordinates":[0.073223,53.442761]},"properties":{"siteId":"7946","name":"Grainthorpe Estates Lake","waterbody":"GB104029062020","region":"Anglian","area":"Northern","totalSurveys":2,"speciesCount":12,"firstSurvey":"19/01/1994","lastSurvey":"05/12/2002"}},{"type":"Feature","geometry":{"type":"Point","coordinates":[0.079811,53.454334]},"properties":{"siteId":"7947","name":"Grainthorpe Lake Site 1","waterbody":"GB104029062140","region":"Anglian","area":"Northern","totalSurveys":1,"speciesCount":7,"firstSurvey":"26/11/1986","lastSurvey":"26/11/1986"}},{"type":"Feature","geometry":{"type":"Point","coordinates":[0.082777,53.453383]},"properties":{"siteId":"7948","name":"Grainthorpe Lake Site 2","waterbody":"GB104029062020","region":"Anglian","area":"Northern","totalSurveys":1,"speciesCount":4,"firstSurvey":"26/11/1986","lastSurvey":"26/11/1986"}},{"type":"Feature","geometry":{"type":"Point","coordinates":[0.079811,53.454334]},"properties":{"siteId":"7949","name":"Grainthorpe Lake Site 3","waterbody":"GB104029062140","region":"Anglian","area":"Northern","totalSurveys":1,"speciesCount":7,"firstSurvey":"26/11/1986","lastSurvey":"26/11/1986"}},{"type":"Feature","geometry":{"type":"Point","coordinates":[0.080595,53.377903]},"properties":{"siteId":"7951","name":"Grimoldby Lake","waterbody":"GB105029061680","region":"Anglian","area":"Northern","totalSurveys":2,"speciesCount":8,"firstSurvey":"12/01/1998","lastSurvey":"13/01/1998"}},{"type":"Feature","geometry":{"type":"Point","coordinates":[0.112437,53.139995]},"properties":{"siteId":"7953","name":"Hare Hills Reservoir","waterbody":"GB105030056790","region":"Anglian","area":"Northern","totalSurveys":1,"speciesCount":1,"firstSurvey":"04/10/1989","lastSurvey":"04/10/1989"}},{"type":"Feature","geometry":{"type":"Point","coordinates":[0.261089,53.18042]},"properties":{"siteId":"7956","name":"Herons Mead Lake","waterbody":"GB105029061700","region":"Anglian","area":"Northern","totalSurveys":1,"speciesCount":13,"firstSurvey":"06/02/2001","lastSurvey":"06/02/2001"}},{"type":"Feature","geometry":{"type":"Point","coordinates":[0.29976,53.231827]},"properties":{"siteId":"7958","name":"Hogsthorpe A.C. Lake","waterbody":"GB105029061710","region":"Anglian","area":"Northern","totalSurveys":1,"speciesCount":12,"firstSurvey":"26/01/2000","lastSurvey":"26/01/2000"}},{"type":"Feature","geometry":{"type":"Point","coordinates":[0.312554,53.218992]},"properties":{"siteId":"7959","name":"Hogsthorpe Lake Hill View","waterbody":"GB105029061710","region":"Anglian","area":"Northern","totalSurveys":2,"speciesCount":10,"firstSurvey":"15/11/1985","lastSurvey":"01/11/1988"}},{"type":"Feature","geometry":{"type":"Point","coordinates":[0.029105,53.180103]},"properties":{"siteId":"7964","name":"Howards Lakes No 1","waterbody":"GB105030062430","region":"Anglian","area":"Northern","totalSurveys":1,"speciesCount":10,"firstSurvey":"31/10/1994","lastSurvey":"31/10/1994"}},{"type":"Feature","geometry":{"type":"Point","coordinates":[0.029105,53.180103]},"properties":{"siteId":"7965","name":"Howards Lakes No 2","waterbody":"GB105030062430","region":"Anglian","area":"Northern","totalSurveys":1,"speciesCount":8,"firstSurvey":"02/11/1994","lastSurvey":"02/11/1994"}},{"type":"Feature","geometry":{"type":"Point","coordinates":[0.89047,53.169502]},"properties":{"siteId":"7967","name":"Hykeham Station Lake (George Fisher A.C.)","waterbody":null,"region":"Anglian","area":"Northern","totalSurveys":2,"speciesCount":8,"firstSurvey":"17/04/1990","lastSurvey":"18/04/1990"}},{"type":"Feature","geometry":{"type":"Point","coordinates":[0.290683,53.230204]},"properties":{"siteId":"7969","name":"Ivy Lodge Fishery Hogsthorpe","waterbody":"GB105029061710","region":"Anglian","area":"Northern","totalSurveys":2,"speciesCount":12,"firstSurvey":"27/01/1999","lastSurvey":"03/12/2002"}},{"type":"Feature","geometry":{"type":"Point","coordinates":[0.154462,53.441324]},"properties":{"siteId":"7973","name":"Lakeside Lido Site 1 Island End","waterbody":"GB104029062150","region":"Anglian","area":"Northern","totalSurveys":1,"speciesCount":3,"firstSurvey":"05/11/1986","lastSurvey":"05/11/1986"}},{"type":"Feature","geometry":{"type":"Point","coordinates":[0.147167,53.44595]},"properties":{"siteId":"7974","name":"Lakeside Lido Site 2","waterbody":"GB104029062150","region":"Anglian","area":"Northern","totalSurveys":1,"speciesCount":8,"firstSurvey":"04/11/1986","lastSurvey":"04/11/1986"}},{"type":"Feature","geometry":{"type":"Point","coordinates":[0.04338,53.354273]},"properties":{"siteId":"7975","name":"Legbourne Windmill Lake","waterbody":"GB105029061670","region":"Anglian","area":"Northern","totalSurveys":1,"speciesCount":3,"firstSurvey":"13/02/1987","lastSurvey":"13/02/1987"}},{"type":"Feature","geometry":{"type":"Point","coordinates":[0.005833,53.482569]},"properties":{"siteId":"7976","name":"Louth Canal Refuge","waterbody":"GB104029062080","region":"Anglian","area":"Northern","totalSurveys":1,"speciesCount":14,"firstSurvey":"21/01/1998","lastSurvey":"21/01/1998"}},{"type":"Feature","geometry":{"type":"Point","coordinates":[0.277604,53.294289]},"properties":{"siteId":"7980","name":"Marisco","waterbody":"GB105029061760","region":"Anglian","area":"Northern","totalSurveys":1,"speciesCount":13,"firstSurvey":"22/01/1998","lastSurvey":"22/01/1998"}},{"type":"Feature","geometry":{"type":"Point","coordinates":[0.315154,53.183877]},"properties":{"siteId":"7982","name":"Mill Road Lakes Horseshoe Lake","waterbody":"GB105029061700","region":"Anglian","area":"Northern","totalSurveys":1,"speciesCount":11,"firstSurvey":"16/03/1998","lastSurvey":"16/03/1998"}},{"type":"Feature","geometry":{"type":"Point","coordinates":[0.315154,53.183877]},"properties":{"siteId":"7983","name":"Mill Road Lakes Oblong Lake","waterbody":"GB105029061700","region":"Anglian","area":"Northern","totalSurveys":1,"speciesCount":12,"firstSurvey":"23/02/1998","lastSurvey":"23/02/1998"}},{"type":"Feature","geometry":{"type":"Point","coordinates":[0.013108,53.477053]},"properties":{"siteId":"7993","name":"Parkers Lake","waterbody":"GB104029062080","region":"Anglian","area":"Northern","totalSurveys":2,"speciesCount":5,"firstSurvey":"12/03/1986","lastSurvey":"14/03/1986"}},{"type":"Feature","geometry":{"type":"Point","coordinates":[0.095729,53.196032]},"properties":{"siteId":"7994","name":"Partney Pit","waterbody":"GB105030062430","region":"Anglian","area":"Northern","totalSurveys":1,"speciesCount":11,"firstSurvey":"08/02/2001","lastSurvey":"08/02/2001"}},{"type":"Feature","geometry":{"type":"Point","coordinates":[0.163308,53.229887]},"properties":{"siteId":"7999","name":"Pelhams Arms Farm Lake","waterbody":"GB105029061710","region":"Anglian","area":"Northern","totalSurveys":1,"speciesCount":7,"firstSurvey":"18/02/1987","lastSurvey":"18/02/1987"}},{"type":"Feature","geometry":{"type":"Point","coordinates":[0.013108,53.477053]},"properties":{"siteId":"8000","name":"Pinders Lake","waterbody":"GB104029062080","region":"Anglian","area":"Northern","totalSurveys":2,"speciesCount":14,"firstSurvey":"05/11/1987","lastSurvey":"06/12/2001"}},{"type":"Feature","geometry":{"type":"Point","coordinates":[0.032548,53.094635]},"properties":{"siteId":"8004","name":"Poplar Farm Reservoir","waterbody":"GB105030056790","region":"Anglian","area":"Northern","totalSurveys":2,"speciesCount":4,"firstSurvey":"15/10/1986","lastSurvey":"11/01/1990"}},{"type":"Feature","geometry":{"type":"Point","coordinates":[0.346797,53.187753]},"properties":{"siteId":"8016","name":"Skegness Water Leisure Park","waterbody":"GB105029061700","region":"Anglian","area":"Northern","totalSurveys":1,"speciesCount":10,"firstSurvey":"04/12/1995","lastSurvey":"04/12/1995"}},{"type":"Feature","geometry":{"type":"Point","coordinates":[0.105286,53.329821]},"properties":{"siteId":"8019","name":"South Reston","waterbody":"GB105029061670","region":"Anglian","area":"Northern","totalSurveys":1,"speciesCount":4,"firstSurvey":"17/03/1986","lastSurvey":"17/03/1986"}},{"type":"Feature","geometry":{"type":"Point","coordinates":[0.039176,53.360638]},"properties":{"siteId":"8022","name":"Stewton","waterbody":"GB105029061680","region":"Anglian","area":"Northern","totalSurveys":1,"speciesCount":10,"firstSurvey":"05/02/1999","lastSurvey":"05/02/1999"}},{"type":"Feature","geometry":{"type":"Point","coordinates":[0.196575,53.118692]},"properties":{"siteId":"8025","name":"Swan Lake Wainfleet","waterbody":"GB105030062430","region":"Anglian","area":"Northern","totalSurveys":1,"speciesCount":13,"firstSurvey":"07/12/1993","lastSurvey":"07/12/1993"}},{"type":"Feature","geometry":{"type":"Point","coordinates":[0.259909,53.157966]},"properties":{"siteId":"8026","name":"Sycamore Lakes Island Pond","waterbody":"GB105030056440","region":"Anglian","area":"Northern","totalSurveys":1,"speciesCount":6,"firstSurvey":"07/03/1986","lastSurvey":"07/03/1986"}},{"type":"Feature","geometry":{"type":"Point","coordinates":[0.259862,53.157067]},"properties":{"siteId":"8027","name":"Sycamore Lakes Match Lake","waterbody":"GB105030056440","region":"Anglian","area":"Northern","totalSurveys":1,"speciesCount":11,"firstSurvey":"19/11/1986","lastSurvey":"19/11/1986"}},{"type":"Feature","geometry":{"type":"Point","coordinates":[0.259909,53.157966]},"properties":{"siteId":"8028","name":"Sycamore Lakes Roadside Pond","waterbody":"GB105030056440","region":"Anglian","area":"Northern","totalSurveys":1,"speciesCount":8,"firstSurvey":"06/03/1986","lastSurvey":"06/03/1986"}},{"type":"Feature","geometry":{"type":"Point","coordinates":[0.018649,53.498536]},"properties":{"siteId":"8031","name":"Tetney Lock A.C. Lake","waterbody":"GB104029062100","region":"Anglian","area":"Northern","totalSurveys":1,"speciesCount":11,"firstSurvey":"09/02/1987","lastSurvey":"09/02/1987"}},{"type":"Feature","geometry":{"type":"Point","coordinates":[0.169434,53.262142]},"properties":{"siteId":"8032","name":"Tothby Lake","waterbody":"GB105029061750","region":"Anglian","area":"Northern","totalSurveys":1,"speciesCount":5,"firstSurvey":"21/04/1987","lastSurvey":"21/04/1987"}},{"type":"Feature","geometry":{"type":"Point","coordinates":[0.137722,53.377793]},"properties":{"siteId":"8034","name":"Vickers Lake","waterbody":"GB105029061680","region":"Anglian","area":"Northern","totalSurveys":2,"speciesCount":9,"firstSurvey":"04/12/1986","lastSurvey":"15/11/1994"}},{"type":"Feature","geometry":{"type":"Point","coordinates":[0.149994,53.442303]},"properties":{"siteId":"8035","name":"Warren House Lake","waterbody":"GB104029062150","region":"Anglian","area":"Northern","totalSurveys":1,"speciesCount":6,"firstSurvey":"06/02/1989","lastSurvey":"06/02/1989"}},{"type":"Feature","geometry":{"type":"Point","coordinates":[0.001424,53.356782]},"properties":{"siteId":"8037","name":"Wellington A.C. Lake Louth.","waterbody":"GB105029061680","region":"Anglian","area":"Northern","totalSurveys":1,"speciesCount":8,"firstSurvey":"13/12/1993","lastSurvey":"13/12/1993"}},{"type":"Feature","geometry":{"type":"Point","coordinates":[0.004232,53.384604]},"properties":{"siteId":"8049","name":"Willow Lake Louth","waterbody":"GB104029061990","region":"Anglian","area":"Northern","totalSurveys":1,"speciesCount":6,"firstSurvey":"06/11/1995","lastSurvey":"06/11/1995"}},{"type":"Feature","geometry":{"type":"Point","coordinates":[0.207082,53.323486]},"properties":{"siteId":"8050","name":"Willow Lake Maltby Le Marsh","waterbody":"GB105029061640","region":"Anglian","area":"Northern","totalSurveys":1,"speciesCount":6,"firstSurvey":"03/11/1993","lastSurvey":"03/11/1993"}},{"type":"Feature","geometry":{"type":"Point","coordinates":[0.181876,53.270905]},"properties":{"siteId":"29321","name":"Windmill Lake","waterbody":"GB105029061750","region":"Anglian","area":"Northern","totalSurveys":1,"speciesCount":11,"firstSurvey":"23/01/2008","lastSurvey":"23/01/2008"}},{"type":"Feature","geometry":{"type":"Point","coordinates":[0.094678,53.174473]},"properties":{"siteId":"8053","name":"Woodlands Lakes No 1","waterbody":"GB105030056790","region":"Anglian","area":"Northern","totalSurveys":1,"speciesCount":3,"firstSurvey":"20/01/1989","lastSurvey":"20/01/1989"}},{"type":"Feature","geometry":{"type":"Point","coordinates":[0.094766,53.176269]},"properties":{"siteId":"8054","name":"Woodlands Lakes No 2","waterbody":"GB105030062430","region":"Anglian","area":"Northern","totalSurveys":1,"speciesCount":2,"firstSurvey":"20/01/1989","lastSurvey":"20/01/1989"}},{"type":"Feature","geometry":{"type":"Point","coordinates":[0.100834,53.177961]},"properties":{"siteId":"8055","name":"Woodlands Spilsby","waterbody":"GB105030062430","region":"Anglian","area":"Northern","totalSurveys":1,"speciesCount":12,"firstSurvey":"30/11/1999","lastSurvey":"30/11/1999"}},{"type":"Feature","geometry":{"type":"Point","coordinates":[0.165394,53.300875]},"properties":{"siteId":"8056","name":"Woodthorpe Hall Lake","waterbody":"GB105029061750","region":"Anglian","area":"Northern","totalSurveys":1,"speciesCount":13,"firstSurvey":"05/12/2001","lastSurvey":"05/12/2001"}},{"type":"Feature","geometry":{"type":"Point","coordinates":[0.12821,53.298577]},"properties":{"siteId":"7890","name":"No Name - LIN20X","waterbody":"GB105029061660","region":"Anglian","area":"Northern","totalSurveys":2,"speciesCount":5,"firstSurvey":"26/08/1994","lastSurvey":"27/09/1995"}},{"type":"Feature","geometry":{"type":"Point","coordinates":[0.128405,53.299473]},"properties":{"siteId":"7891","name":"No Name - LIN21X","waterbody":"GB105029061660","region":"Anglian","area":"Northern","totalSurveys":2,"speciesCount":6,"firstSurvey":"26/08/1994","lastSurvey":"27/09/1995"}},{"type":"Feature","geometry":{"type":"Point","coordinates":[0.131921,53.300759]},"properties":{"siteId":"7892","name":"No Name - LIN22X","waterbody":"GB105029061660","region":"Anglian","area":"Northern","totalSurveys":2,"speciesCount":3,"firstSurvey":"26/08/1994","lastSurvey":"27/09/1995"}},{"type":"Feature","geometry":{"type":"Point","coordinates":[0.133169,53.301725]},"properties":{"siteId":"7893","name":"No Name - LIN23X","waterbody":"GB105029061660","region":"Anglian","area":"Northern","totalSurveys":2,"speciesCount":6,"firstSurvey":"26/08/1994","lastSurvey":"26/09/1995"}},{"type":"Feature","geometry":{"type":"Point","coordinates":[0.134246,53.302246]},"properties":{"siteId":"7894","name":"No Name - LIN24X","waterbody":"GB105029061660","region":"Anglian","area":"Northern","totalSurveys":2,"speciesCount":4,"firstSurvey":"25/08/1994","lastSurvey":"26/09/1995"}},{"type":"Feature","geometry":{"type":"Point","coordinates":[0.13344,53.304148]},"properties":{"siteId":"7895","name":"No Name - LIN25X","waterbody":"GB105029061660","region":"Anglian","area":"Northern","totalSurveys":2,"speciesCount":4,"firstSurvey":"25/08/1994","lastSurvey":"26/09/1995"}},{"type":"Feature","geometry":{"type":"Point","coordinates":[0.133357,53.305498]},"properties":{"siteId":"7896","name":"No Name - LIN26X","waterbody":"GB105029061660","region":"Anglian","area":"Northern","totalSurveys":2,"speciesCount":3,"firstSurvey":"25/08/1994","lastSurvey":"25/09/1995"}},{"type":"Feature","geometry":{"type":"Point","coordinates":[0.131715,53.308674]},"properties":{"siteId":"7897","name":"No Name - LIN27X","waterbody":"GB105029061660","region":"Anglian","area":"Northern","totalSurveys":2,"speciesCount":4,"firstSurvey":"24/08/1994","lastSurvey":"25/09/1995"}},{"type":"Feature","geometry":{"type":"Point","coordinates":[0.136775,53.319822]},"properties":{"siteId":"7898","name":"No Name - LIN28X","waterbody":"GB105029061660","region":"Anglian","area":"Northern","totalSurveys":3,"speciesCount":5,"firstSurvey":"24/08/1994","lastSurvey":"08/10/1996"}},{"type":"Feature","geometry":{"type":"Point","coordinates":[0.137892,53.32115]},"properties":{"siteId":"7899","name":"No Name - LIN29X","waterbody":"GB105029061660","region":"Anglian","area":"Northern","totalSurveys":3,"speciesCount":10,"firstSurvey":"24/08/1994","lastSurvey":"08/10/1996"}},{"type":"Feature","geometry":{"type":"Point","coordinates":[0.123712,53.36213]},"properties":{"siteId":"7883","name":"No Name - LIN10X","waterbody":"GB105029061670","region":"Anglian","area":"Northern","totalSurveys":3,"speciesCount":6,"firstSurvey":"16/08/1994","lastSurvey":"24/09/1996"}},{"type":"Feature","geometry":{"type":"Point","coordinates":[0.123398,53.361866]},"properties":{"siteId":"7884","name":"No Name - LIN10XX","waterbody":"GB105029061670","region":"Anglian","area":"Northern","totalSurveys":2,"speciesCount":5,"firstSurvey":"18/09/1995","lastSurvey":"24/09/1996"}},{"type":"Feature","geometry":{"type":"Point","coordinates":[0.13608,53.360021]},"properties":{"siteId":"7885","name":"No Name - LIN11X","waterbody":"GB105029061670","region":"Anglian","area":"Northern","totalSurveys":3,"speciesCount":9,"firstSurvey":"19/08/1994","lastSurvey":"20/09/1996"}},{"type":"Feature","geometry":{"type":"Point","coordinates":[0.138223,53.360792]},"properties":{"siteId":"7886","name":"No Name - LIN12X","waterbody":"GB105029061670","region":"Anglian","area":"Northern","totalSurveys":3,"speciesCount":8,"firstSurvey":"19/08/1994","lastSurvey":"20/09/1996"}},{"type":"Feature","geometry":{"type":"Point","coordinates":[0.138273,53.36178]},"properties":{"siteId":"7887","name":"No Name - LIN13X","waterbody":"GB105029061670","region":"Anglian","area":"Northern","totalSurveys":3,"speciesCount":10,"firstSurvey":"22/08/1994","lastSurvey":"19/09/1996"}},{"type":"Feature","geometry":{"type":"Point","coordinates":[0.138167,53.362681]},"properties":{"siteId":"7888","name":"No Name - LIN14X","waterbody":"GB105029061670","region":"Anglian","area":"Northern","totalSurveys":3,"speciesCount":10,"firstSurvey":"22/08/1994","lastSurvey":"18/09/1996"}},{"type":"Feature","geometry":{"type":"Point","coordinates":[0.137935,53.364034]},"properties":{"siteId":"7889","name":"No Name - LIN15X","waterbody":"GB105029061670","region":"Anglian","area":"Northern","totalSurveys":3,"speciesCount":12,"firstSurvey":"22/08/1994","lastSurvey":"17/09/1996"}},{"type":"Feature","geometry":{"type":"Point","coordinates":[0.115932,53.356784]},"properties":{"siteId":"7900","name":"No Name - LIN4X","waterbody":"GB105029061670","region":"Anglian","area":"Northern","totalSurveys":1,"speciesCount":4,"firstSurvey":"18/08/1994","lastSurvey":"18/08/1994"}},{"type":"Feature","geometry":{"type":"Point","coordinates":[0.117456,53.357207]},"properties":{"siteId":"7901","name":"No Name - LIN5X","waterbody":"GB105029061670","region":"Anglian","area":"Northern","totalSurveys":1,"speciesCount":3,"firstSurvey":"18/08/1994","lastSurvey":"18/08/1994"}},{"type":"Feature","geometry":{"type":"Point","coordinates":[0.119876,53.357523]},"properties":{"siteId":"7902","name":"No Name - LIN6X","waterbody":"GB105029061670","region":"Anglian","area":"Northern","totalSurveys":3,"speciesCount":7,"firstSurvey":"17/08/1994","lastSurvey":"26/09/1996"}},{"type":"Feature","geometry":{"type":"Point","coordinates":[0.11867,53.357455]},"properties":{"siteId":"7903","name":"No Name - LIN6XX","waterbody":"GB105029061670","region":"Anglian","area":"Northern","totalSurveys":2,"speciesCount":3,"firstSurvey":"15/09/1995","lastSurvey":"26/09/1996"}},{"type":"Feature","geometry":{"type":"Point","coordinates":[0.120853,53.359034]},"properties":{"siteId":"7904","name":"No Name - LIN7X","waterbody":"GB105029061670","region":"Anglian","area":"Northern","totalSurveys":3,"speciesCount":5,"firstSurvey":"17/08/1994","lastSurvey":"25/09/1996"}},{"type":"Feature","geometry":{"type":"Point","coordinates":[0.120216,53.358326]},"properties":{"siteId":"7905","name":"No Name - LIN7XX","waterbody":"GB105029061670","region":"Anglian","area":"Northern","totalSurveys":2,"speciesCount":5,"firstSurvey":"15/09/1995","lastSurvey":"25/09/1996"}},{"type":"Feature","geometry":{"type":"Point","coordinates":[0.121193,53.359837]},"properties":{"siteId":"7906","name":"No Name - LIN8X","waterbody":"GB105029061670","region":"Anglian","area":"Northern","totalSurveys":3,"speciesCount":6,"firstSurvey":"17/08/1994","lastSurvey":"25/09/1996"}},{"type":"Feature","geometry":{"type":"Point","coordinates":[0.120261,53.359225]},"properties":{"siteId":"7907","name":"No Name - LIN8XX","waterbody":"GB105029061670","region":"Anglian","area":"Northern","totalSurveys":2,"speciesCount":5,"firstSurvey":"15/09/1995","lastSurvey":"25/09/1996"}},{"type":"Feature","geometry":{"type":"Point","coordinates":[0.121874,53.361443]},"properties":{"siteId":"7908","name":"No Name - LIN9X","waterbody":"GB105029061670","region":"Anglian","area":"Northern","totalSurveys":3,"speciesCount":5,"firstSurvey":"16/08/1994","lastSurvey":"24/09/1996"}},{"type":"Feature","geometry":{"type":"Point","coordinates":[0.121852,53.360994]},"properties":{"siteId":"7909","name":"No Name - LIN9XX","waterbody":"GB105029061670","region":"Anglian","area":"Northern","totalSurveys":2,"speciesCount":6,"firstSurvey":"18/09/1995","lastSurvey":"24/09/1996"}},{"type":"Feature","geometry":{"type":"Point","coordinates":[0.039006,53.294113]},"properties":{"siteId":"7826","name":"Burwell","waterbody":"GB105029061630","region":"Anglian","area":"Northern","totalSurveys":1,"speciesCount":1,"firstSurvey":"09/01/1995","lastSurvey":"09/01/1995"}},{"type":"Feature","geometry":{"type":"Point","coordinates":[0.079328,53.259253]},"properties":{"siteId":"7829","name":"Calceby","waterbody":"GB105029061630","region":"Anglian","area":"Northern","totalSurveys":3,"speciesCount":4,"firstSurvey":"09/01/1995","lastSurvey":"07/05/2014"}},{"type":"Feature","geometry":{"type":"Point","coordinates":[0.052879,53.270499]},"properties":{"siteId":"7828","name":"Ketsby Mill Farm","waterbody":"GB105029061620","region":"Anglian","area":"Northern","totalSurveys":1,"speciesCount":3,"firstSurvey":"09/01/1995","lastSurvey":"09/01/1995"}},{"type":"Feature","geometry":{"type":"Point","coordinates":[0.088921,53.302239]},"properties":{"siteId":"7825","name":"Muckton Wood","waterbody":"GB105029061660","region":"Anglian","area":"Northern","totalSurveys":1,"speciesCount":1,"firstSurvey":"09/01/1995","lastSurvey":"09/01/1995"}},{"type":"Feature","geometry":{"type":"Point","coordinates":[0.081655,53.276294]},"properties":{"siteId":"7827","name":"Swaby","waterbody":"GB105029061630","region":"Anglian","area":"Northern","totalSurveys":1,"speciesCount":2,"firstSurvey":"09/01/1995","lastSurvey":"09/01/1995"}},{"type":"Feature","geometry":{"type":"Point","coordinates":[0.0773,53.341101]},"properties":{"siteId":"7822","name":"D/S Legbourne","waterbody":"GB105029061670","region":"Anglian","area":"Northern","totalSurveys":1,"speciesCount":1,"firstSurvey":"09/01/1995","lastSurvey":"09/01/1995"}},{"type":"Feature","geometry":{"type":"Point","coordinates":[0.119592,53.345751]},"properties":{"siteId":"7823","name":"Great Carlton","waterbody":"GB105029061670","region":"Anglian","area":"Northern","totalSurveys":1,"speciesCount":2,"firstSurvey":"09/01/1995","lastSurvey":"09/01/1995"}},{"type":"Feature","geometry":{"type":"Point","coordinates":[0.045823,53.342543]},"properties":{"siteId":"7820","name":"Legbourne Picnic Site","waterbody":"GB105029061670","region":"Anglian","area":"Northern","totalSurveys":1,"speciesCount":1,"firstSurvey":"09/01/1995","lastSurvey":"09/01/1995"}},{"type":"Feature","geometry":{"type":"Point","coordinates":[0.063792,53.341335]},"properties":{"siteId":"7821","name":"Legbourne","waterbody":"GB105029061670","region":"Anglian","area":"Northern","totalSurveys":1,"speciesCount":2,"firstSurvey":"09/01/1995","lastSurvey":"09/01/1995"}},{"type":"Feature","geometry":{"type":"Point","coordinates":[0.071819,53.351984]},"properties":{"siteId":"7824","name":"North Reston","waterbody":"GB105029061670","region":"Anglian","area":"Northern","totalSurveys":1,"speciesCount":3,"firstSurvey":"09/01/1995","lastSurvey":"09/01/1995"}},{"type":"Feature","geometry":{"type":"Point","coordinates":[0.051371,53.395491]},"properties":{"siteId":"7830","name":"Alvingham","waterbody":"GB104029061990","region":"Anglian","area":"Northern","totalSurveys":1,"speciesCount":3,"firstSurvey":"03/01/1995","lastSurvey":"03/01/1995"}},{"type":"Feature","geometry":{"type":"Point","coordinates":[0.029476,53.377885]},"properties":{"siteId":"7831","name":"Halfpenny Lock","waterbody":"GB104029061990","region":"Anglian","area":"Northern","totalSurveys":1,"speciesCount":1,"firstSurvey":"03/01/1995","lastSurvey":"03/01/1995"}},{"type":"Feature","geometry":{"type":"Point","coordinates":[0.132857,53.189978]},"properties":{"siteId":"7841","name":"Grebby","waterbody":"GB105030062430","region":"Anglian","area":"Northern","totalSurveys":1,"speciesCount":1,"firstSurvey":"23/11/1995","lastSurvey":"23/11/1995"}},{"type":"Feature","geometry":{"type":"Point","coordinates":[0.147692,53.157345]},"properties":{"siteId":"7843","name":"Lady Waith Beck","waterbody":"GB105030062430","region":"Anglian","area":"Northern","totalSurveys":1,"speciesCount":8,"firstSurvey":"23/11/1995","lastSurvey":"23/11/1995"}},{"type":"Feature","geometry":{"type":"Point","coordinates":[0.078562,53.212515]},"properties":{"siteId":"7838","name":"Langton","waterbody":"GB105030062430","region":"Anglian","area":"Northern","totalSurveys":1,"speciesCount":1,"firstSurvey":"22/11/1995","lastSurvey":"22/11/1995"}},{"type":"Feature","geometry":{"type":"Point","coordinates":[0.155749,53.168888]},"properties":{"siteId":"7842","name":"Monksthorpe","waterbody":"GB105030062430","region":"Anglian","area":"Northern","totalSurveys":1,"speciesCount":5,"firstSurvey":"23/11/1995","lastSurvey":"23/11/1995"}},{"type":"Feature","geometry":{"type":"Point","coordinates":[0.104396,53.189586]},"properties":{"siteId":"7839","name":"Partney","waterbody":"GB105030062430","region":"Anglian","area":"Northern","totalSurveys":1,"speciesCount":4,"firstSurvey":"22/11/1995","lastSurvey":"22/11/1995"}},{"type":"Feature","geometry":{"type":"Point","coordinates":[0.043246,53.194246]},"properties":{"siteId":"7837","name":"Raithby Bridge","waterbody":"GB105030062430","region":"Anglian","area":"Northern","totalSurveys":1,"speciesCount":3,"firstSurvey":"22/11/1995","lastSurvey":"22/11/1995"}},{"type":"Feature","geometry":{"type":"Point","coordinates":[0.141364,53.210504]},"properties":{"siteId":"7840","name":"Skendleby","waterbody":"GB105030062430","region":"Anglian","area":"Northern","totalSurveys":1,"speciesCount":1,"firstSurvey":"23/11/1995","lastSurvey":"23/11/1995"}},{"type":"Feature","geometry":{"type":"Point","coordinates":[0.003206,53.234484]},"properties":{"siteId":"7834","name":"Somersby","waterbody":"GB105030062430","region":"Anglian","area":"Northern","totalSurveys":1,"speciesCount":4,"firstSurvey":"21/11/1995","lastSurvey":"21/11/1995"}},{"type":"Feature","geometry":{"type":"Point","coordinates":[0.000169,53.233636]},"properties":{"siteId":"7836","name":"U/S Stainsby","waterbody":"GB105030062430","region":"Anglian","area":"Northern","totalSurveys":1,"speciesCount":3,"firstSurvey":"21/11/1995","lastSurvey":"21/11/1995"}},{"type":"Feature","geometry":{"type":"Point","coordinates":[0.088809,53.115238]},"properties":{"siteId":"6587","name":"Bellwater Farm","waterbody":"GB105030056430","region":"Anglian","area":"Northern","totalSurveys":6,"speciesCount":14,"firstSurvey":"14/10/1987","lastSurvey":"20/09/2019"}},{"type":"Feature","geometry":{"type":"Point","coordinates":[0.087272,53.114366]},"properties":{"siteId":"6585","name":"Hemholme Bridge","waterbody":"GB105030056430","region":"Anglian","area":"Northern","totalSurveys":4,"speciesCount":11,"firstSurvey":"01/12/1987","lastSurvey":"24/06/1996"}},{"type":"Feature","geometry":{"type":"Point","coordinates":[0.17712,53.118151]},"properties":{"siteId":"6586","name":"Thorpe Fen","waterbody":"GB105030056430","region":"Anglian","area":"Northern","totalSurveys":2,"speciesCount":11,"firstSurvey":"18/06/1993","lastSurvey":"20/06/1996"}},{"type":"Feature","geometry":{"type":"Point","coordinates":[0.066786,53.092247]},"properties":{"siteId":"6604","name":"Hobhole Junction U/S","waterbody":"GB105030056400","region":"Anglian","area":"Northern","totalSurveys":3,"speciesCount":10,"firstSurvey":"23/08/1990","lastSurvey":"27/06/1996"}},{"type":"Feature","geometry":{"type":"Point","coordinates":[0.087634,53.090984]},"properties":{"siteId":"6607","name":"Orchard House Entrance","waterbody":"GB105030056400","region":"Anglian","area":"Northern","totalSurveys":4,"speciesCount":13,"firstSurvey":"30/06/1993","lastSurvey":"10/09/2019"}},{"type":"Feature","geometry":{"type":"Point","coordinates":[0.086142,53.09101]},"properties":{"siteId":"6605","name":"Wheatsheaf Pub New Leake","waterbody":"GB105030056400","region":"Anglian","area":"Northern","totalSurveys":1,"speciesCount":8,"firstSurvey":"21/08/1990","lastSurvey":"21/08/1990"}},{"type":"Feature","geometry":{"type":"Point","coordinates":[0.047387,53.029647]},"properties":{"siteId":"6632","name":"Bennington Bridge","waterbody":"GB105030056290","region":"Anglian","area":"Northern","totalSurveys":6,"speciesCount":13,"firstSurvey":"08/07/1993","lastSurvey":"04/11/2016"}},{"type":"Feature","geometry":{"type":"Point","coordinates":[0.074268,53.123584]},"properties":{"siteId":"6635","name":"Boston Corporation Farm","waterbody":"GB105030056420","region":"Anglian","area":"Northern","totalSurveys":9,"speciesCount":16,"firstSurvey":"07/10/1987","lastSurvey":"19/09/2019"}},{"type":"Feature","geometry":{"type":"Point","coordinates":[0.035729,53.003774]},"properties":{"siteId":"6634","name":"Ings Bridge","waterbody":"GB105030056320","region":"Anglian","area":"Northern","totalSurveys":2,"speciesCount":12,"firstSurvey":"12/07/1993","lastSurvey":"10/07/1996"}},{"type":"Feature","geometry":{"type":"Point","coordinates":[0.08216,53.070401]},"properties":{"siteId":"6643","name":"Lade Bank Bridge","waterbody":"GB105030056330","region":"Anglian","area":"Northern","totalSurveys":1,"speciesCount":10,"firstSurvey":"08/07/1996","lastSurvey":"08/07/1996"}},{"type":"Feature","geometry":{"type":"Point","coordinates":[0.07043,53.199171]},"properties":{"siteId":"6633","name":"Midville Bridge U/S","waterbody":"GB105030056400","region":"Anglian","area":"Northern","totalSurveys":6,"speciesCount":13,"firstSurvey":"13/10/1987","lastSurvey":"10/08/2007"}},{"type":"Feature","geometry":{"type":"Point","coordinates":[0.051775,53.059241]},"properties":{"siteId":"6636","name":"Simmons House Farm","waterbody":"GB105030056330","region":"Anglian","area":"Northern","totalSurveys":7,"speciesCount":12,"firstSurvey":"07/07/1993","lastSurvey":"27/09/2019"}},{"type":"Feature","geometry":{"type":"Point","coordinates":[0.060774,53.091452]},"properties":{"siteId":"6637","name":"U/S Lade Bank Pump","waterbody":"GB105030056330","region":"Anglian","area":"Northern","totalSurveys":8,"speciesCount":15,"firstSurvey":"20/11/1987","lastSurvey":"26/09/2019"}},{"type":"Feature","geometry":{"type":"Point","coordinates":[0.016323,53.06704]},"properties":{"siteId":"6782","name":"Bar Bridge Farm","waterbody":"GB105030056790","region":"Anglian","area":"Northern","totalSurveys":1,"speciesCount":8,"firstSurvey":"29/05/1987","lastSurvey":"29/05/1987"}},{"type":"Feature","geometry":{"type":"Point","coordinates":[0.001208,53.095166]},"properties":{"siteId":"6597","name":"D/S Staunch Farm","waterbody":"GB105030056460","region":"Anglian","area":"Northern","totalSurveys":11,"speciesCount":17,"firstSurvey":"11/05/1987","lastSurvey":"25/04/2019"}},{"type":"Feature","geometry":{"type":"Point","coordinates":[0.132124,53.145038]},"properties":{"siteId":"6600","name":"Halton Fenside","waterbody":"GB105030056430","region":"Anglian","area":"Northern","totalSurveys":3,"speciesCount":12,"firstSurvey":"15/05/1987","lastSurvey":"30/05/2000"}},{"type":"Feature","geometry":{"type":"Point","coordinates":[0.09908,53.142029]},"properties":{"siteId":"6601","name":"Harehills Farm","waterbody":"GB105030056790","region":"Anglian","area":"Northern","totalSurveys":4,"speciesCount":13,"firstSurvey":"14/05/1987","lastSurvey":"30/05/2000"}},{"type":"Feature","geometry":{"type":"Point","coordinates":[0.014388,53.089549]},"properties":{"siteId":"6598","name":"Holmes Road Stickney","waterbody":"GB105030056790","region":"Anglian","area":"Northern","totalSurveys":4,"speciesCount":13,"firstSurvey":"12/05/1987","lastSurvey":"08/06/2000"}},{"type":"Feature","geometry":{"type":"Point","coordinates":[0.044656,53.12949]},"properties":{"siteId":"6599","name":"Keal Cotes","waterbody":"GB105030056420","region":"Anglian","area":"Northern","totalSurveys":4,"speciesCount":15,"firstSurvey":"19/05/1987","lastSurvey":"11/05/2006"}},{"type":"Feature","geometry":{"type":"Point","coordinates":[0.002108,53.050198]},"properties":{"siteId":"6747","name":"Sibsey Fenside","waterbody":"GB105030056790","region":"Anglian","area":"Northern","totalSurveys":5,"speciesCount":17,"firstSurvey":"09/06/1987","lastSurvey":"23/05/2000"}},{"type":"Feature","geometry":{"type":"Point","coordinates":[0.000967,53.122141]},"properties":{"siteId":"6765","name":"Hagnaby Lock","waterbody":"GB105030056460","region":"Anglian","area":"Northern","totalSurveys":10,"speciesCount":14,"firstSurvey":"05/05/1987","lastSurvey":"16/05/2012"}},{"type":"Feature","geometry":{"type":"Point","coordinates":[0.300645,53.136506]},"properties":{"siteId":"6595","name":"Fir Trees A52 Road Bridge","waterbody":"GB105030056440","region":"Anglian","area":"Northern","totalSurveys":1,"speciesCount":5,"firstSurvey":"04/05/1995","lastSurvey":"04/05/1995"}},{"type":"Feature","geometry":{"type":"Point","coordinates":[0.320586,53.118137]},"properties":{"siteId":"6596","name":"Seacroft","waterbody":"GB105030056440","region":"Anglian","area":"Northern","totalSurveys":2,"speciesCount":1,"firstSurvey":"15/08/1992","lastSurvey":"04/05/1995"}},{"type":"Feature","geometry":{"type":"Point","coordinates":[0.154471,53.169648]},"properties":{"siteId":"55483","name":"Lady Wath's Bridge","waterbody":"GB105030062430","region":"Anglian","area":"Northern","totalSurveys":1,"speciesCount":2,"firstSurvey":"25/03/2014","lastSurvey":"25/03/2014"}},{"type":"Feature","geometry":{"type":"Point","coordinates":[0.137097,53.154839]},"properties":{"siteId":"6703","name":"Mill Bridge","waterbody":"GB105030062430","region":"Anglian","area":"Northern","totalSurveys":14,"speciesCount":22,"firstSurvey":"29/09/1987","lastSurvey":"07/11/2025"}},{"type":"Feature","geometry":{"type":"Point","coordinates":[0.130559,53.173836]},"properties":{"siteId":"6705","name":"Moat House Farm","waterbody":"GB105030062430","region":"Anglian","area":"Northern","totalSurveys":3,"speciesCount":11,"firstSurvey":"02/10/1987","lastSurvey":"02/04/1996"}},{"type":"Feature","geometry":{"type":"Point","coordinates":[0.096743,53.186124]},"properties":{"siteId":"6706","name":"Partney Bridge","waterbody":"GB105030062430","region":"Anglian","area":"Northern","totalSurveys":9,"speciesCount":19,"firstSurvey":"06/10/1987","lastSurvey":"06/06/2024"}},{"type":"Feature","geometry":{"type":"Point","coordinates":[0.062821,53.196606]},"properties":{"siteId":"6707","name":"Raithby Bridge","waterbody":"GB105030062430","region":"Anglian","area":"Northern","totalSurveys":9,"speciesCount":13,"firstSurvey":"06/10/1987","lastSurvey":"06/06/2024"}},{"type":"Feature","geometry":{"type":"Point","coordinates":[0.002969,53.199246]},"properties":{"siteId":"55523","name":"Snipe Dales","waterbody":"GB105030062430","region":"Anglian","area":"Northern","totalSurveys":3,"speciesCount":4,"firstSurvey":"26/03/2014","lastSurvey":"23/09/2019"}},{"type":"Feature","geometry":{"type":"Point","coordinates":[0.033668,53.21329]},"properties":{"siteId":"6704","name":"Stockwith Mill","waterbody":"GB105030062430","region":"Anglian","area":"Northern","totalSurveys":10,"speciesCount":11,"firstSurvey":"06/10/1987","lastSurvey":"18/07/2024"}},{"type":"Feature","geometry":{"type":"Point","coordinates":[0.007678,53.24936]},"properties":{"siteId":"55503","name":"U/S Tetford STW","waterbody":"GB105030062430","region":"Anglian","area":"Northern","totalSurveys":1,"speciesCount":2,"firstSurvey":"26/03/2014","lastSurvey":"26/03/2014"}},{"type":"Feature","geometry":{"type":"Point","coordinates":[0.301082,53.116718]},"properties":{"siteId":"6716","name":"Clough House Farm","waterbody":"GB105030062430","region":"Anglian","area":"Northern","totalSurveys":2,"speciesCount":12,"firstSurvey":"30/09/1987","lastSurvey":"24/04/1996"}},{"type":"Feature","geometry":{"type":"Point","coordinates":[0.212583,53.110304]},"properties":{"siteId":"6715","name":"Crows Bridge","waterbody":"GB105030062430","region":"Anglian","area":"Northern","totalSurveys":9,"speciesCount":14,"firstSurvey":"15/09/1987","lastSurvey":"29/01/2025"}},{"type":"Feature","geometry":{"type":"Point","coordinates":[0.213276,53.123777]},"properties":{"siteId":"6721","name":"D/S Crows Bridge","waterbody":"GB105030062430","region":"Anglian","area":"Northern","totalSurveys":1,"speciesCount":11,"firstSurvey":"16/09/1987","lastSurvey":"16/09/1987"}},{"type":"Feature","geometry":{"type":"Point","coordinates":[0.224293,53.10559]},"properties":{"siteId":"6720","name":"D/S Salem Bridge","waterbody":"GB105030062430","region":"Anglian","area":"Northern","totalSurveys":3,"speciesCount":13,"firstSurvey":"22/09/1987","lastSurvey":"18/04/1996"}},{"type":"Feature","geometry":{"type":"Point","coordinates":[0.18373,53.130617]},"properties":{"siteId":"6726","name":"Firsby Clough","waterbody":"GB105030062430","region":"Anglian","area":"Northern","totalSurveys":3,"speciesCount":12,"firstSurvey":"09/09/1987","lastSurvey":"15/04/1996"}},{"type":"Feature","geometry":{"type":"Point","coordinates":[0.176535,53.136143]},"properties":{"siteId":"6722","name":"Firsby","waterbody":"GB105030062430","region":"Anglian","area":"Northern","totalSurveys":10,"speciesCount":16,"firstSurvey":"18/03/1993","lastSurvey":"12/08/2009"}},{"type":"Feature","geometry":{"type":"Point","coordinates":[0.318561,53.108286]},"properties":{"siteId":"6725","name":"Steeping Outfall","waterbody":"GB105030062430","region":"Anglian","area":"Northern","totalSurveys":1,"speciesCount":8,"firstSurvey":"01/10/1987","lastSurvey":"01/10/1987"}},{"type":"Feature","geometry":{"type":"Point","coordinates":[0.193772,53.12234]},"properties":{"siteId":"6723","name":"Thorpe Culvert","waterbody":"GB105030062430","region":"Anglian","area":"Northern","totalSurveys":11,"speciesCount":18,"firstSurvey":"16/09/1987","lastSurvey":"08/07/2009"}},{"type":"Feature","geometry":{"type":"Point","coordinates":[0.245189,53.105198]},"properties":{"siteId":"6713","name":"U/S A52 Bridge","waterbody":"GB105030062430","region":"Anglian","area":"Northern","totalSurveys":11,"speciesCount":16,"firstSurvey":"30/03/1993","lastSurvey":"15/07/2010"}},{"type":"Feature","geometry":{"type":"Point","coordinates":[0.194093,53.128628]},"properties":{"siteId":"6724","name":"U/S Bycrofts Bridge","waterbody":"GB105030062430","region":"Anglian","area":"Northern","totalSurveys":1,"speciesCount":9,"firstSurvey":"14/09/1987","lastSurvey":"14/09/1987"}},{"type":"Feature","geometry":{"type":"Point","coordinates":[0.277053,53.114482]},"properties":{"siteId":"6714","name":"U/S Wheel Doors","waterbody":"GB105030062430","region":"Anglian","area":"Northern","totalSurveys":3,"speciesCount":13,"firstSurvey":"28/09/1987","lastSurvey":"23/04/1996"}},{"type":"Feature","geometry":{"type":"Point","coordinates":[0.263288,53.108451]},"properties":{"siteId":"6717","name":"Whitehouse Farm","waterbody":"GB105030062430","region":"Anglian","area":"Northern","totalSurveys":3,"speciesCount":12,"firstSurvey":"24/09/1987","lastSurvey":"22/04/1996"}},{"type":"Feature","geometry":{"type":"Point","coordinates":[0.221957,53.118221]},"properties":{"siteId":"6719","name":"Lentons Bridge","waterbody":"GB105030062430","region":"Anglian","area":"Northern","totalSurveys":13,"speciesCount":18,"firstSurvey":"03/12/1987","lastSurvey":"27/05/2016"}},{"type":"Feature","geometry":{"type":"Point","coordinates":[0.251675,53.114965]},"properties":{"siteId":"6718","name":"Tasco's Bridge","waterbody":"GB105030062430","region":"Anglian","area":"Northern","totalSurveys":3,"speciesCount":13,"firstSurvey":"04/12/1987","lastSurvey":"02/05/1996"}},{"type":"Feature","geometry":{"type":"Point","coordinates":[0.041374,53.724228]},"properties":{"siteId":"29161","name":"Willows Holiday Park","waterbody":"GB104026066570","region":"Yorkshire and North East","area":"Yorkshire","totalSurveys":1,"speciesCount":5,"firstSurvey":"19/11/2007","lastSurvey":"19/11/2007"}}]}