{"type":"FeatureCollection","features":[{"type":"Feature","geometry":{"type":"Point","coordinates":[-4.046693,51.005538]},"properties":{"siteId":"9870","name":"Bucks Mill (Sp)*","waterbody":"GB108050014460","region":"South West","area":"Devon and Cornwall","totalSurveys":3,"speciesCount":7,"firstSurvey":"28/08/1996","lastSurvey":"13/07/2005"}},{"type":"Feature","geometry":{"type":"Point","coordinates":[-4.054173,51.013501]},"properties":{"siteId":"9872","name":"Bustley Bridge (Sp)","waterbody":"GB108050014490","region":"South West","area":"Devon and Cornwall","totalSurveys":6,"speciesCount":10,"firstSurvey":"30/08/1996","lastSurvey":"12/08/2025"}},{"type":"Feature","geometry":{"type":"Point","coordinates":[-4.022988,51.017643]},"properties":{"siteId":"9806","name":"Chapelton (Dip/WFD)","waterbody":"GB108050014530","region":"South West","area":"Devon and Cornwall","totalSurveys":8,"speciesCount":11,"firstSurvey":"04/09/1996","lastSurvey":"09/09/2025"}},{"type":"Feature","geometry":{"type":"Point","coordinates":[-4.040795,51.033521]},"properties":{"siteId":"9801","name":"Newbridge (Dip)*","waterbody":"GB108050014530","region":"South West","area":"Devon and Cornwall","totalSurveys":3,"speciesCount":7,"firstSurvey":"04/09/1996","lastSurvey":"12/09/2012"}},{"type":"Feature","geometry":{"type":"Point","coordinates":[-4.009313,51.09702]},"properties":{"siteId":"9876","name":"Riversmead (Sp)*","waterbody":"GB108050019990","region":"South West","area":"Devon and Cornwall","totalSurveys":1,"speciesCount":3,"firstSurvey":"09/09/1996","lastSurvey":"09/09/1996"}},{"type":"Feature","geometry":{"type":"Point","coordinates":[-4.048203,51.104439]},"properties":{"siteId":"9878","name":"Blakewell (Sp)","waterbody":"GB108050020040","region":"South West","area":"Devon and Cornwall","totalSurveys":6,"speciesCount":10,"firstSurvey":"06/09/1996","lastSurvey":"28/08/2025"}},{"type":"Feature","geometry":{"type":"Point","coordinates":[-4.057875,51.097074]},"properties":{"siteId":"9879","name":"Tutshill Weir (Sp)","waterbody":"GB108050020040","region":"South West","area":"Devon and Cornwall","totalSurveys":5,"speciesCount":13,"firstSurvey":"06/09/1996","lastSurvey":"08/08/2025"}},{"type":"Feature","geometry":{"type":"Point","coordinates":[-4.133387,51.104498]},"properties":{"siteId":"73203","name":"Footpath Ash lane","waterbody":null,"region":"South West","area":"Devon and Cornwall","totalSurveys":1,"speciesCount":3,"firstSurvey":"15/08/2019","lastSurvey":"15/08/2019"}},{"type":"Feature","geometry":{"type":"Point","coordinates":[-4.112556,51.105991]},"properties":{"siteId":"9883","name":"Knowl Water Bridge (Sp)","waterbody":"GB108050020020","region":"South West","area":"Devon and Cornwall","totalSurveys":7,"speciesCount":7,"firstSurvey":"10/09/1996","lastSurvey":"17/06/2025"}},{"type":"Feature","geometry":{"type":"Point","coordinates":[-4.150151,51.102212]},"properties":{"siteId":"73204","name":"Mill Lane","waterbody":null,"region":"South West","area":"Devon and Cornwall","totalSurveys":1,"speciesCount":2,"firstSurvey":"15/08/2019","lastSurvey":"15/08/2019"}},{"type":"Feature","geometry":{"type":"Point","coordinates":[-4.157979,51.099765]},"properties":{"siteId":"9884","name":"Wrafton (Sp)*","waterbody":"GB108050020020","region":"South West","area":"Devon and Cornwall","totalSurveys":2,"speciesCount":7,"firstSurvey":"30/08/1996","lastSurvey":"17/09/1999"}},{"type":"Feature","geometry":{"type":"Point","coordinates":[-4.161378,51.111394]},"properties":{"siteId":"9882","name":"Braunton (Sp)","waterbody":"GB108050020010","region":"South West","area":"Devon and Cornwall","totalSurveys":5,"speciesCount":8,"firstSurvey":"10/09/1996","lastSurvey":"17/06/2025"}},{"type":"Feature","geometry":{"type":"Point","coordinates":[-4.127053,51.141702]},"properties":{"siteId":"9880","name":"Little Comfort Farm (Sp)*","waterbody":"GB108050020050","region":"South West","area":"Devon and Cornwall","totalSurveys":1,"speciesCount":3,"firstSurvey":"10/09/1996","lastSurvey":"10/09/1996"}},{"type":"Feature","geometry":{"type":"Point","coordinates":[-4.1539,51.134915]},"properties":{"siteId":"9881","name":"Nethercott Crossing (Sp)*","waterbody":"GB108050020010","region":"South West","area":"Devon and Cornwall","totalSurveys":1,"speciesCount":3,"firstSurvey":"10/09/1996","lastSurvey":"10/09/1996"}},{"type":"Feature","geometry":{"type":"Point","coordinates":[-4.01346,51.060975]},"properties":{"siteId":"9873","name":"Landkey Bridge (Sp)","waterbody":"GB108050014620","region":"South West","area":"Devon and Cornwall","totalSurveys":6,"speciesCount":11,"firstSurvey":"05/09/1996","lastSurvey":"20/08/2025"}},{"type":"Feature","geometry":{"type":"Point","coordinates":[-4.044555,51.05414]},"properties":{"siteId":"9874","name":"U/S Whitemoor Bridge (Sp)*","waterbody":"GB108050014620","region":"South West","area":"Devon and Cornwall","totalSurveys":2,"speciesCount":6,"firstSurvey":"05/09/1996","lastSurvey":"21/09/1999"}},{"type":"Feature","geometry":{"type":"Point","coordinates":[-4.045773,51.629668]},"properties":{"siteId":"9257","name":"Okehampton Castle (Te)","waterbody":"GB108050008080","region":"South West","area":"Devon and Cornwall","totalSurveys":18,"speciesCount":4,"firstSurvey":"12/08/1998","lastSurvey":"22/07/2025"}},{"type":"Feature","geometry":{"type":"Point","coordinates":[-4.212029,51.024351]},"properties":{"siteId":"63944","name":"D/S Northam Road Pumping Station*","waterbody":null,"region":"South West","area":"Devon and Cornwall","totalSurveys":1,"speciesCount":3,"firstSurvey":"27/05/2015","lastSurvey":"27/05/2015"}},{"type":"Feature","geometry":{"type":"Point","coordinates":[-4.215107,51.023114]},"properties":{"siteId":"63963","name":"Kenwith Valley Reserve*","waterbody":null,"region":"South West","area":"Devon and Cornwall","totalSurveys":1,"speciesCount":1,"firstSurvey":"27/05/2015","lastSurvey":"27/05/2015"}}]}