{"type":"FeatureCollection","features":[{"type":"Feature","geometry":{"type":"Point","coordinates":[0.21255,52.269185]},"properties":{"siteId":"41826","name":"Bottisham Lode Pumping Station","waterbody":null,"region":"Anglian","area":"Central","totalSurveys":1,"speciesCount":13,"firstSurvey":"23/02/2012","lastSurvey":"23/02/2012"}},{"type":"Feature","geometry":{"type":"Point","coordinates":[0.235506,52.251191]},"properties":{"siteId":"4787","name":"Bulls Farm","waterbody":"GB105033042700","region":"Anglian","area":"Central","totalSurveys":4,"speciesCount":13,"firstSurvey":"24/09/1984","lastSurvey":"19/06/1997"}},{"type":"Feature","geometry":{"type":"Point","coordinates":[0.221497,52.264044]},"properties":{"siteId":"4788","name":"Hatleys Farm","waterbody":"GB105033042700","region":"Anglian","area":"Central","totalSurveys":5,"speciesCount":15,"firstSurvey":"24/09/1984","lastSurvey":"13/06/1997"}},{"type":"Feature","geometry":{"type":"Point","coordinates":[0.05306,52.170882]},"properties":{"siteId":"4496","name":"Barton Bridge","waterbody":"GB105033042690","region":"Anglian","area":"Central","totalSurveys":3,"speciesCount":7,"firstSurvey":"19/04/1991","lastSurvey":"13/02/1997"}},{"type":"Feature","geometry":{"type":"Point","coordinates":[0.092882,52.172457]},"properties":{"siteId":"4500","name":"Cantelupe Farm Bourn Brook","waterbody":"GB105033042690","region":"Anglian","area":"Central","totalSurveys":6,"speciesCount":8,"firstSurvey":"22/04/1991","lastSurvey":"30/05/2013"}},{"type":"Feature","geometry":{"type":"Point","coordinates":[0.021034,52.174133]},"properties":{"siteId":"4494","name":"Westfield Farm","waterbody":"GB105033042690","region":"Anglian","area":"Central","totalSurveys":8,"speciesCount":10,"firstSurvey":"18/04/1991","lastSurvey":"06/03/2025"}},{"type":"Feature","geometry":{"type":"Point","coordinates":[0.322274,52.285484]},"properties":{"siteId":"4795","name":"Burwell","waterbody":"GB105033042720","region":"Anglian","area":"Central","totalSurveys":8,"speciesCount":17,"firstSurvey":"04/10/1984","lastSurvey":"05/06/2014"}},{"type":"Feature","geometry":{"type":"Point","coordinates":[0.293536,52.296836]},"properties":{"siteId":"4796","name":"Cock-Up Bridge","waterbody":"GB105033042720","region":"Anglian","area":"Central","totalSurveys":8,"speciesCount":17,"firstSurvey":"05/10/1984","lastSurvey":"03/06/2014"}},{"type":"Feature","geometry":{"type":"Point","coordinates":[0.261531,52.30195]},"properties":{"siteId":"4797","name":"Upware","waterbody":"GB105033042720","region":"Anglian","area":"Central","totalSurveys":8,"speciesCount":16,"firstSurvey":"08/10/1984","lastSurvey":"11/06/2014"}},{"type":"Feature","geometry":{"type":"Point","coordinates":[0.17018,52.233527]},"properties":{"siteId":"4642","name":"Baits Bite Lock","waterbody":"GB105033042750","region":"Anglian","area":"Central","totalSurveys":18,"speciesCount":19,"firstSurvey":"17/01/1989","lastSurvey":"01/10/2025"}},{"type":"Feature","geometry":{"type":"Point","coordinates":[0.197626,52.255499]},"properties":{"siteId":"4644","name":"Clayhithe Bridge","waterbody":"GB105033042750","region":"Anglian","area":"Central","totalSurveys":18,"speciesCount":17,"firstSurvey":"19/01/1989","lastSurvey":"02/10/2025"}},{"type":"Feature","geometry":{"type":"Point","coordinates":[0.23443,52.288079]},"properties":{"siteId":"4646","name":"Commissioners Farm","waterbody":"GB105033042750","region":"Anglian","area":"Central","totalSurveys":6,"speciesCount":13,"firstSurvey":"23/01/1989","lastSurvey":"27/09/2011"}},{"type":"Feature","geometry":{"type":"Point","coordinates":[0.254062,52.328169]},"properties":{"siteId":"4648","name":"Dimmocks Cote","waterbody":"GB105033047850","region":"Anglian","area":"Central","totalSurveys":15,"speciesCount":20,"firstSurvey":"02/02/1989","lastSurvey":"06/09/2013"}},{"type":"Feature","geometry":{"type":"Point","coordinates":[0.25318,52.314285]},"properties":{"siteId":"77463","name":"DS Upware","waterbody":null,"region":"Anglian","area":"Central","totalSurveys":1,"speciesCount":5,"firstSurvey":"07/02/2023","lastSurvey":"07/02/2023"}},{"type":"Feature","geometry":{"type":"Point","coordinates":[0.246589,52.302343]},"properties":{"siteId":"4647","name":"Ducketts Farm Upware","waterbody":"GB105033042750","region":"Anglian","area":"Central","totalSurveys":7,"speciesCount":15,"firstSurvey":"01/02/1989","lastSurvey":"19/08/2016"}},{"type":"Feature","geometry":{"type":"Point","coordinates":[0.16841,52.227266]},"properties":{"siteId":"4641","name":"Fen Ditton","waterbody":"GB105033042750","region":"Anglian","area":"Central","totalSurveys":18,"speciesCount":21,"firstSurvey":"16/01/1988","lastSurvey":"30/09/2025"}},{"type":"Feature","geometry":{"type":"Point","coordinates":[0.213115,52.272295]},"properties":{"siteId":"4645","name":"Hatleys Wash","waterbody":"GB105033042750","region":"Anglian","area":"Central","totalSurveys":6,"speciesCount":17,"firstSurvey":"30/01/1989","lastSurvey":"01/08/2011"}},{"type":"Feature","geometry":{"type":"Point","coordinates":[0.185297,52.24314]},"properties":{"siteId":"4643","name":"Horningsea","waterbody":"GB105033042750","region":"Anglian","area":"Central","totalSurveys":6,"speciesCount":15,"firstSurvey":"18/01/1989","lastSurvey":"19/08/2011"}},{"type":"Feature","geometry":{"type":"Point","coordinates":[0.126716,52.212738]},"properties":{"siteId":"4639","name":"Midsummer Common","waterbody":"GB105033042750","region":"Anglian","area":"Central","totalSurveys":18,"speciesCount":15,"firstSurvey":"12/01/1989","lastSurvey":"25/09/2025"}},{"type":"Feature","geometry":{"type":"Point","coordinates":[0.147451,52.217758]},"properties":{"siteId":"4640","name":"Stourbridge Common","waterbody":"GB105033042750","region":"Anglian","area":"Central","totalSurveys":6,"speciesCount":15,"firstSurvey":"13/01/1989","lastSurvey":"08/08/2011"}},{"type":"Feature","geometry":{"type":"Point","coordinates":[0.21781,52.012667]},"properties":{"siteId":"64763","name":"Audley End","waterbody":null,"region":"Anglian","area":"Central","totalSurveys":1,"speciesCount":6,"firstSurvey":"24/09/2015","lastSurvey":"24/09/2015"}},{"type":"Feature","geometry":{"type":"Point","coordinates":[0.097738,52.170905]},"properties":{"siteId":"37025","name":"Byron's Pool Bypass Channel","waterbody":"GB105033042750","region":"Anglian","area":"Central","totalSurveys":4,"speciesCount":11,"firstSurvey":"04/04/2011","lastSurvey":"04/07/2012"}},{"type":"Feature","geometry":{"type":"Point","coordinates":[0.138025,52.138512]},"properties":{"siteId":"8153","name":"Dernford Weir","waterbody":"GB105033037590","region":"Anglian","area":"Central","totalSurveys":1,"speciesCount":6,"firstSurvey":"19/10/2002","lastSurvey":"19/10/2002"}},{"type":"Feature","geometry":{"type":"Point","coordinates":[0.090707,52.159745]},"properties":{"siteId":"31855","name":"DS Hauxton Mill Bridge","waterbody":"GB105033037600","region":"Anglian","area":"Central","totalSurveys":3,"speciesCount":10,"firstSurvey":"17/09/2008","lastSurvey":"11/11/2010"}},{"type":"Feature","geometry":{"type":"Point","coordinates":[0.21352,52.043267]},"properties":{"siteId":"4497","name":"Gt Chesterford","waterbody":"GB105033037590","region":"Anglian","area":"Central","totalSurveys":3,"speciesCount":6,"firstSurvey":"29/04/1991","lastSurvey":"12/12/1996"}},{"type":"Feature","geometry":{"type":"Point","coordinates":[0.089844,52.165048]},"properties":{"siteId":"31853","name":"Hauxton Junction","waterbody":"GB105033037600","region":"Anglian","area":"Central","totalSurveys":3,"speciesCount":11,"firstSurvey":"17/09/2008","lastSurvey":"11/11/2010"}},{"type":"Feature","geometry":{"type":"Point","coordinates":[0.088095,52.156428]},"properties":{"siteId":"31856","name":"Hauxton Mill Bridge","waterbody":"GB105033037600","region":"Anglian","area":"Central","totalSurveys":2,"speciesCount":11,"firstSurvey":"17/09/2008","lastSurvey":"16/03/2010"}},{"type":"Feature","geometry":{"type":"Point","coordinates":[0.180129,52.077781]},"properties":{"siteId":"4498","name":"Hinxton","waterbody":"GB105033037590","region":"Anglian","area":"Central","totalSurveys":6,"speciesCount":13,"firstSurvey":"30/04/1991","lastSurvey":"03/07/2013"}},{"type":"Feature","geometry":{"type":"Point","coordinates":[0.211578,52.034932]},"properties":{"siteId":"4495","name":"Littlebury","waterbody":"GB105033037590","region":"Anglian","area":"Central","totalSurveys":7,"speciesCount":13,"firstSurvey":"26/04/1991","lastSurvey":"12/03/2025"}},{"type":"Feature","geometry":{"type":"Point","coordinates":[0.092133,52.162103]},"properties":{"siteId":"4503","name":"P.B.I (Trumpington Meadows)","waterbody":"GB105033037600","region":"Anglian","area":"Central","totalSurveys":11,"speciesCount":19,"firstSurvey":"07/05/1991","lastSurvey":"19/03/2025"}},{"type":"Feature","geometry":{"type":"Point","coordinates":[0.169859,52.106746]},"properties":{"siteId":"4499","name":"Pampisford Mill","waterbody":"GB105033037590","region":"Anglian","area":"Central","totalSurveys":8,"speciesCount":14,"firstSurvey":"01/05/1991","lastSurvey":"13/03/2025"}},{"type":"Feature","geometry":{"type":"Point","coordinates":[0.125135,52.148924]},"properties":{"siteId":"4502","name":"Rectory Farm","waterbody":"GB105033037600","region":"Anglian","area":"Central","totalSurveys":3,"speciesCount":12,"firstSurvey":"03/05/1991","lastSurvey":"17/12/1996"}},{"type":"Feature","geometry":{"type":"Point","coordinates":[0.148751,52.123318]},"properties":{"siteId":"4501","name":"Sawston Paper Mill","waterbody":"GB105033037590","region":"Anglian","area":"Central","totalSurveys":8,"speciesCount":11,"firstSurvey":"02/05/1991","lastSurvey":"18/03/2025"}},{"type":"Feature","geometry":{"type":"Point","coordinates":[0.13402,52.14308]},"properties":{"siteId":"8173","name":"Shelford Mill","waterbody":"GB105033037600","region":"Anglian","area":"Central","totalSurveys":1,"speciesCount":7,"firstSurvey":"18/10/2002","lastSurvey":"18/10/2002"}},{"type":"Feature","geometry":{"type":"Point","coordinates":[0.21435,52.002507]},"properties":{"siteId":"4493","name":"Wendens Ambo","waterbody":"GB105033037550","region":"Anglian","area":"Central","totalSurveys":3,"speciesCount":3,"firstSurvey":"23/04/1991","lastSurvey":"03/12/1996"}},{"type":"Feature","geometry":{"type":"Point","coordinates":[0.315745,52.053675]},"properties":{"siteId":"14230","name":"Ashdon","waterbody":"GB105033037810","region":"Anglian","area":"Central","totalSurveys":4,"speciesCount":3,"firstSurvey":"10/02/2005","lastSurvey":"08/03/2010"}},{"type":"Feature","geometry":{"type":"Point","coordinates":[0.201754,52.134911]},"properties":{"siteId":"4514","name":"Babraham (I.A.P)","waterbody":"GB105033037810","region":"Anglian","area":"Central","totalSurveys":11,"speciesCount":12,"firstSurvey":"16/04/1991","lastSurvey":"20/05/2025"}},{"type":"Feature","geometry":{"type":"Point","coordinates":[0.183199,52.140669]},"properties":{"siteId":"4515","name":"Babraham","waterbody":"GB105033037810","region":"Anglian","area":"Central","totalSurveys":11,"speciesCount":10,"firstSurvey":"17/04/1991","lastSurvey":"21/05/2025"}},{"type":"Feature","geometry":{"type":"Point","coordinates":[0.29327,52.092719]},"properties":{"siteId":"4512","name":"Barham Hall Linton","waterbody":"GB105033037810","region":"Anglian","area":"Central","totalSurveys":10,"speciesCount":3,"firstSurvey":"12/04/1991","lastSurvey":"13/05/2025"}},{"type":"Feature","geometry":{"type":"Point","coordinates":[0.310889,52.083643]},"properties":{"siteId":"29709","name":"Bartlow","waterbody":"GB105033037810","region":"Anglian","area":"Central","totalSurveys":3,"speciesCount":1,"firstSurvey":"10/02/2005","lastSurvey":"25/03/2008"}},{"type":"Feature","geometry":{"type":"Point","coordinates":[0.312871,52.054505]},"properties":{"siteId":"14229","name":"Church End Ashdon","waterbody":"GB105033037810","region":"Anglian","area":"Central","totalSurveys":5,"speciesCount":3,"firstSurvey":"10/02/2005","lastSurvey":"21/03/2013"}},{"type":"Feature","geometry":{"type":"Point","coordinates":[0.2506,52.115123]},"properties":{"siteId":"4960","name":"DS Hildersham","waterbody":"GB105033037810","region":"Anglian","area":"Central","totalSurveys":2,"speciesCount":8,"firstSurvey":"16/05/2001","lastSurvey":"14/05/2003"}},{"type":"Feature","geometry":{"type":"Point","coordinates":[0.225997,52.119969]},"properties":{"siteId":"39726","name":"Granta Park","waterbody":"GB105033037810","region":"Anglian","area":"Central","totalSurveys":1,"speciesCount":4,"firstSurvey":"07/10/2011","lastSurvey":"07/10/2011"}},{"type":"Feature","geometry":{"type":"Point","coordinates":[0.14485,52.141868]},"properties":{"siteId":"4516","name":"Great Shelford","waterbody":"GB105033037810","region":"Anglian","area":"Central","totalSurveys":9,"speciesCount":14,"firstSurvey":"24/02/1997","lastSurvey":"10/06/2025"}},{"type":"Feature","geometry":{"type":"Point","coordinates":[0.257806,52.113187]},"properties":{"siteId":"4513","name":"Hildersham","waterbody":"GB105033037810","region":"Anglian","area":"Central","totalSurveys":11,"speciesCount":10,"firstSurvey":"15/04/1991","lastSurvey":"14/05/2025"}},{"type":"Feature","geometry":{"type":"Point","coordinates":[0.29164,52.093677]},"properties":{"siteId":"48343","name":"Linton Gauging Station","waterbody":"GB105033037810","region":"Anglian","area":"Central","totalSurveys":1,"speciesCount":3,"firstSurvey":"23/05/2013","lastSurvey":"23/05/2013"}},{"type":"Feature","geometry":{"type":"Point","coordinates":[0.314552,52.087025]},"properties":{"siteId":"29710","name":"US Bartlow","waterbody":"GB105033037810","region":"Anglian","area":"Central","totalSurveys":3,"speciesCount":0,"firstSurvey":"10/02/2005","lastSurvey":"25/03/2008"}},{"type":"Feature","geometry":{"type":"Point","coordinates":[0.313935,52.055339]},"properties":{"siteId":"34718","name":"War Memorial Ashdon","waterbody":"GB105033037810","region":"Anglian","area":"Central","totalSurveys":1,"speciesCount":2,"firstSurvey":"08/03/2010","lastSurvey":"08/03/2010"}},{"type":"Feature","geometry":{"type":"Point","coordinates":[0.340208,52.073794]},"properties":{"siteId":"29708","name":"Westoe Farm","waterbody":"GB105033037810","region":"Anglian","area":"Central","totalSurveys":3,"speciesCount":0,"firstSurvey":"10/02/2005","lastSurvey":"25/03/2008"}},{"type":"Feature","geometry":{"type":"Point","coordinates":[0.018026,52.107644]},"properties":{"siteId":"4508","name":"Meldreth Road Bridge","waterbody":"GB105033038060","region":"Anglian","area":"Central","totalSurveys":8,"speciesCount":11,"firstSurvey":"30/01/1990","lastSurvey":"28/05/2025"}},{"type":"Feature","geometry":{"type":"Point","coordinates":[0.064969,52.13182]},"properties":{"siteId":"55204","name":"Hoffers Brook Farm","waterbody":"GB105033038120","region":"Anglian","area":"Central","totalSurveys":1,"speciesCount":5,"firstSurvey":"24/03/2014","lastSurvey":"24/03/2014"}},{"type":"Feature","geometry":{"type":"Point","coordinates":[0.264761,52.20079]},"properties":{"siteId":"12298","name":"Little Wilbraham Gauging Station","waterbody":"GB105033042700","region":"Anglian","area":"Central","totalSurveys":2,"speciesCount":0,"firstSurvey":"27/03/2004","lastSurvey":"23/05/2012"}},{"type":"Feature","geometry":{"type":"Point","coordinates":[0.010694,52.100486]},"properties":{"siteId":"12429","name":"DS Meldreth Mill","waterbody":"GB105033038060","region":"Anglian","area":"Central","totalSurveys":7,"speciesCount":8,"firstSurvey":"14/04/2004","lastSurvey":"29/05/2025"}},{"type":"Feature","geometry":{"type":"Point","coordinates":[0.01007,52.099904]},"properties":{"siteId":"58943","name":"DS Meldreth STW","waterbody":null,"region":"Anglian","area":"Central","totalSurveys":1,"speciesCount":4,"firstSurvey":"15/07/1992","lastSurvey":"15/07/1992"}},{"type":"Feature","geometry":{"type":"Point","coordinates":[0.01416,52.086993]},"properties":{"siteId":"58923","name":"Meldreth Village College","waterbody":null,"region":"Anglian","area":"Central","totalSurveys":1,"speciesCount":2,"firstSurvey":"15/04/1992","lastSurvey":"15/04/1992"}},{"type":"Feature","geometry":{"type":"Point","coordinates":[0.009801,52.095223]},"properties":{"siteId":"31747","name":"Meldreth","waterbody":"GB105033038060","region":"Anglian","area":"Central","totalSurveys":8,"speciesCount":6,"firstSurvey":"10/10/2008","lastSurvey":"29/05/2025"}},{"type":"Feature","geometry":{"type":"Point","coordinates":[0.371782,52.276272]},"properties":{"siteId":"12295","name":"Exning Gauging Station","waterbody":"GB105033042780","region":"Anglian","area":"Central","totalSurveys":1,"speciesCount":0,"firstSurvey":"26/02/2004","lastSurvey":"26/02/2004"}},{"type":"Feature","geometry":{"type":"Point","coordinates":[0.373785,52.262195]},"properties":{"siteId":"42742","name":"Exning","waterbody":null,"region":"Anglian","area":"Central","totalSurveys":1,"speciesCount":0,"firstSurvey":"23/05/2012","lastSurvey":"23/05/2012"}},{"type":"Feature","geometry":{"type":"Point","coordinates":[0.282725,52.286255]},"properties":{"siteId":"4794","name":"Hallards Fen","waterbody":"GB105033042720","region":"Anglian","area":"Central","totalSurveys":8,"speciesCount":18,"firstSurvey":"26/09/1984","lastSurvey":"20/06/2014"}},{"type":"Feature","geometry":{"type":"Point","coordinates":[0.290912,52.274407]},"properties":{"siteId":"4793","name":"Reach","waterbody":"GB105033042720","region":"Anglian","area":"Central","totalSurveys":9,"speciesCount":17,"firstSurvey":"25/09/1984","lastSurvey":"28/08/2025"}},{"type":"Feature","geometry":{"type":"Point","coordinates":[0.060457,52.130613]},"properties":{"siteId":"11948","name":"Barrington to Harston Mill Investigation","waterbody":"GB105033037610","region":"Anglian","area":"Central","totalSurveys":1,"speciesCount":9,"firstSurvey":"19/11/2003","lastSurvey":"19/11/2003"}},{"type":"Feature","geometry":{"type":"Point","coordinates":[0.063004,52.132943]},"properties":{"siteId":"4509","name":"Barrington","waterbody":"GB105033037610","region":"Anglian","area":"Central","totalSurveys":7,"speciesCount":15,"firstSurvey":"03/04/1991","lastSurvey":"02/09/2016"}},{"type":"Feature","geometry":{"type":"Point","coordinates":[0.086416,52.164902]},"properties":{"siteId":"4511","name":"Cantelupe Farm","waterbody":"GB105033037610","region":"Anglian","area":"Central","totalSurveys":5,"speciesCount":15,"firstSurvey":"11/04/1991","lastSurvey":"05/05/2010"}},{"type":"Feature","geometry":{"type":"Point","coordinates":[0.070679,52.140901]},"properties":{"siteId":"4510","name":"Harston","waterbody":"GB105033037610","region":"Anglian","area":"Central","totalSurveys":8,"speciesCount":14,"firstSurvey":"10/04/1991","lastSurvey":"27/08/2019"}},{"type":"Feature","geometry":{"type":"Point","coordinates":[0.006715,52.11593]},"properties":{"siteId":"4507","name":"Malton Farm","waterbody":"GB105033037610","region":"Anglian","area":"Central","totalSurveys":8,"speciesCount":15,"firstSurvey":"09/04/1991","lastSurvey":"21/08/2019"}},{"type":"Feature","geometry":{"type":"Point","coordinates":[0.114944,52.198509]},"properties":{"siteId":"66605","name":"DS Fen Causeway Bridge","waterbody":null,"region":"Anglian","area":"Central","totalSurveys":4,"speciesCount":13,"firstSurvey":"24/03/2016","lastSurvey":"13/09/2019"}},{"type":"Feature","geometry":{"type":"Point","coordinates":[0.116848,52.197]},"properties":{"siteId":"66604","name":"US Fen Causeway Bridge","waterbody":null,"region":"Anglian","area":"Central","totalSurveys":4,"speciesCount":12,"firstSurvey":"24/03/2016","lastSurvey":"13/09/2019"}},{"type":"Feature","geometry":{"type":"Point","coordinates":[0.049345,52.090019]},"properties":{"siteId":"4957","name":"DS Fowlmere Cress Shed","waterbody":"GB105033038060","region":"Anglian","area":"Central","totalSurveys":1,"speciesCount":2,"firstSurvey":"19/03/2001","lastSurvey":"19/03/2001"}},{"type":"Feature","geometry":{"type":"Point","coordinates":[0.049511,52.08695]},"properties":{"siteId":"36153","name":"Fowlmere Cress Shed","waterbody":"GB105033038080","region":"Anglian","area":"Central","totalSurveys":2,"speciesCount":3,"firstSurvey":"19/03/2001","lastSurvey":"14/10/2010"}},{"type":"Feature","geometry":{"type":"Point","coordinates":[0.049747,52.09146]},"properties":{"siteId":"36152","name":"Fowlmere Footbridge","waterbody":"GB105033038080","region":"Anglian","area":"Central","totalSurveys":2,"speciesCount":4,"firstSurvey":"19/03/2001","lastSurvey":"14/10/2010"}},{"type":"Feature","geometry":{"type":"Point","coordinates":[0.036407,52.106906]},"properties":{"siteId":"36156","name":"Manor Farm Shepreth","waterbody":"GB105033038080","region":"Anglian","area":"Central","totalSurveys":3,"speciesCount":6,"firstSurvey":"14/10/2010","lastSurvey":"28/05/2025"}},{"type":"Feature","geometry":{"type":"Point","coordinates":[0.045003,52.094663]},"properties":{"siteId":"36155","name":"Mill Farm Fowlmere","waterbody":"GB105033038080","region":"Anglian","area":"Central","totalSurveys":1,"speciesCount":3,"firstSurvey":"14/10/2010","lastSurvey":"14/10/2010"}},{"type":"Feature","geometry":{"type":"Point","coordinates":[0.038378,52.125791]},"properties":{"siteId":"31746","name":"Rhee Confluence","waterbody":"GB105033037610","region":"Anglian","area":"Central","totalSurveys":1,"speciesCount":11,"firstSurvey":"10/10/2008","lastSurvey":"10/10/2008"}},{"type":"Feature","geometry":{"type":"Point","coordinates":[0.273378,52.246871]},"properties":{"siteId":"4789","name":"Cow Bridge","waterbody":"GB105033042710","region":"Anglian","area":"Central","totalSurveys":6,"speciesCount":14,"firstSurvey":"19/09/1984","lastSurvey":"23/04/1998"}},{"type":"Feature","geometry":{"type":"Point","coordinates":[0.242494,52.273539]},"properties":{"siteId":"4791","name":"Lythels Farm","waterbody":"GB105033042710","region":"Anglian","area":"Central","totalSurveys":7,"speciesCount":14,"firstSurvey":"20/09/1984","lastSurvey":"28/04/1998"}},{"type":"Feature","geometry":{"type":"Point","coordinates":[0.253753,52.264332]},"properties":{"siteId":"4790","name":"Slades Farm","waterbody":"GB105033042710","region":"Anglian","area":"Central","totalSurveys":6,"speciesCount":12,"firstSurvey":"18/09/1984","lastSurvey":"27/04/1998"}},{"type":"Feature","geometry":{"type":"Point","coordinates":[0.231184,52.281846]},"properties":{"siteId":"4792","name":"Swaffham Lock","waterbody":"GB105033042710","region":"Anglian","area":"Central","totalSurveys":1,"speciesCount":11,"firstSurvey":"15/11/1991","lastSurvey":"15/11/1991"}},{"type":"Feature","geometry":{"type":"Point","coordinates":[0.263088,52.303718]},"properties":{"siteId":"4799","name":"Burwell Lode Confluence","waterbody":"GB105033042780","region":"Anglian","area":"Central","totalSurveys":3,"speciesCount":12,"firstSurvey":"23/10/1990","lastSurvey":"05/06/1997"}},{"type":"Feature","geometry":{"type":"Point","coordinates":[0.288497,52.308048]},"properties":{"siteId":"4798","name":"Wicken","waterbody":"GB105033042780","region":"Anglian","area":"Central","totalSurveys":8,"speciesCount":14,"firstSurvey":"09/10/1984","lastSurvey":"24/09/2025"}},{"type":"Feature","geometry":{"type":"Point","coordinates":[0.339674,52.588052]},"properties":{"siteId":"41936","name":"US Old Bedford Sluice","waterbody":null,"region":"Anglian","area":"Central","totalSurveys":15,"speciesCount":10,"firstSurvey":"28/10/2008","lastSurvey":"24/10/2012"}},{"type":"Feature","geometry":{"type":"Point","coordinates":[0.343655,52.583801]},"properties":{"siteId":"41935","name":"US A.G. Wright Sluice","waterbody":null,"region":"Anglian","area":"Central","totalSurveys":16,"speciesCount":7,"firstSurvey":"28/10/2008","lastSurvey":"24/10/2012"}},{"type":"Feature","geometry":{"type":"Point","coordinates":[0.008302,52.335139]},"properties":{"siteId":"41932","name":"US Brownshill Staunch","waterbody":null,"region":"Anglian","area":"Central","totalSurveys":8,"speciesCount":4,"firstSurvey":"28/10/2008","lastSurvey":"03/12/2009"}},{"type":"Feature","geometry":{"type":"Point","coordinates":[0.342621,52.582968]},"properties":{"siteId":"41934","name":"US Denver Little Eye Sluice","waterbody":null,"region":"Anglian","area":"Central","totalSurveys":14,"speciesCount":8,"firstSurvey":"28/10/2008","lastSurvey":"19/11/2010"}},{"type":"Feature","geometry":{"type":"Point","coordinates":[0.390503,52.71213]},"properties":{"siteId":"45062","name":"Narside Bungalow","waterbody":null,"region":"Anglian","area":"Central","totalSurveys":4,"speciesCount":5,"firstSurvey":"23/10/2012","lastSurvey":"26/10/2012"}},{"type":"Feature","geometry":{"type":"Point","coordinates":[0.375525,52.726116]},"properties":{"siteId":"41938","name":"US Tail Sluice","waterbody":null,"region":"Anglian","area":"Central","totalSurveys":8,"speciesCount":6,"firstSurvey":"18/11/2009","lastSurvey":"19/11/2010"}},{"type":"Feature","geometry":{"type":"Point","coordinates":[0.339794,52.588922]},"properties":{"siteId":"41937","name":"US Salters Lode Lock","waterbody":null,"region":"Anglian","area":"Central","totalSurveys":6,"speciesCount":7,"firstSurvey":"28/10/2008","lastSurvey":"28/11/2008"}},{"type":"Feature","geometry":{"type":"Point","coordinates":[0.008599,52.335548]},"properties":{"siteId":"80985","name":"DS Brownshill Staunch","waterbody":null,"region":"Anglian","area":"Central","totalSurveys":2,"speciesCount":6,"firstSurvey":"11/03/2025","lastSurvey":"16/04/2025"}},{"type":"Feature","geometry":{"type":"Point","coordinates":[0.008541,52.335873]},"properties":{"siteId":"42146","name":"DS Brownshill Staunch","waterbody":null,"region":"Anglian","area":"Central","totalSurveys":26,"speciesCount":6,"firstSurvey":"24/06/2008","lastSurvey":"03/09/2008"}},{"type":"Feature","geometry":{"type":"Point","coordinates":[0.591488,52.252354]},"properties":{"siteId":"9663","name":"Barrow Lake No 3","waterbody":"GB105033043000","region":"Anglian","area":"Central","totalSurveys":1,"speciesCount":8,"firstSurvey":"11/02/2003","lastSurvey":"11/02/2003"}},{"type":"Feature","geometry":{"type":"Point","coordinates":[0.583637,52.693699]},"properties":{"siteId":"4956","name":"Bradmoor Lake No.2","waterbody":"GB105033047791","region":"Anglian","area":"Central","totalSurveys":1,"speciesCount":6,"firstSurvey":"28/03/2001","lastSurvey":"28/03/2001"}},{"type":"Feature","geometry":{"type":"Point","coordinates":[0.710637,52.521804]},"properties":{"siteId":"4954","name":"Buckenham Tofts Lake","waterbody":"GB105033047840","region":"Anglian","area":"Central","totalSurveys":1,"speciesCount":7,"firstSurvey":"10/01/2000","lastSurvey":"10/01/2000"}},{"type":"Feature","geometry":{"type":"Point","coordinates":[0.633117,52.897547]},"properties":{"siteId":"32406","name":"Docking Village Pond","waterbody":"GB105034055870","region":"Anglian","area":"Central","totalSurveys":1,"speciesCount":8,"firstSurvey":"03/03/2009","lastSurvey":"03/03/2009"}},{"type":"Feature","geometry":{"type":"Point","coordinates":[0.113274,52.408218]},"properties":{"siteId":"7189","name":"Fenced Acre","waterbody":"GB105033047922","region":"Anglian","area":"Central","totalSurveys":1,"speciesCount":6,"firstSurvey":"10/10/2002","lastSurvey":"10/10/2002"}},{"type":"Feature","geometry":{"type":"Point","coordinates":[0.033298,52.501333]},"properties":{"siteId":"54003","name":"Fields End Water","waterbody":null,"region":"Anglian","area":"Central","totalSurveys":1,"speciesCount":8,"firstSurvey":"06/01/2014","lastSurvey":"06/01/2014"}},{"type":"Feature","geometry":{"type":"Point","coordinates":[0.903549,52.429095]},"properties":{"siteId":"4963","name":"Middle Harling Lake","waterbody":"GB105033043190","region":"Anglian","area":"Central","totalSurveys":1,"speciesCount":7,"firstSurvey":"12/06/2001","lastSurvey":"12/06/2001"}},{"type":"Feature","geometry":{"type":"Point","coordinates":[0.356769,52.369281]},"properties":{"siteId":"31894","name":"Soham Gault Pit","waterbody":"GB105033042900","region":"Anglian","area":"Central","totalSurveys":1,"speciesCount":9,"firstSurvey":"19/11/2008","lastSurvey":"19/11/2008"}},{"type":"Feature","geometry":{"type":"Point","coordinates":[0.084272,52.574383]},"properties":{"siteId":"32073","name":"Whitemoor Prison Lake","waterbody":"GB105033047711","region":"Anglian","area":"Central","totalSurveys":1,"speciesCount":8,"firstSurvey":"16/12/2008","lastSurvey":"16/12/2008"}},{"type":"Feature","geometry":{"type":"Point","coordinates":[0.384188,52.620434]},"properties":{"siteId":"34386","name":"Wimbotsham Lake","waterbody":"GB105033047660","region":"Anglian","area":"Central","totalSurveys":1,"speciesCount":8,"firstSurvey":"09/12/2009","lastSurvey":"09/12/2009"}},{"type":"Feature","geometry":{"type":"Point","coordinates":[0.599548,52.312976]},"properties":{"siteId":"4479","name":"Cavenham Mill","waterbody":"GB105033043000","region":"Anglian","area":"Central","totalSurveys":4,"speciesCount":12,"firstSurvey":"19/06/1992","lastSurvey":"11/04/2007"}},{"type":"Feature","geometry":{"type":"Point","coordinates":[0.600098,52.314852]},"properties":{"siteId":"37091","name":"DS Cavenham Mill","waterbody":"GB105033043000","region":"Anglian","area":"Central","totalSurveys":3,"speciesCount":8,"firstSurvey":"18/04/2011","lastSurvey":"19/07/2016"}},{"type":"Feature","geometry":{"type":"Point","coordinates":[0.601833,52.317422]},"properties":{"siteId":"37092","name":"Lark Confluence","waterbody":"GB105033043000","region":"Anglian","area":"Central","totalSurveys":1,"speciesCount":5,"firstSurvey":"18/04/2011","lastSurvey":"18/04/2011"}},{"type":"Feature","geometry":{"type":"Point","coordinates":[0.693917,52.296472]},"properties":{"siteId":"4476","name":"Culford","waterbody":"GB105033043030","region":"Anglian","area":"Central","totalSurveys":3,"speciesCount":3,"firstSurvey":"04/06/1992","lastSurvey":"21/02/2000"}},{"type":"Feature","geometry":{"type":"Point","coordinates":[0.486383,52.466483]},"properties":{"siteId":"4833","name":"Blackdyke Farm","waterbody":"GB105033043400","region":"Anglian","area":"Central","totalSurveys":4,"speciesCount":13,"firstSurvey":"03/07/1990","lastSurvey":"03/07/1997"}},{"type":"Feature","geometry":{"type":"Point","coordinates":[0.409526,52.568784]},"properties":{"siteId":"4838","name":"Crossways Farm","waterbody":"GB105033047650","region":"Anglian","area":"Central","totalSurveys":11,"speciesCount":18,"firstSurvey":"04/06/1986","lastSurvey":"30/05/2008"}},{"type":"Feature","geometry":{"type":"Point","coordinates":[0.346714,52.580836]},"properties":{"siteId":"4840","name":"Denver Sluice","waterbody":"GB105033047650","region":"Anglian","area":"Central","totalSurveys":14,"speciesCount":19,"firstSurvey":"06/05/1986","lastSurvey":"22/06/2023"}},{"type":"Feature","geometry":{"type":"Point","coordinates":[0.523654,52.397352]},"properties":{"siteId":"4830","name":"Eriswell Hall Farm","waterbody":"GB105033043120","region":"Anglian","area":"Central","totalSurveys":2,"speciesCount":8,"firstSurvey":"15/05/1986","lastSurvey":"06/07/1990"}},{"type":"Feature","geometry":{"type":"Point","coordinates":[0.388742,52.566508]},"properties":{"siteId":"4839","name":"Hilgay Bridge","waterbody":"GB105033047650","region":"Anglian","area":"Central","totalSurveys":14,"speciesCount":20,"firstSurvey":"05/06/1986","lastSurvey":"21/06/2023"}},{"type":"Feature","geometry":{"type":"Point","coordinates":[0.534549,52.459166]},"properties":{"siteId":"4832","name":"Hockwold Bridge","waterbody":"GB105033043400","region":"Anglian","area":"Central","totalSurveys":2,"speciesCount":9,"firstSurvey":"05/07/1990","lastSurvey":"06/05/1994"}},{"type":"Feature","geometry":{"type":"Point","coordinates":[0.521162,52.379421]},"properties":{"siteId":"4829","name":"Sparks Farm Eriswell","waterbody":"GB105033043120","region":"Anglian","area":"Central","totalSurveys":1,"speciesCount":10,"firstSurvey":"02/07/1990","lastSurvey":"02/07/1990"}},{"type":"Feature","geometry":{"type":"Point","coordinates":[0.505759,52.559215]},"properties":{"siteId":"12399","name":"Stoke Ferry WTW","waterbody":"GB105033047650","region":"Anglian","area":"Central","totalSurveys":5,"speciesCount":21,"firstSurvey":"01/04/2004","lastSurvey":"31/05/2023"}},{"type":"Feature","geometry":{"type":"Point","coordinates":[0.528532,52.53393]},"properties":{"siteId":"4835","name":"Thornham Bridge","waterbody":"GB105033047630","region":"Anglian","area":"Central","totalSurveys":3,"speciesCount":10,"firstSurvey":"10/07/1990","lastSurvey":"07/07/1997"}},{"type":"Feature","geometry":{"type":"Point","coordinates":[0.486383,52.466483]},"properties":{"siteId":"4834","name":"Whiteplot Farm","waterbody":"GB105033047630","region":"Anglian","area":"Central","totalSurveys":5,"speciesCount":15,"firstSurvey":"21/05/1986","lastSurvey":"04/07/1997"}},{"type":"Feature","geometry":{"type":"Point","coordinates":[0.53442,52.431293]},"properties":{"siteId":"4831","name":"Willow Grove Farm Lakenheath","waterbody":"GB105033043400","region":"Anglian","area":"Central","totalSurveys":1,"speciesCount":9,"firstSurvey":"09/07/1990","lastSurvey":"09/07/1990"}},{"type":"Feature","geometry":{"type":"Point","coordinates":[0.453797,52.568774]},"properties":{"siteId":"4837","name":"Wissington","waterbody":"GB105033047650","region":"Anglian","area":"Central","totalSurveys":14,"speciesCount":19,"firstSurvey":"03/06/1986","lastSurvey":"12/06/2023"}},{"type":"Feature","geometry":{"type":"Point","coordinates":[0.486022,52.564505]},"properties":{"siteId":"4836","name":"Wretton","waterbody":"GB105033047650","region":"Anglian","area":"Central","totalSurveys":14,"speciesCount":18,"firstSurvey":"27/05/1986","lastSurvey":"07/06/2023"}},{"type":"Feature","geometry":{"type":"Point","coordinates":[0.318256,52.433032]},"properties":{"siteId":"4803","name":"Branch Bridge","waterbody":"GB105033047850","region":"Anglian","area":"Central","totalSurveys":5,"speciesCount":17,"firstSurvey":"18/09/1990","lastSurvey":"12/09/2006"}},{"type":"Feature","geometry":{"type":"Point","coordinates":[0.364483,52.499556]},"properties":{"siteId":"4806","name":"Brandon Creek","waterbody":"GB105033043400","region":"Anglian","area":"Central","totalSurveys":5,"speciesCount":16,"firstSurvey":"27/09/1990","lastSurvey":"18/09/2006"}},{"type":"Feature","geometry":{"type":"Point","coordinates":[0.342291,52.580924]},"properties":{"siteId":"4809","name":"Denver","waterbody":"GB105033047850","region":"Anglian","area":"Central","totalSurveys":8,"speciesCount":16,"firstSurvey":"26/09/1990","lastSurvey":"22/09/2006"}},{"type":"Feature","geometry":{"type":"Point","coordinates":[0.267405,52.38816]},"properties":{"siteId":"4801","name":"Ely High Bridge","waterbody":"GB105033047850","region":"Anglian","area":"Central","totalSurveys":6,"speciesCount":16,"firstSurvey":"07/10/1987","lastSurvey":"08/09/2006"}},{"type":"Feature","geometry":{"type":"Point","coordinates":[0.257084,52.358684]},"properties":{"siteId":"4800","name":"Little Thetford","waterbody":"GB105033047850","region":"Anglian","area":"Central","totalSurveys":17,"speciesCount":20,"firstSurvey":"06/10/1987","lastSurvey":"10/10/2023"}},{"type":"Feature","geometry":{"type":"Point","coordinates":[0.344441,52.48287]},"properties":{"siteId":"4805","name":"Plantation House","waterbody":"GB105033047850","region":"Anglian","area":"Central","totalSurveys":5,"speciesCount":16,"firstSurvey":"13/09/1990","lastSurvey":"14/09/2006"}},{"type":"Feature","geometry":{"type":"Point","coordinates":[0.30092,52.410891]},"properties":{"siteId":"4802","name":"Queen Adelaide","waterbody":"GB105033047850","region":"Anglian","area":"Central","totalSurveys":9,"speciesCount":20,"firstSurvey":"08/10/1987","lastSurvey":"11/09/2006"}},{"type":"Feature","geometry":{"type":"Point","coordinates":[0.319436,52.455489]},"properties":{"siteId":"4804","name":"Sandhill Bridge","waterbody":"GB105033047850","region":"Anglian","area":"Central","totalSurveys":16,"speciesCount":23,"firstSurvey":"10/09/1990","lastSurvey":"19/09/2023"}},{"type":"Feature","geometry":{"type":"Point","coordinates":[0.364181,52.545798]},"properties":{"siteId":"4807","name":"Ten Mile Bank","waterbody":"GB105033047850","region":"Anglian","area":"Central","totalSurveys":16,"speciesCount":18,"firstSurvey":"05/09/1990","lastSurvey":"18/10/2023"}},{"type":"Feature","geometry":{"type":"Point","coordinates":[0.344281,52.562901]},"properties":{"siteId":"4808","name":"Wissey Outfall","waterbody":"GB105033047850","region":"Anglian","area":"Central","totalSurveys":5,"speciesCount":14,"firstSurvey":"04/09/1990","lastSurvey":"25/09/2006"}},{"type":"Feature","geometry":{"type":"Point","coordinates":[0.646359,52.60509]},"properties":{"siteId":"4822","name":"Cockley Cley","waterbody":"GB105033047880","region":"Anglian","area":"Central","totalSurveys":3,"speciesCount":2,"firstSurvey":"08/02/1990","lastSurvey":"09/02/2000"}},{"type":"Feature","geometry":{"type":"Point","coordinates":[0.586191,52.586637]},"properties":{"siteId":"4823","name":"DS Gooderstone","waterbody":"GB105033047880","region":"Anglian","area":"Central","totalSurveys":7,"speciesCount":12,"firstSurvey":"08/02/1990","lastSurvey":"02/05/2024"}},{"type":"Feature","geometry":{"type":"Point","coordinates":[0.561604,52.570086]},"properties":{"siteId":"4824","name":"Ferry Farm","waterbody":"GB105033047880","region":"Anglian","area":"Central","totalSurveys":3,"speciesCount":9,"firstSurvey":"09/02/1990","lastSurvey":"09/02/2000"}},{"type":"Feature","geometry":{"type":"Point","coordinates":[0.917456,52.375253]},"properties":{"siteId":"12297","name":"Hopton","waterbody":"GB105033043080","region":"Anglian","area":"Central","totalSurveys":2,"speciesCount":4,"firstSurvey":"26/02/2004","lastSurvey":"20/05/2013"}},{"type":"Feature","geometry":{"type":"Point","coordinates":[0.439232,52.332583]},"properties":{"siteId":"17892","name":"Beck Bridge","waterbody":"GB105033043020","region":"Anglian","area":"Central","totalSurveys":2,"speciesCount":8,"firstSurvey":"19/10/2005","lastSurvey":"24/09/2014"}},{"type":"Feature","geometry":{"type":"Point","coordinates":[0.520383,52.226297]},"properties":{"siteId":"12294","name":"Dalham","waterbody":"GB105033042990","region":"Anglian","area":"Central","totalSurveys":1,"speciesCount":0,"firstSurvey":"27/02/2004","lastSurvey":"27/02/2004"}},{"type":"Feature","geometry":{"type":"Point","coordinates":[0.441521,52.320846]},"properties":{"siteId":"17891","name":"Freckenham","waterbody":"GB105033043020","region":"Anglian","area":"Central","totalSurveys":7,"speciesCount":14,"firstSurvey":"19/10/2005","lastSurvey":"25/09/2024"}},{"type":"Feature","geometry":{"type":"Point","coordinates":[0.515451,52.20071]},"properties":{"siteId":"19050","name":"Lidgate","waterbody":"GB105033042990","region":"Anglian","area":"Central","totalSurveys":1,"speciesCount":2,"firstSurvey":"10/02/2006","lastSurvey":"10/02/2006"}},{"type":"Feature","geometry":{"type":"Point","coordinates":[0.440774,52.328864]},"properties":{"siteId":"60383","name":"Mortimers Farm Freckenham","waterbody":"GB105033043020","region":"Anglian","area":"Central","totalSurveys":1,"speciesCount":3,"firstSurvey":"24/09/2014","lastSurvey":"24/09/2014"}},{"type":"Feature","geometry":{"type":"Point","coordinates":[0.520862,52.206323]},"properties":{"siteId":"12299","name":"Ousden","waterbody":"GB105033042990","region":"Anglian","area":"Central","totalSurveys":1,"speciesCount":1,"firstSurvey":"27/02/2004","lastSurvey":"27/02/2004"}},{"type":"Feature","geometry":{"type":"Point","coordinates":[0.489829,52.194231]},"properties":{"siteId":"19051","name":"Upend","waterbody":"GB105033042990","region":"Anglian","area":"Central","totalSurveys":2,"speciesCount":2,"firstSurvey":"10/02/2006","lastSurvey":"04/10/2012"}},{"type":"Feature","geometry":{"type":"Point","coordinates":[0.39753,52.3757]},"properties":{"siteId":"4489","name":"Baskey Bay","waterbody":"GB105033042900","region":"Anglian","area":"Central","totalSurveys":4,"speciesCount":15,"firstSurvey":"22/11/1990","lastSurvey":"05/07/2000"}},{"type":"Feature","geometry":{"type":"Point","coordinates":[0.313894,52.434017]},"properties":{"siteId":"4492","name":"Branch Bridge","waterbody":"GB105033042900","region":"Anglian","area":"Central","totalSurveys":21,"speciesCount":20,"firstSurvey":"08/03/1988","lastSurvey":"17/09/2024"}},{"type":"Feature","geometry":{"type":"Point","coordinates":[0.441638,52.349618]},"properties":{"siteId":"4486","name":"East Fen Isleham","waterbody":"GB105033042900","region":"Anglian","area":"Central","totalSurveys":11,"speciesCount":16,"firstSurvey":"06/12/1990","lastSurvey":"14/09/2010"}},{"type":"Feature","geometry":{"type":"Point","coordinates":[0.422612,52.352384]},"properties":{"siteId":"4487","name":"Isleham Backwater","waterbody":"GB105033042900","region":"Anglian","area":"Central","totalSurveys":4,"speciesCount":15,"firstSurvey":"30/11/1990","lastSurvey":"28/06/2000"}},{"type":"Feature","geometry":{"type":"Point","coordinates":[0.418612,52.358185]},"properties":{"siteId":"4488","name":"Isleham Lock","waterbody":"GB105033042900","region":"Anglian","area":"Central","totalSurveys":13,"speciesCount":23,"firstSurvey":"12/11/1990","lastSurvey":"10/09/2024"}},{"type":"Feature","geometry":{"type":"Point","coordinates":[0.45904,52.34566]},"properties":{"siteId":"4485","name":"Judes Ferry","waterbody":"GB105033043052","region":"Anglian","area":"Central","totalSurveys":5,"speciesCount":18,"firstSurvey":"28/11/1990","lastSurvey":"20/09/2012"}},{"type":"Feature","geometry":{"type":"Point","coordinates":[0.48092,52.340985]},"properties":{"siteId":"4967","name":"Kings Staunch","waterbody":"GB105033043052","region":"Anglian","area":"Central","totalSurveys":1,"speciesCount":9,"firstSurvey":"19/01/2001","lastSurvey":"19/01/2001"}},{"type":"Feature","geometry":{"type":"Point","coordinates":[0.375735,52.407612]},"properties":{"siteId":"4490","name":"Lark Grange","waterbody":"GB105033042900","region":"Anglian","area":"Central","totalSurveys":4,"speciesCount":17,"firstSurvey":"15/11/1990","lastSurvey":"25/07/2000"}},{"type":"Feature","geometry":{"type":"Point","coordinates":[0.513047,52.340027]},"properties":{"siteId":"4483","name":"Mildenhall","waterbody":"GB105033043051","region":"Anglian","area":"Central","totalSurveys":13,"speciesCount":21,"firstSurvey":"20/11/1990","lastSurvey":"04/09/2024"}},{"type":"Feature","geometry":{"type":"Point","coordinates":[0.346885,52.41808]},"properties":{"siteId":"4491","name":"Prickwillow","waterbody":"GB105033042900","region":"Anglian","area":"Central","totalSurveys":17,"speciesCount":16,"firstSurvey":"04/06/1990","lastSurvey":"11/09/2024"}},{"type":"Feature","geometry":{"type":"Point","coordinates":[0.49652,52.341142]},"properties":{"siteId":"13739","name":"Riverside Cottage Mildenhall","waterbody":"GB105033043052","region":"Anglian","area":"Central","totalSurveys":1,"speciesCount":8,"firstSurvey":"20/10/2004","lastSurvey":"20/10/2004"}},{"type":"Feature","geometry":{"type":"Point","coordinates":[0.487382,52.339456]},"properties":{"siteId":"4484","name":"Wamil Hall","waterbody":"GB105033043052","region":"Anglian","area":"Central","totalSurveys":7,"speciesCount":19,"firstSurvey":"23/11/1990","lastSurvey":"05/09/2024"}},{"type":"Feature","geometry":{"type":"Point","coordinates":[0.720413,52.244902]},"properties":{"siteId":"4472","name":"Abbey Gardens","waterbody":"GB105033043051","region":"Anglian","area":"Central","totalSurveys":5,"speciesCount":16,"firstSurvey":"10/06/1992","lastSurvey":"16/09/2015"}},{"type":"Feature","geometry":{"type":"Point","coordinates":[0.534785,52.335067]},"properties":{"siteId":"4482","name":"Barton Mills","waterbody":"GB105033043051","region":"Anglian","area":"Central","totalSurveys":3,"speciesCount":13,"firstSurvey":"05/06/1992","lastSurvey":"02/08/2007"}},{"type":"Feature","geometry":{"type":"Point","coordinates":[0.886895,52.219065]},"properties":{"siteId":"4470","name":"Bridge Farm Rushbrooke","waterbody":"GB105033042940","region":"Anglian","area":"Central","totalSurveys":5,"speciesCount":9,"firstSurvey":"19/05/1992","lastSurvey":"17/07/2024"}},{"type":"Feature","geometry":{"type":"Point","coordinates":[0.610039,52.31448]},"properties":{"siteId":"79803","name":"Cavenham Locks","waterbody":null,"region":"Anglian","area":"Central","totalSurveys":1,"speciesCount":8,"firstSurvey":"17/06/2024","lastSurvey":"17/06/2024"}},{"type":"Feature","geometry":{"type":"Point","coordinates":[0.669017,52.297038]},"properties":{"siteId":"4475","name":"Chimney Mill","waterbody":"GB105033043051","region":"Anglian","area":"Central","totalSurveys":4,"speciesCount":9,"firstSurvey":"21/05/1992","lastSurvey":"29/06/2007"}},{"type":"Feature","geometry":{"type":"Point","coordinates":[0.654853,52.30545]},"properties":{"siteId":"4477","name":"Clough Staunch","waterbody":"GB105033043051","region":"Anglian","area":"Central","totalSurveys":4,"speciesCount":11,"firstSurvey":"26/05/1992","lastSurvey":"10/07/2012"}},{"type":"Feature","geometry":{"type":"Point","coordinates":[0.687351,52.284931]},"properties":{"siteId":"4474","name":"Duck Sluice","waterbody":"GB105033043051","region":"Anglian","area":"Central","totalSurveys":5,"speciesCount":10,"firstSurvey":"09/06/1992","lastSurvey":"13/06/2007"}},{"type":"Feature","geometry":{"type":"Point","coordinates":[0.712078,52.35361]},"properties":{"siteId":"4473","name":"Fornham Golf Course","waterbody":"GB105033043051","region":"Anglian","area":"Central","totalSurveys":3,"speciesCount":10,"firstSurvey":"02/06/1992","lastSurvey":"28/01/2000"}},{"type":"Feature","geometry":{"type":"Point","coordinates":[0.648319,52.306344]},"properties":{"siteId":"77183","name":"Fullers Mill Gardens","waterbody":null,"region":"Anglian","area":"Central","totalSurveys":1,"speciesCount":5,"firstSurvey":"29/09/2022","lastSurvey":"29/09/2022"}},{"type":"Feature","geometry":{"type":"Point","coordinates":[0.683089,52.289389]},"properties":{"siteId":"36751","name":"Mill Farm Hengrave","waterbody":"GB105033043051","region":"Anglian","area":"Central","totalSurveys":2,"speciesCount":9,"firstSurvey":"11/07/2012","lastSurvey":"20/07/2015"}},{"type":"Feature","geometry":{"type":"Point","coordinates":[0.728465,52.238124]},"properties":{"siteId":"4471","name":"Southgate Bridge","waterbody":"GB105033042940","region":"Anglian","area":"Central","totalSurveys":3,"speciesCount":7,"firstSurvey":"18/05/1992","lastSurvey":"27/01/2000"}},{"type":"Feature","geometry":{"type":"Point","coordinates":[0.578298,52.326031]},"properties":{"siteId":"4480","name":"Temple Weir","waterbody":"GB105033043051","region":"Anglian","area":"Central","totalSurveys":5,"speciesCount":16,"firstSurvey":"03/06/1992","lastSurvey":"12/07/2012"}},{"type":"Feature","geometry":{"type":"Point","coordinates":[0.573281,52.32936]},"properties":{"siteId":"36750","name":"Tuddenham Heath","waterbody":"GB105033043051","region":"Anglian","area":"Central","totalSurveys":2,"speciesCount":10,"firstSurvey":"12/07/2012","lastSurvey":"21/07/2015"}},{"type":"Feature","geometry":{"type":"Point","coordinates":[0.723106,52.242466]},"properties":{"siteId":"37466","name":"US Abbey Gardens","waterbody":"GB105033042940","region":"Anglian","area":"Central","totalSurveys":1,"speciesCount":6,"firstSurvey":"02/06/2011","lastSurvey":"02/06/2011"}},{"type":"Feature","geometry":{"type":"Point","coordinates":[0.638695,52.308798]},"properties":{"siteId":"77583","name":"US West Stow Country Park","waterbody":null,"region":"Anglian","area":"Central","totalSurveys":1,"speciesCount":9,"firstSurvey":"03/05/2023","lastSurvey":"03/05/2023"}},{"type":"Feature","geometry":{"type":"Point","coordinates":[0.63016,52.3096]},"properties":{"siteId":"4478","name":"West Stow Country Park","waterbody":"GB105033043051","region":"Anglian","area":"Central","totalSurveys":9,"speciesCount":15,"firstSurvey":"08/06/1992","lastSurvey":"18/07/2024"}},{"type":"Feature","geometry":{"type":"Point","coordinates":[0.371842,52.499409]},"properties":{"siteId":"4612","name":"Bank Farm","waterbody":"GB105033043400","region":"Anglian","area":"Central","totalSurveys":1,"speciesCount":7,"firstSurvey":"09/05/1989","lastSurvey":"09/05/1989"}},{"type":"Feature","geometry":{"type":"Point","coordinates":[0.47052,52.446134]},"properties":{"siteId":"4608","name":"Blackdyke Farm Little Ouse","waterbody":"GB105033043400","region":"Anglian","area":"Central","totalSurveys":4,"speciesCount":12,"firstSurvey":"16/05/1989","lastSurvey":"12/06/2000"}},{"type":"Feature","geometry":{"type":"Point","coordinates":[0.366003,52.500425]},"properties":{"siteId":"4613","name":"Brandon Creek","waterbody":"GB105033047850","region":"Anglian","area":"Central","totalSurveys":4,"speciesCount":9,"firstSurvey":"17/05/1989","lastSurvey":"14/06/2000"}},{"type":"Feature","geometry":{"type":"Point","coordinates":[0.500172,52.450006]},"properties":{"siteId":"4606","name":"Brandon Fen","waterbody":"GB105033043400","region":"Anglian","area":"Central","totalSurveys":4,"speciesCount":12,"firstSurvey":"17/05/1989","lastSurvey":"09/06/2000"}},{"type":"Feature","geometry":{"type":"Point","coordinates":[0.614931,52.449322]},"properties":{"siteId":"4603","name":"Brandon Staunch","waterbody":"GB105033043400","region":"Anglian","area":"Central","totalSurveys":7,"speciesCount":24,"firstSurvey":"19/04/1989","lastSurvey":"23/07/2024"}},{"type":"Feature","geometry":{"type":"Point","coordinates":[0.46758,52.446195]},"properties":{"siteId":"4607","name":"Cowles Drove","waterbody":"GB105033043400","region":"Anglian","area":"Central","totalSurveys":1,"speciesCount":5,"firstSurvey":"17/05/1989","lastSurvey":"17/05/1989"}},{"type":"Feature","geometry":{"type":"Point","coordinates":[0.553506,52.45606]},"properties":{"siteId":"4604","name":"Hockwold Common","waterbody":"GB105033043400","region":"Anglian","area":"Central","totalSurveys":7,"speciesCount":21,"firstSurvey":"15/05/1989","lastSurvey":"24/07/2024"}},{"type":"Feature","geometry":{"type":"Point","coordinates":[0.393926,52.471988]},"properties":{"siteId":"4611","name":"Little Ouse Village","waterbody":"GB105033043400","region":"Anglian","area":"Central","totalSurveys":6,"speciesCount":17,"firstSurvey":"10/05/1989","lastSurvey":"30/07/2024"}},{"type":"Feature","geometry":{"type":"Point","coordinates":[0.399517,52.466479]},"properties":{"siteId":"4610","name":"Orchard House","waterbody":"GB105033043400","region":"Anglian","area":"Central","totalSurveys":1,"speciesCount":9,"firstSurvey":"12/05/1989","lastSurvey":"12/05/1989"}},{"type":"Feature","geometry":{"type":"Point","coordinates":[0.423975,52.456089]},"properties":{"siteId":"4609","name":"Plantation Farm","waterbody":"GB105033043400","region":"Anglian","area":"Central","totalSurveys":6,"speciesCount":15,"firstSurvey":"15/05/1989","lastSurvey":"23/05/2012"}},{"type":"Feature","geometry":{"type":"Point","coordinates":[0.531196,52.452044]},"properties":{"siteId":"4605","name":"Wilton Bridge","waterbody":"GB105033043400","region":"Anglian","area":"Central","totalSurveys":4,"speciesCount":13,"firstSurvey":"17/05/1989","lastSurvey":"07/06/2000"}},{"type":"Feature","geometry":{"type":"Point","coordinates":[0.722474,52.42711]},"properties":{"siteId":"4581","name":"Abbey Weir","waterbody":"GB105033043400","region":"Anglian","area":"Central","totalSurveys":7,"speciesCount":17,"firstSurvey":"07/04/1989","lastSurvey":"07/08/2024"}},{"type":"Feature","geometry":{"type":"Point","coordinates":[0.747072,52.396865]},"properties":{"siteId":"4577","name":"Barnham Common","waterbody":"GB105033043090","region":"Anglian","area":"Central","totalSurveys":6,"speciesCount":11,"firstSurvey":"14/07/1988","lastSurvey":"04/07/2007"}},{"type":"Feature","geometry":{"type":"Point","coordinates":[0.758143,52.385816]},"properties":{"siteId":"4576","name":"Barnham Village","waterbody":"GB105033043090","region":"Anglian","area":"Central","totalSurveys":8,"speciesCount":13,"firstSurvey":"18/07/1988","lastSurvey":"30/06/2015"}},{"type":"Feature","geometry":{"type":"Point","coordinates":[0.790712,52.389547]},"properties":{"siteId":"4575","name":"Black Carr","waterbody":"GB105033043100","region":"Anglian","area":"Central","totalSurveys":6,"speciesCount":12,"firstSurvey":"20/07/1988","lastSurvey":"14/06/2007"}},{"type":"Feature","geometry":{"type":"Point","coordinates":[0.951344,52.374636]},"properties":{"siteId":"32971","name":"Blo Norton Bridge","waterbody":"GB105033043110","region":"Anglian","area":"Central","totalSurveys":5,"speciesCount":6,"firstSurvey":"27/07/2009","lastSurvey":"11/07/2024"}},{"type":"Feature","geometry":{"type":"Point","coordinates":[0.954231,52.372981]},"properties":{"siteId":"4570","name":"Blo Norton Ford","waterbody":"GB105033043110","region":"Anglian","area":"Central","totalSurveys":5,"speciesCount":13,"firstSurvey":"17/05/1988","lastSurvey":"17/01/2000"}},{"type":"Feature","geometry":{"type":"Point","coordinates":[0.750955,52.400912]},"properties":{"siteId":"4579","name":"DS BTO Channel","waterbody":"GB105033043090","region":"Anglian","area":"Central","totalSurveys":2,"speciesCount":12,"firstSurvey":"08/01/1996","lastSurvey":"26/01/2000"}},{"type":"Feature","geometry":{"type":"Point","coordinates":[0.858628,52.394219]},"properties":{"siteId":"4964","name":"DS Knettishall Heath","waterbody":"GB105033043100","region":"Anglian","area":"Central","totalSurveys":1,"speciesCount":8,"firstSurvey":"19/01/2000","lastSurvey":"19/01/2000"}},{"type":"Feature","geometry":{"type":"Point","coordinates":[0.897902,52.387866]},"properties":{"siteId":"4571","name":"Gasthorpe","waterbody":"GB105033043100","region":"Anglian","area":"Central","totalSurveys":1,"speciesCount":6,"firstSurvey":"17/05/1988","lastSurvey":"17/05/1988"}},{"type":"Feature","geometry":{"type":"Point","coordinates":[0.973222,52.370031]},"properties":{"siteId":"32969","name":"Hinderclay Fen","waterbody":"GB105033043060","region":"Anglian","area":"Central","totalSurveys":5,"speciesCount":5,"firstSurvey":"27/07/2009","lastSurvey":"10/07/2024"}},{"type":"Feature","geometry":{"type":"Point","coordinates":[0.940509,52.382074]},"properties":{"siteId":"32970","name":"Hopton Bridge","waterbody":"GB105033043110","region":"Anglian","area":"Central","totalSurveys":1,"speciesCount":2,"firstSurvey":"27/07/2009","lastSurvey":"27/07/2009"}},{"type":"Feature","geometry":{"type":"Point","coordinates":[0.865792,52.391347]},"properties":{"siteId":"4573","name":"Knettishall Heath","waterbody":"GB105033043100","region":"Anglian","area":"Central","totalSurveys":7,"speciesCount":16,"firstSurvey":"06/12/1995","lastSurvey":"20/11/2018"}},{"type":"Feature","geometry":{"type":"Point","coordinates":[0.749988,52.398848]},"properties":{"siteId":"4580","name":"Nunnery Lakes","waterbody":"GB105033043090","region":"Anglian","area":"Central","totalSurveys":2,"speciesCount":9,"firstSurvey":"09/01/1995","lastSurvey":"25/01/2000"}},{"type":"Feature","geometry":{"type":"Point","coordinates":[0.750734,52.408471]},"properties":{"siteId":"4961","name":"Nuns Bridge","waterbody":"GB105033043400","region":"Anglian","area":"Central","totalSurveys":1,"speciesCount":11,"firstSurvey":"24/05/2001","lastSurvey":"24/05/2001"}},{"type":"Feature","geometry":{"type":"Point","coordinates":[0.827805,52.39496]},"properties":{"siteId":"4574","name":"Rushford Bridge","waterbody":"GB105033043100","region":"Anglian","area":"Central","totalSurveys":10,"speciesCount":15,"firstSurvey":"27/05/1988","lastSurvey":"16/07/2024"}},{"type":"Feature","geometry":{"type":"Point","coordinates":[0.684377,52.453062]},"properties":{"siteId":"4602","name":"Santon Downham","waterbody":"GB105033043400","region":"Anglian","area":"Central","totalSurveys":11,"speciesCount":17,"firstSurvey":"10/04/1989","lastSurvey":"20/08/2024"}},{"type":"Feature","geometry":{"type":"Point","coordinates":[0.964535,52.364044]},"properties":{"siteId":"34370","name":"Thelnetham Road Bridge","waterbody":"GB105033043040","region":"Anglian","area":"Central","totalSurveys":2,"speciesCount":1,"firstSurvey":"31/05/2012","lastSurvey":"22/06/2015"}},{"type":"Feature","geometry":{"type":"Point","coordinates":[0.72358,52.446473]},"properties":{"siteId":"4601","name":"Two Mile Bottom","waterbody":"GB105033043400","region":"Anglian","area":"Central","totalSurveys":9,"speciesCount":15,"firstSurvey":"11/04/1989","lastSurvey":"13/08/2024"}},{"type":"Feature","geometry":{"type":"Point","coordinates":[0.747552,52.397502]},"properties":{"siteId":"4578","name":"US BTO Channel","waterbody":"GB105033043090","region":"Anglian","area":"Central","totalSurveys":2,"speciesCount":7,"firstSurvey":"08/01/1996","lastSurvey":"26/01/2000"}},{"type":"Feature","geometry":{"type":"Point","coordinates":[0.873013,52.389373]},"properties":{"siteId":"4572","name":"US Knettishall Heath","waterbody":"GB105033043100","region":"Anglian","area":"Central","totalSurveys":5,"speciesCount":13,"firstSurvey":"18/05/1988","lastSurvey":"18/01/2000"}},{"type":"Feature","geometry":{"type":"Point","coordinates":[0.560874,52.592753]},"properties":{"siteId":"36399","name":"DS Eastmoor Bridge","waterbody":"GB105033047820","region":"Anglian","area":"Central","totalSurveys":2,"speciesCount":7,"firstSurvey":"10/11/2010","lastSurvey":"20/03/2015"}},{"type":"Feature","geometry":{"type":"Point","coordinates":[0.561491,52.593468]},"properties":{"siteId":"4828","name":"Eastmoor Bridge","waterbody":"GB105033047820","region":"Anglian","area":"Central","totalSurveys":9,"speciesCount":10,"firstSurvey":"15/02/1990","lastSurvey":"24/04/2024"}},{"type":"Feature","geometry":{"type":"Point","coordinates":[0.572906,52.603301]},"properties":{"siteId":"4827","name":"Furze Hill","waterbody":"GB105033047820","region":"Anglian","area":"Central","totalSurveys":4,"speciesCount":5,"firstSurvey":"15/02/1990","lastSurvey":"04/10/2004"}},{"type":"Feature","geometry":{"type":"Point","coordinates":[0.162845,52.323581]},"properties":{"siteId":"4619","name":"Australia Farm","waterbody":"GB105033043350","region":"Anglian","area":"Central","totalSurveys":7,"speciesCount":15,"firstSurvey":"07/07/1988","lastSurvey":"18/10/2006"}},{"type":"Feature","geometry":{"type":"Point","coordinates":[0.10241,52.33031]},"properties":{"siteId":"4617","name":"Ewell Fen","waterbody":"GB105033043350","region":"Anglian","area":"Central","totalSurveys":7,"speciesCount":19,"firstSurvey":"07/07/1988","lastSurvey":"12/10/2006"}},{"type":"Feature","geometry":{"type":"Point","coordinates":[0.082666,52.334913]},"properties":{"siteId":"4616","name":"Flat Bridge Farm","waterbody":"GB105033043350","region":"Anglian","area":"Central","totalSurveys":12,"speciesCount":21,"firstSurvey":"05/07/1988","lastSurvey":"06/09/2023"}},{"type":"Feature","geometry":{"type":"Point","coordinates":[0.046664,52.349929]},"properties":{"siteId":"4614","name":"Hermitage Marina","waterbody":"GB105033043370","region":"Anglian","area":"Central","totalSurveys":14,"speciesCount":24,"firstSurvey":"04/07/1988","lastSurvey":"05/09/2023"}},{"type":"Feature","geometry":{"type":"Point","coordinates":[0.120497,52.327945]},"properties":{"siteId":"4618","name":"Smithy Fen Farm","waterbody":"GB105033043350","region":"Anglian","area":"Central","totalSurveys":14,"speciesCount":20,"firstSurvey":"06/07/1988","lastSurvey":"07/09/2023"}},{"type":"Feature","geometry":{"type":"Point","coordinates":[0.201511,52.325915]},"properties":{"siteId":"13678","name":"Stretham Ferry Lagoon (No 1)","waterbody":"GB105033042850","region":"Anglian","area":"Central","totalSurveys":2,"speciesCount":12,"firstSurvey":"28/10/2004","lastSurvey":"03/11/2005"}},{"type":"Feature","geometry":{"type":"Point","coordinates":[0.201632,52.326281]},"properties":{"siteId":"17311","name":"Stretham Ferry Lagoon (No 2)","waterbody":"GB105033042850","region":"Anglian","area":"Central","totalSurveys":1,"speciesCount":6,"firstSurvey":"03/11/2005","lastSurvey":"03/11/2005"}},{"type":"Feature","geometry":{"type":"Point","coordinates":[0.22212,52.335069]},"properties":{"siteId":"4621","name":"Stretham Old Engine","waterbody":"GB105033042850","region":"Anglian","area":"Central","totalSurveys":14,"speciesCount":22,"firstSurvey":"08/07/1988","lastSurvey":"13/09/2023"}},{"type":"Feature","geometry":{"type":"Point","coordinates":[0.062468,52.34246]},"properties":{"siteId":"4615","name":"Weathersome Common","waterbody":"GB105033043370","region":"Anglian","area":"Central","totalSurveys":7,"speciesCount":19,"firstSurvey":"26/07/1988","lastSurvey":"10/10/2006"}},{"type":"Feature","geometry":{"type":"Point","coordinates":[0.198076,52.323829]},"properties":{"siteId":"4620","name":"Willow Grange Farm","waterbody":"GB105033042850","region":"Anglian","area":"Central","totalSurveys":14,"speciesCount":19,"firstSurvey":"08/07/1988","lastSurvey":"15/09/2023"}},{"type":"Feature","geometry":{"type":"Point","coordinates":[0.845596,52.28302]},"properties":{"siteId":"4584","name":"Bailey Pool Bridge","waterbody":"GB105033043290","region":"Anglian","area":"Central","totalSurveys":9,"speciesCount":15,"firstSurvey":"19/04/1989","lastSurvey":"22/08/2024"}},{"type":"Feature","geometry":{"type":"Point","coordinates":[0.837625,52.332872]},"properties":{"siteId":"4587","name":"Bardwell Mill","waterbody":"GB105033043070","region":"Anglian","area":"Central","totalSurveys":4,"speciesCount":14,"firstSurvey":"12/07/1988","lastSurvey":"16/10/1995"}},{"type":"Feature","geometry":{"type":"Point","coordinates":[0.849518,52.334276]},"properties":{"siteId":"34374","name":"Black Bridge","waterbody":"GB105033043380","region":"Anglian","area":"Central","totalSurveys":1,"speciesCount":3,"firstSurvey":"06/09/2012","lastSurvey":"06/09/2012"}},{"type":"Feature","geometry":{"type":"Point","coordinates":[0.853861,52.274727]},"properties":{"siteId":"4583","name":"Bullbridge","waterbody":"GB105033043280","region":"Anglian","area":"Central","totalSurveys":7,"speciesCount":11,"firstSurvey":"19/04/1989","lastSurvey":"21/08/2024"}},{"type":"Feature","geometry":{"type":"Point","coordinates":[0.80858,52.346858]},"properties":{"siteId":"4590","name":"Burnthall Plantation","waterbody":"GB105033043070","region":"Anglian","area":"Central","totalSurveys":2,"speciesCount":14,"firstSurvey":"07/05/1992","lastSurvey":"26/10/1995"}},{"type":"Feature","geometry":{"type":"Point","coordinates":[0.775007,52.382175]},"properties":{"siteId":"4592","name":"Euston","waterbody":"GB105033043070","region":"Anglian","area":"Central","totalSurveys":8,"speciesCount":18,"firstSurvey":"14/07/1988","lastSurvey":"28/08/2024"}},{"type":"Feature","geometry":{"type":"Point","coordinates":[0.825121,52.306894]},"properties":{"siteId":"4586","name":"Ixworth Mill","waterbody":"GB105033043070","region":"Anglian","area":"Central","totalSurveys":4,"speciesCount":14,"firstSurvey":"12/07/1988","lastSurvey":"17/10/1995"}},{"type":"Feature","geometry":{"type":"Point","coordinates":[0.82591,52.29879]},"properties":{"siteId":"4585","name":"Ixworth","waterbody":"GB105033043070","region":"Anglian","area":"Central","totalSurveys":7,"speciesCount":15,"firstSurvey":"11/07/1988","lastSurvey":"23/11/2018"}},{"type":"Feature","geometry":{"type":"Point","coordinates":[0.839827,52.293699]},"properties":{"siteId":"4582","name":"Micklemere","waterbody":"GB105033043070","region":"Anglian","area":"Central","totalSurveys":9,"speciesCount":18,"firstSurvey":"11/07/1988","lastSurvey":"04/09/2012"}},{"type":"Feature","geometry":{"type":"Point","coordinates":[0.799224,52.361468]},"properties":{"siteId":"4591","name":"Parkhouse Farm","waterbody":"GB105033043070","region":"Anglian","area":"Central","totalSurveys":4,"speciesCount":7,"firstSurvey":"13/07/1988","lastSurvey":"26/10/1995"}},{"type":"Feature","geometry":{"type":"Point","coordinates":[0.809279,52.34006]},"properties":{"siteId":"4588","name":"Sapiston Bridge","waterbody":"GB105033043070","region":"Anglian","area":"Central","totalSurveys":6,"speciesCount":18,"firstSurvey":"13/07/1988","lastSurvey":"07/09/2012"}},{"type":"Feature","geometry":{"type":"Point","coordinates":[0.808295,52.342368]},"properties":{"siteId":"4589","name":"US Burnthall Plantation","waterbody":"GB105033043070","region":"Anglian","area":"Central","totalSurveys":2,"speciesCount":13,"firstSurvey":"05/05/1992","lastSurvey":"24/10/1995"}},{"type":"Feature","geometry":{"type":"Point","coordinates":[0.377867,52.512209]},"properties":{"siteId":"12316","name":"Sedge Fen Drain Pumping Station","waterbody":"GB105033047850","region":"Anglian","area":"Central","totalSurveys":1,"speciesCount":12,"firstSurvey":"17/03/2004","lastSurvey":"17/03/2004"}},{"type":"Feature","geometry":{"type":"Point","coordinates":[0.390811,52.305697]},"properties":{"siteId":"12296","name":"Fordham Gauging Station","waterbody":"GB105033042860","region":"Anglian","area":"Central","totalSurveys":1,"speciesCount":2,"firstSurvey":"27/02/2004","lastSurvey":"27/02/2004"}},{"type":"Feature","geometry":{"type":"Point","coordinates":[0.389981,52.308807]},"properties":{"siteId":"32533","name":"Ironbridge Fordham","waterbody":"GB105033042860","region":"Anglian","area":"Central","totalSurveys":1,"speciesCount":5,"firstSurvey":"30/01/2008","lastSurvey":"30/01/2008"}},{"type":"Feature","geometry":{"type":"Point","coordinates":[0.402198,52.286259]},"properties":{"siteId":"32531","name":"Lynx Business Park","waterbody":"GB105033042860","region":"Anglian","area":"Central","totalSurveys":3,"speciesCount":4,"firstSurvey":"29/01/2008","lastSurvey":"14/03/2014"}},{"type":"Feature","geometry":{"type":"Point","coordinates":[0.388025,52.317443]},"properties":{"siteId":"32534","name":"Snailbridge House Fordham","waterbody":"GB105033042860","region":"Anglian","area":"Central","totalSurveys":3,"speciesCount":10,"firstSurvey":"30/01/2008","lastSurvey":"28/02/2014"}},{"type":"Feature","geometry":{"type":"Point","coordinates":[0.395855,52.295056]},"properties":{"siteId":"32532","name":"Snailwell Fen","waterbody":"GB105033042860","region":"Anglian","area":"Central","totalSurveys":1,"speciesCount":3,"firstSurvey":"29/01/2008","lastSurvey":"29/01/2008"}},{"type":"Feature","geometry":{"type":"Point","coordinates":[0.401561,52.287495]},"properties":{"siteId":"12301","name":"Snailwell Gauging Station","waterbody":"GB105033042860","region":"Anglian","area":"Central","totalSurveys":1,"speciesCount":2,"firstSurvey":"26/02/2004","lastSurvey":"26/02/2004"}},{"type":"Feature","geometry":{"type":"Point","coordinates":[0.26442,52.358544]},"properties":{"siteId":"4813","name":"Barway","waterbody":"GB105033042860","region":"Anglian","area":"Central","totalSurveys":6,"speciesCount":20,"firstSurvey":"02/10/1984","lastSurvey":"22/05/2014"}},{"type":"Feature","geometry":{"type":"Point","coordinates":[0.352485,52.329847]},"properties":{"siteId":"4811","name":"East Fen Common","waterbody":"GB105033042860","region":"Anglian","area":"Central","totalSurveys":5,"speciesCount":12,"firstSurvey":"02/10/1984","lastSurvey":"24/06/1997"}},{"type":"Feature","geometry":{"type":"Point","coordinates":[0.374669,52.332999]},"properties":{"siteId":"4810","name":"Moor Farm Fordham","waterbody":"GB105033042860","region":"Anglian","area":"Central","totalSurveys":6,"speciesCount":7,"firstSurvey":"27/09/1984","lastSurvey":"01/02/2008"}},{"type":"Feature","geometry":{"type":"Point","coordinates":[0.312227,52.345928]},"properties":{"siteId":"4812","name":"Soham Cotes","waterbody":"GB105033042860","region":"Anglian","area":"Central","totalSurveys":6,"speciesCount":20,"firstSurvey":"21/10/1987","lastSurvey":"20/05/2014"}},{"type":"Feature","geometry":{"type":"Point","coordinates":[0.261085,52.363985]},"properties":{"siteId":"47123","name":"Soham Lode Pumping Station","waterbody":"GB105033047850","region":"Anglian","area":"Central","totalSurveys":2,"speciesCount":14,"firstSurvey":"28/02/2013","lastSurvey":"01/03/2013"}},{"type":"Feature","geometry":{"type":"Point","coordinates":[0.513492,52.606187]},"properties":{"siteId":"4825","name":"Barton Bendish","waterbody":"GB105033047810","region":"Anglian","area":"Central","totalSurveys":3,"speciesCount":7,"firstSurvey":"13/02/1990","lastSurvey":"07/02/2000"}},{"type":"Feature","geometry":{"type":"Point","coordinates":[0.530961,52.576141]},"properties":{"siteId":"4826","name":"DS Stoke Ferry Stringside Stream","waterbody":"GB105033047640","region":"Anglian","area":"Central","totalSurveys":10,"speciesCount":18,"firstSurvey":"13/02/1990","lastSurvey":"04/07/2024"}},{"type":"Feature","geometry":{"type":"Point","coordinates":[0.842458,52.417091]},"properties":{"siteId":"4598","name":"Brettenham","waterbody":"GB105033043190","region":"Anglian","area":"Central","totalSurveys":3,"speciesCount":11,"firstSurvey":"27/07/1988","lastSurvey":"23/11/1995"}},{"type":"Feature","geometry":{"type":"Point","coordinates":[0.877286,52.432435]},"properties":{"siteId":"4596","name":"Bridgham Bridge","waterbody":"GB105033043190","region":"Anglian","area":"Central","totalSurveys":7,"speciesCount":15,"firstSurvey":"20/07/1988","lastSurvey":"19/09/2024"}},{"type":"Feature","geometry":{"type":"Point","coordinates":[0.923357,52.439398]},"properties":{"siteId":"4595","name":"East Harling","waterbody":"GB105033043190","region":"Anglian","area":"Central","totalSurveys":5,"speciesCount":15,"firstSurvey":"21/07/1988","lastSurvey":"27/09/2012"}},{"type":"Feature","geometry":{"type":"Point","coordinates":[0.800997,52.412685]},"properties":{"siteId":"4599","name":"Kilverstone Estate","waterbody":"GB105033043190","region":"Anglian","area":"Central","totalSurveys":3,"speciesCount":10,"firstSurvey":"29/07/1988","lastSurvey":"24/11/1995"}},{"type":"Feature","geometry":{"type":"Point","coordinates":[0.918906,52.461092]},"properties":{"siteId":"4594","name":"Larlingford","waterbody":"GB105033043190","region":"Anglian","area":"Central","totalSurveys":3,"speciesCount":10,"firstSurvey":"19/07/1988","lastSurvey":"16/11/1995"}},{"type":"Feature","geometry":{"type":"Point","coordinates":[0.951738,52.506617]},"properties":{"siteId":"79963","name":"Manor Farm Shropham","waterbody":null,"region":"Anglian","area":"Central","totalSurveys":1,"speciesCount":9,"firstSurvey":"22/10/2024","lastSurvey":"22/10/2024"}},{"type":"Feature","geometry":{"type":"Point","coordinates":[0.932062,52.487133]},"properties":{"siteId":"4593","name":"Snetterton Gravel Pits","waterbody":"GB105033043190","region":"Anglian","area":"Central","totalSurveys":7,"speciesCount":19,"firstSurvey":"19/07/1988","lastSurvey":"18/09/2024"}},{"type":"Feature","geometry":{"type":"Point","coordinates":[0.767988,52.413481]},"properties":{"siteId":"4600","name":"Thetford","waterbody":"GB105033043190","region":"Anglian","area":"Central","totalSurveys":6,"speciesCount":13,"firstSurvey":"28/07/1988","lastSurvey":"18/10/2018"}},{"type":"Feature","geometry":{"type":"Point","coordinates":[0.857433,52.421226]},"properties":{"siteId":"4597","name":"Thorpe Woodlands","waterbody":"GB105033043190","region":"Anglian","area":"Central","totalSurveys":1,"speciesCount":6,"firstSurvey":"07/02/1997","lastSurvey":"07/02/1997"}},{"type":"Feature","geometry":{"type":"Point","coordinates":[0.543639,52.309778]},"properties":{"siteId":"4481","name":"Tuddenham","waterbody":"GB105033043010","region":"Anglian","area":"Central","totalSurveys":5,"speciesCount":14,"firstSurvey":"21/02/1991","lastSurvey":"28/08/2015"}},{"type":"Feature","geometry":{"type":"Point","coordinates":[0.858978,52.581261]},"properties":{"siteId":"4748","name":"DS Carbrooke","waterbody":"GB105033047870","region":"Anglian","area":"Central","totalSurveys":2,"speciesCount":6,"firstSurvey":"06/02/1990","lastSurvey":"05/01/1993"}},{"type":"Feature","geometry":{"type":"Point","coordinates":[0.745376,52.558772]},"properties":{"siteId":"4751","name":"Hopton Farm","waterbody":"GB105033047870","region":"Anglian","area":"Central","totalSurveys":7,"speciesCount":11,"firstSurvey":"07/02/1990","lastSurvey":"15/05/2024"}},{"type":"Feature","geometry":{"type":"Point","coordinates":[0.703256,52.569633]},"properties":{"siteId":"4752","name":"Linghills Farm","waterbody":"GB105033047870","region":"Anglian","area":"Central","totalSurveys":7,"speciesCount":13,"firstSurvey":"12/02/1990","lastSurvey":"05/05/2015"}},{"type":"Feature","geometry":{"type":"Point","coordinates":[0.756253,52.567512]},"properties":{"siteId":"4750","name":"Lt Cressingham","waterbody":"GB105033047870","region":"Anglian","area":"Central","totalSurveys":5,"speciesCount":13,"firstSurvey":"08/01/1993","lastSurvey":"14/05/2024"}},{"type":"Feature","geometry":{"type":"Point","coordinates":[0.808078,52.574368]},"properties":{"siteId":"4749","name":"Watton","waterbody":"GB105033047870","region":"Anglian","area":"Central","totalSurveys":2,"speciesCount":7,"firstSurvey":"06/02/1990","lastSurvey":"08/01/1993"}},{"type":"Feature","geometry":{"type":"Point","coordinates":[0.659169,52.514439]},"properties":{"siteId":"34373","name":"Lynford Road Farm Mundford","waterbody":"GB105033043450","region":"Anglian","area":"Central","totalSurveys":2,"speciesCount":12,"firstSurvey":"15/02/2013","lastSurvey":"01/05/2024"}},{"type":"Feature","geometry":{"type":"Point","coordinates":[0.9815,52.450536]},"properties":{"siteId":"12300","name":"Quidenham","waterbody":"GB105033043390","region":"Anglian","area":"Central","totalSurveys":3,"speciesCount":10,"firstSurvey":"26/02/2004","lastSurvey":"25/07/2012"}},{"type":"Feature","geometry":{"type":"Point","coordinates":[0.483533,52.546573]},"properties":{"siteId":"4653","name":"Catsholme Pump","waterbody":"GB105033047630","region":"Anglian","area":"Central","totalSurveys":7,"speciesCount":17,"firstSurvey":"17/10/1988","lastSurvey":"01/08/2024"}},{"type":"Feature","geometry":{"type":"Point","coordinates":[0.352031,52.565166]},"properties":{"siteId":"4659","name":"Fordham Fen","waterbody":"GB105033047650","region":"Anglian","area":"Central","totalSurveys":6,"speciesCount":14,"firstSurvey":"30/08/1988","lastSurvey":"06/08/2007"}},{"type":"Feature","geometry":{"type":"Point","coordinates":[0.381129,52.562165]},"properties":{"siteId":"4658","name":"Hilgay Bridge","waterbody":"GB105033047650","region":"Anglian","area":"Central","totalSurveys":5,"speciesCount":13,"firstSurvey":"02/09/1988","lastSurvey":"17/05/2000"}},{"type":"Feature","geometry":{"type":"Point","coordinates":[0.414929,52.559682]},"properties":{"siteId":"4655","name":"Hilgay Fen","waterbody":"GB105033047650","region":"Anglian","area":"Central","totalSurveys":6,"speciesCount":15,"firstSurvey":"10/10/1988","lastSurvey":"28/06/2012"}},{"type":"Feature","geometry":{"type":"Point","coordinates":[0.393018,52.563724]},"properties":{"siteId":"4657","name":"Hilgay Moorings","waterbody":"GB105033047650","region":"Anglian","area":"Central","totalSurveys":8,"speciesCount":15,"firstSurvey":"18/10/1988","lastSurvey":"06/08/2024"}},{"type":"Feature","geometry":{"type":"Point","coordinates":[0.394492,52.563694]},"properties":{"siteId":"4656","name":"Hilgay","waterbody":"GB105033047650","region":"Anglian","area":"Central","totalSurveys":5,"speciesCount":13,"firstSurvey":"26/08/1988","lastSurvey":"15/05/2000"}},{"type":"Feature","geometry":{"type":"Point","coordinates":[0.496674,52.54733]},"properties":{"siteId":"4652","name":"Methwold Lode","waterbody":"GB105033047630","region":"Anglian","area":"Central","totalSurveys":6,"speciesCount":14,"firstSurvey":"31/08/1988","lastSurvey":"03/08/2007"}},{"type":"Feature","geometry":{"type":"Point","coordinates":[0.54513,52.565946]},"properties":{"siteId":"4649","name":"Oxborough Ferry","waterbody":"GB105033047630","region":"Anglian","area":"Central","totalSurveys":9,"speciesCount":18,"firstSurvey":"22/08/1988","lastSurvey":"31/07/2024"}},{"type":"Feature","geometry":{"type":"Point","coordinates":[0.510616,52.555892]},"properties":{"siteId":"4651","name":"Stoke Ferry","waterbody":"GB105033047630","region":"Anglian","area":"Central","totalSurveys":5,"speciesCount":15,"firstSurvey":"24/08/1988","lastSurvey":"17/04/2000"}},{"type":"Feature","geometry":{"type":"Point","coordinates":[0.528918,52.566293]},"properties":{"siteId":"4650","name":"Whittington","waterbody":"GB105033047630","region":"Anglian","area":"Central","totalSurveys":5,"speciesCount":14,"firstSurvey":"23/08/1988","lastSurvey":"13/04/2000"}},{"type":"Feature","geometry":{"type":"Point","coordinates":[0.442581,52.55282]},"properties":{"siteId":"4654","name":"Wissington Beet","waterbody":"GB105033047650","region":"Anglian","area":"Central","totalSurveys":6,"speciesCount":17,"firstSurvey":"25/08/1988","lastSurvey":"20/08/2007"}},{"type":"Feature","geometry":{"type":"Point","coordinates":[0.699205,52.551741]},"properties":{"siteId":"4817","name":"Bodney Meadows","waterbody":"GB105033047630","region":"Anglian","area":"Central","totalSurveys":2,"speciesCount":9,"firstSurvey":"16/02/1990","lastSurvey":"27/01/1993"}},{"type":"Feature","geometry":{"type":"Point","coordinates":[0.574396,52.561716]},"properties":{"siteId":"4821","name":"Borough Fen","waterbody":"GB105033047630","region":"Anglian","area":"Central","totalSurveys":2,"speciesCount":9,"firstSurvey":"14/03/1990","lastSurvey":"26/01/1993"}},{"type":"Feature","geometry":{"type":"Point","coordinates":[0.78991,52.638735]},"properties":{"siteId":"36521","name":"Bridge Cottage","waterbody":"GB105033047890","region":"Anglian","area":"Central","totalSurveys":2,"speciesCount":4,"firstSurvey":"23/11/2010","lastSurvey":"16/05/2013"}},{"type":"Feature","geometry":{"type":"Point","coordinates":[0.699245,52.52836]},"properties":{"siteId":"4818","name":"Buckenham Toft","waterbody":"GB105033047630","region":"Anglian","area":"Central","totalSurveys":2,"speciesCount":10,"firstSurvey":"14/02/1990","lastSurvey":"07/01/1993"}},{"type":"Feature","geometry":{"type":"Point","coordinates":[0.7653,52.631273]},"properties":{"siteId":"36522","name":"Erneford Bridge","waterbody":"GB105033047890","region":"Anglian","area":"Central","totalSurveys":4,"speciesCount":7,"firstSurvey":"23/11/2010","lastSurvey":"10/04/2024"}},{"type":"Feature","geometry":{"type":"Point","coordinates":[0.703532,52.574123]},"properties":{"siteId":"4815","name":"Hilborough Ford","waterbody":"GB105033047890","region":"Anglian","area":"Central","totalSurveys":8,"speciesCount":12,"firstSurvey":"12/03/1990","lastSurvey":"18/04/2024"}},{"type":"Feature","geometry":{"type":"Point","coordinates":[0.692664,52.565379]},"properties":{"siteId":"4816","name":"Hilborough Mill","waterbody":"GB105033047630","region":"Anglian","area":"Central","totalSurveys":6,"speciesCount":13,"firstSurvey":"13/03/1990","lastSurvey":"12/04/2012"}},{"type":"Feature","geometry":{"type":"Point","coordinates":[0.687027,52.521444]},"properties":{"siteId":"4819","name":"Ickburgh Plantation","waterbody":"GB105033047630","region":"Anglian","area":"Central","totalSurveys":2,"speciesCount":9,"firstSurvey":"20/02/1990","lastSurvey":"20/01/1993"}},{"type":"Feature","geometry":{"type":"Point","coordinates":[0.75264,52.624545]},"properties":{"siteId":"36520","name":"Meadow Farm North Pickenham","waterbody":"GB105033047890","region":"Anglian","area":"Central","totalSurveys":5,"speciesCount":8,"firstSurvey":"23/11/2010","lastSurvey":"11/04/2024"}},{"type":"Feature","geometry":{"type":"Point","coordinates":[0.741147,52.609228]},"properties":{"siteId":"4814","name":"South Pickenham","waterbody":"GB105033047890","region":"Anglian","area":"Central","totalSurveys":8,"speciesCount":7,"firstSurvey":"05/02/1990","lastSurvey":"16/04/2024"}},{"type":"Feature","geometry":{"type":"Point","coordinates":[0.611323,52.537527]},"properties":{"siteId":"4820","name":"Watermill Farm","waterbody":"GB105033047630","region":"Anglian","area":"Central","totalSurveys":4,"speciesCount":13,"firstSurvey":"21/02/1990","lastSurvey":"17/04/2024"}},{"type":"Feature","geometry":{"type":"Point","coordinates":[0.056384,52.369541]},"properties":{"siteId":"4541","name":"Black Sluice","waterbody":"GB105033047922","region":"Anglian","area":"Central","totalSurveys":3,"speciesCount":12,"firstSurvey":"21/03/1988","lastSurvey":"12/05/1997"}},{"type":"Feature","geometry":{"type":"Point","coordinates":[0.258739,52.534892]},"properties":{"siteId":"4547","name":"DS Welney","waterbody":"GB105033047922","region":"Anglian","area":"Central","totalSurveys":6,"speciesCount":13,"firstSurvey":"21/04/1988","lastSurvey":"16/05/2008"}},{"type":"Feature","geometry":{"type":"Point","coordinates":[0.071609,52.380964]},"properties":{"siteId":"4540","name":"Jolly Bankers","waterbody":"GB105033047922","region":"Anglian","area":"Central","totalSurveys":3,"speciesCount":8,"firstSurvey":"23/03/1988","lastSurvey":"12/05/1997"}},{"type":"Feature","geometry":{"type":"Point","coordinates":[0.114391,52.415274]},"properties":{"siteId":"4543","name":"Mepal","waterbody":"GB105033047922","region":"Anglian","area":"Central","totalSurveys":11,"speciesCount":13,"firstSurvey":"25/03/1988","lastSurvey":"15/03/2023"}},{"type":"Feature","geometry":{"type":"Point","coordinates":[0.337569,52.586502]},"properties":{"siteId":"4548","name":"Salters Lode","waterbody":"GB105033047712","region":"Anglian","area":"Central","totalSurveys":11,"speciesCount":20,"firstSurvey":"22/04/1988","lastSurvey":"22/03/2023"}},{"type":"Feature","geometry":{"type":"Point","coordinates":[0.049413,52.364276]},"properties":{"siteId":"72614","name":"SLS Control 1","waterbody":null,"region":"Anglian","area":"Central","totalSurveys":2,"speciesCount":1,"firstSurvey":"28/09/2018","lastSurvey":"01/05/2019"}},{"type":"Feature","geometry":{"type":"Point","coordinates":[0.170107,52.45746]},"properties":{"siteId":"72613","name":"SLS Control 2","waterbody":null,"region":"Anglian","area":"Central","totalSurveys":2,"speciesCount":1,"firstSurvey":"28/09/2018","lastSurvey":"09/05/2019"}},{"type":"Feature","geometry":{"type":"Point","coordinates":[0.116391,52.416515]},"properties":{"siteId":"72604","name":"SLS De-silt 1","waterbody":null,"region":"Anglian","area":"Central","totalSurveys":2,"speciesCount":1,"firstSurvey":"26/09/2018","lastSurvey":"09/05/2019"}},{"type":"Feature","geometry":{"type":"Point","coordinates":[0.122043,52.420604]},"properties":{"siteId":"72605","name":"SLS De-silt 2","waterbody":null,"region":"Anglian","area":"Central","totalSurveys":2,"speciesCount":1,"firstSurvey":"26/09/2018","lastSurvey":"01/05/2019"}},{"type":"Feature","geometry":{"type":"Point","coordinates":[0.127661,52.424873]},"properties":{"siteId":"72606","name":"SLS De-silt 3","waterbody":null,"region":"Anglian","area":"Central","totalSurveys":2,"speciesCount":1,"firstSurvey":"26/09/2018","lastSurvey":"09/05/2019"}},{"type":"Feature","geometry":{"type":"Point","coordinates":[0.095111,52.399415]},"properties":{"siteId":"72609","name":"SLS Weed cut 1","waterbody":null,"region":"Anglian","area":"Central","totalSurveys":2,"speciesCount":1,"firstSurvey":"11/10/2018","lastSurvey":"09/05/2019"}},{"type":"Feature","geometry":{"type":"Point","coordinates":[0.09897,52.402376]},"properties":{"siteId":"72608","name":"SLS Weed cut 2","waterbody":null,"region":"Anglian","area":"Central","totalSurveys":2,"speciesCount":1,"firstSurvey":"11/10/2018","lastSurvey":"09/05/2019"}},{"type":"Feature","geometry":{"type":"Point","coordinates":[0.102684,52.405358]},"properties":{"siteId":"72607","name":"SLS Weed cut 3","waterbody":null,"region":"Anglian","area":"Central","totalSurveys":2,"speciesCount":1,"firstSurvey":"11/10/2018","lastSurvey":"09/05/2019"}},{"type":"Feature","geometry":{"type":"Point","coordinates":[0.061128,52.37203]},"properties":{"siteId":"72612","name":"SLS Weed rake 1","waterbody":null,"region":"Anglian","area":"Central","totalSurveys":2,"speciesCount":1,"firstSurvey":"26/09/2018","lastSurvey":"01/05/2019"}},{"type":"Feature","geometry":{"type":"Point","coordinates":[0.071223,52.379937]},"properties":{"siteId":"72611","name":"SLS Weed rake 2","waterbody":null,"region":"Anglian","area":"Central","totalSurveys":2,"speciesCount":1,"firstSurvey":"26/09/2018","lastSurvey":"01/05/2019"}},{"type":"Feature","geometry":{"type":"Point","coordinates":[0.081644,52.388458]},"properties":{"siteId":"72610","name":"SLS Weed rake 3","waterbody":null,"region":"Anglian","area":"Central","totalSurveys":2,"speciesCount":1,"firstSurvey":"26/09/2018","lastSurvey":"01/05/2019"}},{"type":"Feature","geometry":{"type":"Point","coordinates":[0.091459,52.3968]},"properties":{"siteId":"4542","name":"Sutton Gault","waterbody":"GB105033047922","region":"Anglian","area":"Central","totalSurveys":4,"speciesCount":11,"firstSurvey":"24/03/1988","lastSurvey":"03/04/2014"}},{"type":"Feature","geometry":{"type":"Point","coordinates":[0.229066,52.502185]},"properties":{"siteId":"4545","name":"Vandervells Lake","waterbody":"GB105033047922","region":"Anglian","area":"Central","totalSurveys":10,"speciesCount":16,"firstSurvey":"30/03/1988","lastSurvey":"12/04/2017"}},{"type":"Feature","geometry":{"type":"Point","coordinates":[0.158236,52.448587]},"properties":{"siteId":"4544","name":"Welches","waterbody":"GB105033047922","region":"Anglian","area":"Central","totalSurveys":11,"speciesCount":12,"firstSurvey":"28/03/1988","lastSurvey":"16/03/2023"}},{"type":"Feature","geometry":{"type":"Point","coordinates":[0.247601,52.518919]},"properties":{"siteId":"4546","name":"Welney","waterbody":"GB105033047922","region":"Anglian","area":"Central","totalSurveys":11,"speciesCount":18,"firstSurvey":"20/04/1988","lastSurvey":"21/03/2023"}},{"type":"Feature","geometry":{"type":"Point","coordinates":[0.024667,52.389727]},"properties":{"siteId":"14677","name":"Charters Farm Somersham","waterbody":"GB105033042880","region":"Anglian","area":"Central","totalSurveys":2,"speciesCount":4,"firstSurvey":"12/10/2004","lastSurvey":"28/04/2011"}},{"type":"Feature","geometry":{"type":"Point","coordinates":[0.275036,52.536378]},"properties":{"siteId":"4932","name":"DS Welney Bridge","waterbody":"GB105033047922","region":"Anglian","area":"Central","totalSurveys":4,"speciesCount":11,"firstSurvey":"04/01/1989","lastSurvey":"01/06/2011"}},{"type":"Feature","geometry":{"type":"Point","coordinates":[0.037773,52.353913]},"properties":{"siteId":"48063","name":"Earith Sluice Pools","waterbody":null,"region":"Anglian","area":"Central","totalSurveys":1,"speciesCount":11,"firstSurvey":"29/04/2013","lastSurvey":"29/04/2013"}},{"type":"Feature","geometry":{"type":"Point","coordinates":[0.041085,52.356319]},"properties":{"siteId":"4926","name":"Earith","waterbody":"GB105033047921","region":"Anglian","area":"Central","totalSurveys":6,"speciesCount":22,"firstSurvey":"13/12/1988","lastSurvey":"30/11/2011"}},{"type":"Feature","geometry":{"type":"Point","coordinates":[0.071567,52.380066]},"properties":{"siteId":"4927","name":"Jolly Bankers Bridge","waterbody":"GB105033047922","region":"Anglian","area":"Central","totalSurveys":3,"speciesCount":15,"firstSurvey":"16/12/1988","lastSurvey":"29/07/1997"}},{"type":"Feature","geometry":{"type":"Point","coordinates":[0.11586,52.415248]},"properties":{"siteId":"4929","name":"Mepal Bridge","waterbody":"GB105033047922","region":"Anglian","area":"Central","totalSurveys":2,"speciesCount":11,"firstSurvey":"21/12/1988","lastSurvey":"22/06/1993"}},{"type":"Feature","geometry":{"type":"Point","coordinates":[0.293603,52.553104]},"properties":{"siteId":"4933","name":"Old Hundred Farm","waterbody":"GB105033047922","region":"Anglian","area":"Central","totalSurveys":3,"speciesCount":11,"firstSurvey":"10/01/1989","lastSurvey":"22/07/1997"}},{"type":"Feature","geometry":{"type":"Point","coordinates":[0.094439,52.397646]},"properties":{"siteId":"4928","name":"Sutton Gault Bridge","waterbody":"GB105033047922","region":"Anglian","area":"Central","totalSurveys":6,"speciesCount":19,"firstSurvey":"14/12/1988","lastSurvey":"15/06/2011"}},{"type":"Feature","geometry":{"type":"Point","coordinates":[0.159771,52.448676]},"properties":{"siteId":"4930","name":"Welches Dam","waterbody":"GB105033047922","region":"Anglian","area":"Central","totalSurveys":6,"speciesCount":17,"firstSurvey":"03/01/1989","lastSurvey":"23/05/2011"}},{"type":"Feature","geometry":{"type":"Point","coordinates":[0.314802,52.563481]},"properties":{"siteId":"4934","name":"Welmore Lake Sluice","waterbody":"GB105033047850","region":"Anglian","area":"Central","totalSurveys":8,"speciesCount":17,"firstSurvey":"09/01/1989","lastSurvey":"27/06/2023"}},{"type":"Feature","geometry":{"type":"Point","coordinates":[0.25363,52.521502]},"properties":{"siteId":"4931","name":"Welney Bridge","waterbody":"GB105033047922","region":"Anglian","area":"Central","totalSurveys":6,"speciesCount":13,"firstSurvey":"06/01/1989","lastSurvey":"12/06/2009"}},{"type":"Feature","geometry":{"type":"Point","coordinates":[0.023111,52.477114]},"properties":{"siteId":"4890","name":"Badney Drove","waterbody":"GB105033043150","region":"Anglian","area":"Central","totalSurveys":8,"speciesCount":14,"firstSurvey":"08/09/1987","lastSurvey":"18/07/2023"}},{"type":"Feature","geometry":{"type":"Point","coordinates":[0.037825,52.476862]},"properties":{"siteId":"4891","name":"Leonard Childs Bridge","waterbody":"GB105033043160","region":"Anglian","area":"Central","totalSurveys":3,"speciesCount":12,"firstSurvey":"08/09/1987","lastSurvey":"21/08/1994"}},{"type":"Feature","geometry":{"type":"Point","coordinates":[0.082927,52.465286]},"properties":{"siteId":"4892","name":"Nightlayers Fen","waterbody":"GB105033043160","region":"Anglian","area":"Central","totalSurveys":4,"speciesCount":13,"firstSurvey":"09/09/1987","lastSurvey":"12/08/1999"}},{"type":"Feature","geometry":{"type":"Point","coordinates":[0.236391,52.588367]},"properties":{"siteId":"4855","name":"Iron Bridge","waterbody":"GB105033047712","region":"Anglian","area":"Central","totalSurveys":3,"speciesCount":10,"firstSurvey":"17/09/1987","lastSurvey":"14/09/1994"}},{"type":"Feature","geometry":{"type":"Point","coordinates":[0.273369,52.618234]},"properties":{"siteId":"4857","name":"Mortons Bridge","waterbody":"GB105033047730","region":"Anglian","area":"Central","totalSurveys":4,"speciesCount":10,"firstSurvey":"28/09/1987","lastSurvey":"06/10/1999"}},{"type":"Feature","geometry":{"type":"Point","coordinates":[0.262158,52.601365]},"properties":{"siteId":"4856","name":"Mullicourt Aqueduct","waterbody":"GB105033047712","region":"Anglian","area":"Central","totalSurveys":5,"speciesCount":12,"firstSurvey":"23/09/1987","lastSurvey":"20/07/2023"}},{"type":"Feature","geometry":{"type":"Point","coordinates":[0.290683,52.638581]},"properties":{"siteId":"4858","name":"Neeps Bridge","waterbody":"GB105033047730","region":"Anglian","area":"Central","totalSurveys":9,"speciesCount":14,"firstSurvey":"29/09/1987","lastSurvey":"26/07/2023"}},{"type":"Feature","geometry":{"type":"Point","coordinates":[0.315778,52.665967]},"properties":{"siteId":"4859","name":"Parsonage Farm","waterbody":"GB105033047740","region":"Anglian","area":"Central","totalSurveys":4,"speciesCount":11,"firstSurvey":"30/09/1987","lastSurvey":"01/10/1999"}},{"type":"Feature","geometry":{"type":"Point","coordinates":[0.333035,52.684511]},"properties":{"siteId":"4860","name":"Peter's Drove Bridge","waterbody":"GB105033047910","region":"Anglian","area":"Central","totalSurveys":4,"speciesCount":13,"firstSurvey":"01/10/1987","lastSurvey":"30/09/1999"}},{"type":"Feature","geometry":{"type":"Point","coordinates":[0.224182,52.580504]},"properties":{"siteId":"4854","name":"Three Holes","waterbody":"GB105033047700","region":"Anglian","area":"Central","totalSurveys":5,"speciesCount":12,"firstSurvey":"16/09/1987","lastSurvey":"11/07/2006"}},{"type":"Feature","geometry":{"type":"Point","coordinates":[0.35193,52.705717]},"properties":{"siteId":"4861","name":"Wiggenhall St Marys","waterbody":"GB105033047910","region":"Anglian","area":"Central","totalSurveys":4,"speciesCount":12,"firstSurvey":"02/10/1987","lastSurvey":"01/08/2023"}},{"type":"Feature","geometry":{"type":"Point","coordinates":[0.210864,52.579855]},"properties":{"siteId":"4863","name":"Black Sluice Bridge","waterbody":"GB105033047700","region":"Anglian","area":"Central","totalSurveys":4,"speciesCount":15,"firstSurvey":"15/09/1987","lastSurvey":"09/09/1999"}},{"type":"Feature","geometry":{"type":"Point","coordinates":[0.18727,52.580293]},"properties":{"siteId":"4862","name":"Croft House Farm","waterbody":"GB105033047700","region":"Anglian","area":"Central","totalSurveys":8,"speciesCount":12,"firstSurvey":"11/09/1987","lastSurvey":"02/08/2023"}},{"type":"Feature","geometry":{"type":"Point","coordinates":[0.113895,52.558176]},"properties":{"siteId":"69544","name":"Badgeney Pumping Station","waterbody":null,"region":"Anglian","area":"Central","totalSurveys":1,"speciesCount":7,"firstSurvey":"22/06/2017","lastSurvey":"22/06/2017"}},{"type":"Feature","geometry":{"type":"Point","coordinates":[0.159162,52.579011]},"properties":{"siteId":"4886","name":"Low Corner Farm","waterbody":"GB105033047712","region":"Anglian","area":"Central","totalSurveys":4,"speciesCount":9,"firstSurvey":"10/09/1987","lastSurvey":"06/07/1999"}},{"type":"Feature","geometry":{"type":"Point","coordinates":[0.021498,52.538283]},"properties":{"siteId":"4885","name":"March","waterbody":"GB105033047712","region":"Anglian","area":"Central","totalSurveys":6,"speciesCount":13,"firstSurvey":"02/09/1987","lastSurvey":"07/07/2011"}},{"type":"Feature","geometry":{"type":"Point","coordinates":[0.016831,52.532968]},"properties":{"siteId":"4884","name":"Staffurths Bridge","waterbody":"GB105033047711","region":"Anglian","area":"Central","totalSurveys":6,"speciesCount":13,"firstSurvey":"01/09/1987","lastSurvey":"05/07/2023"}},{"type":"Feature","geometry":{"type":"Point","coordinates":[0.156561,52.526008]},"properties":{"siteId":"4868","name":"Bedlam Bridge","waterbody":"GB105033047700","region":"Anglian","area":"Central","totalSurveys":8,"speciesCount":13,"firstSurvey":"24/07/1987","lastSurvey":"03/08/2023"}},{"type":"Feature","geometry":{"type":"Point","coordinates":[0.12723,52.498665]},"properties":{"siteId":"4866","name":"Boots Bridge","waterbody":"GB105033047700","region":"Anglian","area":"Central","totalSurveys":3,"speciesCount":12,"firstSurvey":"21/07/1987","lastSurvey":"25/07/1994"}},{"type":"Feature","geometry":{"type":"Point","coordinates":[0.173561,52.541882]},"properties":{"siteId":"4869","name":"Chapel of Ease Farm","waterbody":"GB105033047700","region":"Anglian","area":"Central","totalSurveys":5,"speciesCount":12,"firstSurvey":"27/07/1987","lastSurvey":"23/08/1999"}},{"type":"Feature","geometry":{"type":"Point","coordinates":[0.130838,52.57323]},"properties":{"siteId":"4871","name":"Cottons Corner","waterbody":"GB105033047700","region":"Anglian","area":"Central","totalSurveys":5,"speciesCount":14,"firstSurvey":"29/07/1987","lastSurvey":"24/08/1999"}},{"type":"Feature","geometry":{"type":"Point","coordinates":[0.147373,52.518982]},"properties":{"siteId":"4867","name":"Fincham Farm","waterbody":"GB105033047700","region":"Anglian","area":"Central","totalSurveys":4,"speciesCount":11,"firstSurvey":"23/07/1987","lastSurvey":"19/08/1999"}},{"type":"Feature","geometry":{"type":"Point","coordinates":[0.111821,52.484555]},"properties":{"siteId":"4865","name":"Honey Bridge","waterbody":"GB105033047700","region":"Anglian","area":"Central","totalSurveys":5,"speciesCount":15,"firstSurvey":"22/07/1987","lastSurvey":"15/06/2006"}},{"type":"Feature","geometry":{"type":"Point","coordinates":[0.190798,52.562245]},"properties":{"siteId":"4870","name":"Riverside Lodge","waterbody":"GB105033047700","region":"Anglian","area":"Central","totalSurveys":3,"speciesCount":11,"firstSurvey":"28/07/1987","lastSurvey":"09/08/1994"}},{"type":"Feature","geometry":{"type":"Point","coordinates":[0.096232,52.470797]},"properties":{"siteId":"4864","name":"White Bridge","waterbody":"GB105033047700","region":"Anglian","area":"Central","totalSurveys":4,"speciesCount":14,"firstSurvey":"17/07/1987","lastSurvey":"13/08/1999"}},{"type":"Feature","geometry":{"type":"Point","coordinates":[0.095706,52.579252]},"properties":{"siteId":"4876","name":"Chainbridge","waterbody":"GB105033047712","region":"Anglian","area":"Central","totalSurveys":10,"speciesCount":14,"firstSurvey":"08/07/1987","lastSurvey":"21/09/2011"}},{"type":"Feature","geometry":{"type":"Point","coordinates":[0.03418,52.589316]},"properties":{"siteId":"4874","name":"Goosetree Corner","waterbody":"GB105032050382","region":"Anglian","area":"Central","totalSurveys":12,"speciesCount":17,"firstSurvey":"05/07/1987","lastSurvey":"03/05/2023"}},{"type":"Feature","geometry":{"type":"Point","coordinates":[0.06225,52.58973]},"properties":{"siteId":"4875","name":"Hobbs Lot Bridge","waterbody":"GB105033047712","region":"Anglian","area":"Central","totalSurveys":11,"speciesCount":13,"firstSurvey":"07/07/1987","lastSurvey":"10/05/2023"}},{"type":"Feature","geometry":{"type":"Point","coordinates":[0.124896,52.572438]},"properties":{"siteId":"4877","name":"Shepperson's Bridge","waterbody":"GB105033047712","region":"Anglian","area":"Central","totalSurveys":10,"speciesCount":16,"firstSurvey":"13/07/1987","lastSurvey":"02/06/2011"}},{"type":"Feature","geometry":{"type":"Point","coordinates":[0.252015,52.605155]},"properties":{"siteId":"4521","name":"Aqueduct Bridge","waterbody":"GB105033047712","region":"Anglian","area":"Central","totalSurveys":5,"speciesCount":16,"firstSurvey":"27/04/1989","lastSurvey":"21/06/2006"}},{"type":"Feature","geometry":{"type":"Point","coordinates":[0.312988,52.585097]},"properties":{"siteId":"4518","name":"Boundry Farm","waterbody":"GB105033047712","region":"Anglian","area":"Central","totalSurveys":2,"speciesCount":13,"firstSurvey":"05/06/1991","lastSurvey":"01/06/1994"}},{"type":"Feature","geometry":{"type":"Point","coordinates":[0.196428,52.589286]},"properties":{"siteId":"69443","name":"Marmont Priory","waterbody":null,"region":"Anglian","area":"Central","totalSurveys":6,"speciesCount":13,"firstSurvey":"26/04/1989","lastSurvey":"16/05/2023"}},{"type":"Feature","geometry":{"type":"Point","coordinates":[0.283773,52.591059]},"properties":{"siteId":"4519","name":"Outwell Common","waterbody":"GB105033047712","region":"Anglian","area":"Central","totalSurveys":6,"speciesCount":14,"firstSurvey":"05/05/1989","lastSurvey":"23/05/2023"}},{"type":"Feature","geometry":{"type":"Point","coordinates":[0.338249,52.588197]},"properties":{"siteId":"4517","name":"Salters Lode Well Creek","waterbody":"GB105033047712","region":"Anglian","area":"Central","totalSurveys":9,"speciesCount":16,"firstSurvey":"03/05/1989","lastSurvey":"25/05/2023"}},{"type":"Feature","geometry":{"type":"Point","coordinates":[0.216422,52.60223]},"properties":{"siteId":"4522","name":"Upwell","waterbody":"GB105033047712","region":"Anglian","area":"Central","totalSurveys":4,"speciesCount":14,"firstSurvey":"25/04/1989","lastSurvey":"17/05/2023"}},{"type":"Feature","geometry":{"type":"Point","coordinates":[0.269278,52.597973]},"properties":{"siteId":"4520","name":"Walsingham Fen","waterbody":"GB105033047712","region":"Anglian","area":"Central","totalSurveys":3,"speciesCount":13,"firstSurvey":"08/05/1989","lastSurvey":"25/05/1994"}},{"type":"Feature","geometry":{"type":"Point","coordinates":[0.011308,52.342515]},"properties":{"siteId":"4784","name":"Bluntisham","waterbody":"GB105033047921","region":"Anglian","area":"Central","totalSurveys":4,"speciesCount":15,"firstSurvey":"10/11/1989","lastSurvey":"06/08/1999"}},{"type":"Feature","geometry":{"type":"Point","coordinates":[0.008516,52.335334]},"properties":{"siteId":"80848","name":"Brownshill Elver Trap","waterbody":"GB105033047921","region":"Anglian","area":"Central","totalSurveys":1042,"speciesCount":4,"firstSurvey":"12/04/2010","lastSurvey":"23/09/2024"}},{"type":"Feature","geometry":{"type":"Point","coordinates":[0.008501,52.340171]},"properties":{"siteId":"25997","name":"Brownshill Pumping Station (Eel Monitoring)","waterbody":"GB105033047921","region":"Anglian","area":"Central","totalSurveys":1,"speciesCount":9,"firstSurvey":"02/05/2007","lastSurvey":"02/05/2007"}},{"type":"Feature","geometry":{"type":"Point","coordinates":[0.039411,52.351852]},"properties":{"siteId":"4785","name":"Earith","waterbody":"GB105033047921","region":"Anglian","area":"Central","totalSurveys":3,"speciesCount":13,"firstSurvey":"17/09/1992","lastSurvey":"17/08/1999"}},{"type":"Feature","geometry":{"type":"Point","coordinates":[0.041956,52.351637]},"properties":{"siteId":"29089","name":"Hermitage Lock Drain (Eel Monitoring)","waterbody":"GB105033047921","region":"Anglian","area":"Central","totalSurveys":1,"speciesCount":11,"firstSurvey":"25/04/2007","lastSurvey":"25/04/2007"}},