{"type":"FeatureCollection","features":[{"type":"Feature","geometry":{"type":"Point","coordinates":[-2.069773,54.489917]},"properties":{"siteId":"79263","name":"CPUE Tees Survey Site 1","waterbody":null,"region":"Yorkshire and North East","area":"North East","totalSurveys":1,"speciesCount":1,"firstSurvey":"27/10/2023","lastSurvey":"27/10/2023"}},{"type":"Feature","geometry":{"type":"Point","coordinates":[-2.056799,54.496197]},"properties":{"siteId":"79264","name":"CPUE Tees Survey Site 2","waterbody":null,"region":"Yorkshire and North East","area":"North East","totalSurveys":1,"speciesCount":1,"firstSurvey":"27/10/2023","lastSurvey":"27/10/2023"}},{"type":"Feature","geometry":{"type":"Point","coordinates":[-2.070127,54.507495]},"properties":{"siteId":"79265","name":"CPUE Tees Survey Site 3","waterbody":null,"region":"Yorkshire and North East","area":"North East","totalSurveys":1,"speciesCount":1,"firstSurvey":"31/10/2023","lastSurvey":"31/10/2023"}},{"type":"Feature","geometry":{"type":"Point","coordinates":[-2.051538,54.511072]},"properties":{"siteId":"79266","name":"CPUE Tees Survey Site 4","waterbody":null,"region":"Yorkshire and North East","area":"North East","totalSurveys":1,"speciesCount":2,"firstSurvey":"31/10/2023","lastSurvey":"31/10/2023"}},{"type":"Feature","geometry":{"type":"Point","coordinates":[-2.031173,54.660772]},"properties":{"siteId":"75203","name":"Eggleston Burn - Great Eggleshope","waterbody":null,"region":"Yorkshire and North East","area":"North East","totalSurveys":1,"speciesCount":1,"firstSurvey":"22/08/2022","lastSurvey":"22/08/2022"}},{"type":"Feature","geometry":{"type":"Point","coordinates":[-2.199379,54.647572]},"properties":{"siteId":"63844","name":"FORCE GARTH QUARRY","waterbody":null,"region":"Yorkshire and North East","area":"North East","totalSurveys":2,"speciesCount":2,"firstSurvey":"28/09/2015","lastSurvey":"23/09/2016"}},{"type":"Feature","geometry":{"type":"Point","coordinates":[-2.22693,54.666566]},"properties":{"siteId":"63843","name":"Harwood Beck - Saur Hill Bridge","waterbody":null,"region":"Yorkshire and North East","area":"North East","totalSurveys":5,"speciesCount":2,"firstSurvey":"23/09/2015","lastSurvey":"31/10/2019"}},{"type":"Feature","geometry":{"type":"Point","coordinates":[-2.086958,54.658049]},"properties":{"siteId":"67129","name":"Pikestone Brow Downstream Of Road","waterbody":null,"region":"Yorkshire and North East","area":"North East","totalSurveys":1,"speciesCount":1,"firstSurvey":"12/10/2016","lastSurvey":"12/10/2016"}},{"type":"Feature","geometry":{"type":"Point","coordinates":[-2.08882,54.658928]},"properties":{"siteId":"68163","name":"Pikestone Brow Upstream Of Road","waterbody":null,"region":"Yorkshire and North East","area":"North East","totalSurveys":1,"speciesCount":1,"firstSurvey":"12/10/2016","lastSurvey":"12/10/2016"}},{"type":"Feature","geometry":{"type":"Point","coordinates":[-2.004206,54.577011]},"properties":{"siteId":"68104","name":"River Balder West Park Farm","waterbody":null,"region":"Yorkshire and North East","area":"North East","totalSurveys":3,"speciesCount":6,"firstSurvey":"07/10/2016","lastSurvey":"04/09/2019"}},{"type":"Feature","geometry":{"type":"Point","coordinates":[-2.367121,54.699635]},"properties":{"siteId":"60263","name":"River Tees near Metalband Hill","waterbody":"GB103025076080","region":"Yorkshire and North East","area":"North East","totalSurveys":6,"speciesCount":4,"firstSurvey":"19/09/2014","lastSurvey":"23/10/2019"}},{"type":"Feature","geometry":{"type":"Point","coordinates":[-2.00616,54.603971]},"properties":{"siteId":"29702","name":"WR Monitoring Egglestone Bridge","waterbody":"GB103025072510","region":"Yorkshire and North East","area":"North East","totalSurveys":5,"speciesCount":6,"firstSurvey":"23/09/1994","lastSurvey":"21/10/1999"}},{"type":"Feature","geometry":{"type":"Point","coordinates":[-2.099789,54.977938]},"properties":{"siteId":"66863","name":"Cockshaw Burn","waterbody":null,"region":"Yorkshire and North East","area":"North East","totalSurveys":1,"speciesCount":7,"firstSurvey":"13/05/2016","lastSurvey":"13/05/2016"}},{"type":"Feature","geometry":{"type":"Point","coordinates":[-2.015596,54.985895]},"properties":{"siteId":"16952","name":"Cor Burn at Gallow Hill","waterbody":"GB103023075720","region":"Yorkshire and North East","area":"North East","totalSurveys":1,"speciesCount":2,"firstSurvey":"01/09/2005","lastSurvey":"01/09/2005"}},{"type":"Feature","geometry":{"type":"Point","coordinates":[-2.035904,54.977803]},"properties":{"siteId":"16953","name":"Cor Burn","waterbody":"GB103023075720","region":"Yorkshire and North East","area":"North East","totalSurveys":3,"speciesCount":5,"firstSurvey":"01/09/2005","lastSurvey":"18/09/2015"}},{"type":"Feature","geometry":{"type":"Point","coordinates":[-2.081105,54.924762]},"properties":{"siteId":"10754","name":"Devil's Water at Pethfoot Bridge","waterbody":"GB103023075630","region":"Yorkshire and North East","area":"North East","totalSurveys":14,"speciesCount":6,"firstSurvey":"22/08/2002","lastSurvey":"02/10/2024"}},{"type":"Feature","geometry":{"type":"Point","coordinates":[-2.042146,54.970612]},"properties":{"siteId":"10753","name":"Devils Water at Dilston Haugh","waterbody":"GB103023075680","region":"Yorkshire and North East","area":"North East","totalSurveys":16,"speciesCount":7,"firstSurvey":"23/08/2002","lastSurvey":"07/09/2023"}},{"type":"Feature","geometry":{"type":"Point","coordinates":[-2.092009,54.916667]},"properties":{"siteId":"11876","name":"Devils Water at Dukesfield Mill","waterbody":"GB103023075600","region":"Yorkshire and North East","area":"North East","totalSurveys":1,"speciesCount":2,"firstSurvey":"29/08/2002","lastSurvey":"29/08/2002"}},{"type":"Feature","geometry":{"type":"Point","coordinates":[-2.157274,54.855484]},"properties":{"siteId":"13991","name":"Devils Water at Harwood Shield","waterbody":"GB103023075600","region":"Yorkshire and North East","area":"North East","totalSurveys":3,"speciesCount":1,"firstSurvey":"13/09/2004","lastSurvey":"18/09/2015"}},{"type":"Feature","geometry":{"type":"Point","coordinates":[-2.078028,54.94723]},"properties":{"siteId":"11872","name":"Devils Water at Linnels Mill","waterbody":"GB103023075680","region":"Yorkshire and North East","area":"North East","totalSurveys":3,"speciesCount":5,"firstSurvey":"29/08/2002","lastSurvey":"01/08/2005"}},{"type":"Feature","geometry":{"type":"Point","coordinates":[-2.090762,54.917135]},"properties":{"siteId":"13990","name":"Devils Water at Parkburn House","waterbody":"GB103023075600","region":"Yorkshire and North East","area":"North East","totalSurveys":1,"speciesCount":3,"firstSurvey":"13/10/2004","lastSurvey":"13/10/2004"}},{"type":"Feature","geometry":{"type":"Point","coordinates":[-2.116906,54.895078]},"properties":{"siteId":"11879","name":"Devils Water at Rennys Barn","waterbody":"GB103023075600","region":"Yorkshire and North East","area":"North East","totalSurveys":5,"speciesCount":3,"firstSurvey":"29/08/2002","lastSurvey":"18/09/2015"}},{"type":"Feature","geometry":{"type":"Point","coordinates":[-2.127894,54.918431]},"properties":{"siteId":"11878","name":"Ham Burn at Dalton Bridge","waterbody":"GB103023075620","region":"Yorkshire and North East","area":"North East","totalSurveys":4,"speciesCount":1,"firstSurvey":"29/08/2002","lastSurvey":"27/09/2016"}},{"type":"Feature","geometry":{"type":"Point","coordinates":[-2.127888,54.916634]},"properties":{"siteId":"11877","name":"Rowley Burn at Dalton Bye","waterbody":"GB103023075590","region":"Yorkshire and North East","area":"North East","totalSurveys":6,"speciesCount":5,"firstSurvey":"29/08/2002","lastSurvey":"08/09/2016"}},{"type":"Feature","geometry":{"type":"Point","coordinates":[-2.10138,54.921152]},"properties":{"siteId":"11875","name":"Rowley Burn at Dye House","waterbody":"GB103023075610","region":"Yorkshire and North East","area":"North East","totalSurveys":4,"speciesCount":4,"firstSurvey":"29/08/2002","lastSurvey":"28/09/2016"}},{"type":"Feature","geometry":{"type":"Point","coordinates":[-2.112364,54.943608]},"properties":{"siteId":"11874","name":"West Dipton Burn at Dipton Mill","waterbody":"GB103023075660","region":"Yorkshire and North East","area":"North East","totalSurveys":1,"speciesCount":4,"firstSurvey":"29/08/2002","lastSurvey":"29/08/2002"}},{"type":"Feature","geometry":{"type":"Point","coordinates":[-2.181073,54.948917]},"properties":{"siteId":"16949","name":"West Dipton Burn at Hanging Stone","waterbody":"GB103023075660","region":"Yorkshire and North East","area":"North East","totalSurveys":1,"speciesCount":1,"firstSurvey":"11/08/2005","lastSurvey":"11/08/2005"}},{"type":"Feature","geometry":{"type":"Point","coordinates":[-2.087385,54.94273]},"properties":{"siteId":"11873","name":"West Dipton Burn at Newbiggen Bridge","waterbody":"GB103023075660","region":"Yorkshire and North East","area":"North East","totalSurveys":5,"speciesCount":5,"firstSurvey":"29/08/2002","lastSurvey":"27/09/2016"}},{"type":"Feature","geometry":{"type":"Point","coordinates":[-2.109354,54.984948]},"properties":{"siteId":"11918","name":"Red Burn at A69 Slip Road","waterbody":"GB103023075730","region":"Yorkshire and North East","area":"North East","totalSurveys":1,"speciesCount":1,"firstSurvey":"06/08/2002","lastSurvey":"06/08/2002"}},{"type":"Feature","geometry":{"type":"Point","coordinates":[-2.112507,54.99483]},"properties":{"siteId":"11922","name":"Red Burn D/S of Bridge in Acomb","waterbody":"GB103023075730","region":"Yorkshire and North East","area":"North East","totalSurveys":3,"speciesCount":1,"firstSurvey":"06/08/2002","lastSurvey":"08/08/2019"}},{"type":"Feature","geometry":{"type":"Point","coordinates":[-2.114057,54.990335]},"properties":{"siteId":"11920","name":"Red Burn D/s of Minewater Outflow","waterbody":"GB103023075730","region":"Yorkshire and North East","area":"North East","totalSurveys":2,"speciesCount":2,"firstSurvey":"06/08/2002","lastSurvey":"23/08/2014"}},{"type":"Feature","geometry":{"type":"Point","coordinates":[-2.107787,54.983152]},"properties":{"siteId":"11924","name":"Red Burn in wood at Old Bridge End","waterbody":"GB103023075730","region":"Yorkshire and North East","area":"North East","totalSurveys":2,"speciesCount":4,"firstSurvey":"06/08/2002","lastSurvey":"23/08/2014"}},{"type":"Feature","geometry":{"type":"Point","coordinates":[-2.109367,54.989441]},"properties":{"siteId":"11919","name":"Red Burn Tributary at Garden House Farm","waterbody":"GB103023075730","region":"Yorkshire and North East","area":"North East","totalSurveys":2,"speciesCount":2,"firstSurvey":"06/08/2002","lastSurvey":"23/08/2014"}},{"type":"Feature","geometry":{"type":"Point","coordinates":[-2.093031,54.987882]},"properties":{"siteId":"59763","name":"Red Burn Tributary D/S Bridge at the Riding","waterbody":"GB103023075801","region":"Yorkshire and North East","area":"North East","totalSurveys":1,"speciesCount":1,"firstSurvey":"23/08/2014","lastSurvey":"23/08/2014"}},{"type":"Feature","geometry":{"type":"Point","coordinates":[-2.092171,54.987658]},"properties":{"siteId":"11923","name":"Red Burn Tributary U/S Bridge at The Riding","waterbody":"GB103023075730","region":"Yorkshire and North East","area":"North East","totalSurveys":1,"speciesCount":1,"firstSurvey":"06/08/2002","lastSurvey":"06/08/2002"}},{"type":"Feature","geometry":{"type":"Point","coordinates":[-2.054413,54.847459]},"properties":{"siteId":"13998","name":"River Derwent at Blanchland","waterbody":"GB103023074770","region":"Yorkshire and North East","area":"North East","totalSurveys":3,"speciesCount":4,"firstSurvey":"27/09/2004","lastSurvey":"13/09/2009"}},{"type":"Feature","geometry":{"type":"Point","coordinates":[-2.027291,54.857317]},"properties":{"siteId":"14000","name":"River Derwent at Ruffside Picnic Site","waterbody":"GB103023074770","region":"Yorkshire and North East","area":"North East","totalSurveys":8,"speciesCount":6,"firstSurvey":"27/09/2004","lastSurvey":"11/07/2025"}},{"type":"Feature","geometry":{"type":"Point","coordinates":[-2.073379,54.966104]},"properties":{"siteId":"18577","name":"River Tyne at Corbridge (c)","waterbody":"GB103023075801","region":"Yorkshire and North East","area":"North East","totalSurveys":1,"speciesCount":9,"firstSurvey":"02/06/2005","lastSurvey":"02/06/2005"}},{"type":"Feature","geometry":{"type":"Point","coordinates":[-2.012466,54.96972]},"properties":{"siteId":"11250","name":"River Tyne At Corbridge","waterbody":"GB103023075801","region":"Yorkshire and North East","area":"North East","totalSurveys":7,"speciesCount":13,"firstSurvey":"04/06/2003","lastSurvey":"08/08/2025"}},{"type":"Feature","geometry":{"type":"Point","coordinates":[-2.092145,54.975976]},"properties":{"siteId":"16950","name":"River Tyne at Hexham Bridge","waterbody":"GB103023075801","region":"Yorkshire and North East","area":"North East","totalSurveys":1,"speciesCount":5,"firstSurvey":"03/08/2005","lastSurvey":"03/08/2005"}},{"type":"Feature","geometry":{"type":"Point","coordinates":[-2.095269,54.975973]},"properties":{"siteId":"11248","name":"River Tyne At Hexham Country Park","waterbody":"GB103023075801","region":"Yorkshire and North East","area":"North East","totalSurveys":1,"speciesCount":6,"firstSurvey":"08/07/2003","lastSurvey":"08/07/2003"}},{"type":"Feature","geometry":{"type":"Point","coordinates":[-2.081205,54.974186]},"properties":{"siteId":"18541","name":"River Tyne d/s of Hexham (c)","waterbody":"GB103023075801","region":"Yorkshire and North East","area":"North East","totalSurveys":1,"speciesCount":4,"firstSurvey":"14/06/2005","lastSurvey":"14/06/2005"}},{"type":"Feature","geometry":{"type":"Point","coordinates":[-2.454527,54.831378]},"properties":{"siteId":"10757","name":"Ayle Burn at Randelholme","waterbody":"GB103023075530","region":"Yorkshire and North East","area":"North East","totalSurveys":2,"speciesCount":1,"firstSurvey":"01/10/2003","lastSurvey":"08/09/2005"}},{"type":"Feature","geometry":{"type":"Point","coordinates":[-2.475089,54.85905]},"properties":{"siteId":"13983","name":"Barhaugh Burn Burnfoot","waterbody":"GB103023075530","region":"Yorkshire and North East","area":"North East","totalSurveys":1,"speciesCount":1,"firstSurvey":"13/10/2004","lastSurvey":"13/10/2004"}},{"type":"Feature","geometry":{"type":"Point","coordinates":[-2.46329,54.781021]},"properties":{"siteId":"16941","name":"Black Burn 1","waterbody":"GB103023075410","region":"Yorkshire and North East","area":"North East","totalSurveys":7,"speciesCount":5,"firstSurvey":"11/10/1996","lastSurvey":"25/07/2022"}},{"type":"Feature","geometry":{"type":"Point","coordinates":[-2.456346,54.785684]},"properties":{"siteId":"13984","name":"Black Burn 2","waterbody":"GB103023075410","region":"Yorkshire and North East","area":"North East","totalSurveys":1,"speciesCount":2,"firstSurvey":"11/10/2004","lastSurvey":"11/10/2004"}},{"type":"Feature","geometry":{"type":"Point","coordinates":[-2.472577,54.77739]},"properties":{"siteId":"16942","name":"Black Burn 3","waterbody":"GB103023075410","region":"Yorkshire and North East","area":"North East","totalSurveys":1,"speciesCount":2,"firstSurvey":"06/09/2005","lastSurvey":"06/09/2005"}},{"type":"Feature","geometry":{"type":"Point","coordinates":[-2.487573,54.771687]},"properties":{"siteId":"77163","name":"Black Burn 4","waterbody":null,"region":"Yorkshire and North East","area":"North East","totalSurveys":1,"speciesCount":2,"firstSurvey":"23/09/2022","lastSurvey":"23/09/2022"}},{"type":"Feature","geometry":{"type":"Point","coordinates":[-2.511818,54.930001]},"properties":{"siteId":"16882","name":"Black Burn at Lambley","waterbody":"GB103023075530","region":"Yorkshire and North East","area":"North East","totalSurveys":4,"speciesCount":5,"firstSurvey":"05/10/2005","lastSurvey":"13/07/2022"}},{"type":"Feature","geometry":{"type":"Point","coordinates":[-2.567892,54.922563]},"properties":{"siteId":"16886","name":"Black Burn at Midgeholme","waterbody":"GB103023075460","region":"Yorkshire and North East","area":"North East","totalSurveys":2,"speciesCount":2,"firstSurvey":"03/10/2005","lastSurvey":"23/08/2011"}},{"type":"Feature","geometry":{"type":"Point","coordinates":[-2.355953,54.979416]},"properties":{"siteId":"75143","name":"Chainley burn at Burnside","waterbody":null,"region":"Yorkshire and North East","area":"North East","totalSurveys":2,"speciesCount":3,"firstSurvey":"14/07/2022","lastSurvey":"24/08/2023"}},{"type":"Feature","geometry":{"type":"Point","coordinates":[-2.395987,54.765452]},"properties":{"siteId":"79084","name":"CPUE South Tyne Timed Survey Site 1","waterbody":null,"region":"Yorkshire and North East","area":"North East","totalSurveys":2,"speciesCount":3,"firstSurvey":"08/08/2023","lastSurvey":"05/08/2024"}},{"type":"Feature","geometry":{"type":"Point","coordinates":[-2.48639,54.857028]},"properties":{"siteId":"79093","name":"CPUE South Tyne Timed Survey Site 10","waterbody":null,"region":"Yorkshire and North East","area":"North East","totalSurveys":2,"speciesCount":3,"firstSurvey":"09/08/2023","lastSurvey":"08/08/2024"}},{"type":"Feature","geometry":{"type":"Point","coordinates":[-2.498079,54.861267]},"properties":{"siteId":"79094","name":"CPUE South Tyne Timed Survey Site 11","waterbody":null,"region":"Yorkshire and North East","area":"North East","totalSurveys":2,"speciesCount":3,"firstSurvey":"09/08/2023","lastSurvey":"07/08/2024"}},{"type":"Feature","geometry":{"type":"Point","coordinates":[-2.502128,54.871225]},"properties":{"siteId":"79095","name":"CPUE South Tyne Timed Survey Site 12","waterbody":null,"region":"Yorkshire and North East","area":"North East","totalSurveys":2,"speciesCount":3,"firstSurvey":"09/08/2023","lastSurvey":"07/08/2024"}},{"type":"Feature","geometry":{"type":"Point","coordinates":[-2.497445,54.890799]},"properties":{"siteId":"79096","name":"CPUE South Tyne Timed Survey Site 13","waterbody":null,"region":"Yorkshire and North East","area":"North East","totalSurveys":2,"speciesCount":3,"firstSurvey":"09/08/2023","lastSurvey":"07/08/2024"}},{"type":"Feature","geometry":{"type":"Point","coordinates":[-2.500825,54.903097]},"properties":{"siteId":"79097","name":"CPUE South Tyne Timed Survey Site 14","waterbody":null,"region":"Yorkshire and North East","area":"North East","totalSurveys":2,"speciesCount":3,"firstSurvey":"09/08/2023","lastSurvey":"07/08/2024"}},{"type":"Feature","geometry":{"type":"Point","coordinates":[-2.506533,54.919276]},"properties":{"siteId":"79098","name":"CPUE South Tyne Timed Survey Site 15","waterbody":null,"region":"Yorkshire and North East","area":"North East","totalSurveys":2,"speciesCount":3,"firstSurvey":"23/08/2023","lastSurvey":"08/08/2024"}},{"type":"Feature","geometry":{"type":"Point","coordinates":[-2.507415,54.931053]},"properties":{"siteId":"79099","name":"CPUE South Tyne Timed Survey Site 16","waterbody":null,"region":"Yorkshire and North East","area":"North East","totalSurveys":2,"speciesCount":3,"firstSurvey":"23/08/2023","lastSurvey":"07/08/2024"}},{"type":"Feature","geometry":{"type":"Point","coordinates":[-2.511589,54.946402]},"properties":{"siteId":"79100","name":"CPUE South Tyne Timed Survey Site 17","waterbody":null,"region":"Yorkshire and North East","area":"North East","totalSurveys":2,"speciesCount":3,"firstSurvey":"23/08/2023","lastSurvey":"08/08/2024"}},{"type":"Feature","geometry":{"type":"Point","coordinates":[-2.50085,54.951551]},"properties":{"siteId":"79101","name":"CPUE South Tyne Timed Survey Site 18","waterbody":null,"region":"Yorkshire and North East","area":"North East","totalSurveys":2,"speciesCount":3,"firstSurvey":"23/08/2023","lastSurvey":"08/08/2024"}},{"type":"Feature","geometry":{"type":"Point","coordinates":[-2.472461,54.960561]},"properties":{"siteId":"79102","name":"CPUE South Tyne Timed Survey Site 19","waterbody":null,"region":"Yorkshire and North East","area":"North East","totalSurveys":2,"speciesCount":4,"firstSurvey":"23/08/2023","lastSurvey":"08/08/2024"}},{"type":"Feature","geometry":{"type":"Point","coordinates":[-2.40552,54.770695]},"properties":{"siteId":"79085","name":"CPUE South Tyne Timed Survey Site 2","waterbody":null,"region":"Yorkshire and North East","area":"North East","totalSurveys":2,"speciesCount":3,"firstSurvey":"08/08/2023","lastSurvey":"05/08/2024"}},{"type":"Feature","geometry":{"type":"Point","coordinates":[-2.462467,54.96742]},"properties":{"siteId":"79103","name":"CPUE South Tyne Timed Survey Site 20","waterbody":null,"region":"Yorkshire and North East","area":"North East","totalSurveys":2,"speciesCount":2,"firstSurvey":"23/08/2023","lastSurvey":"07/08/2024"}},{"type":"Feature","geometry":{"type":"Point","coordinates":[-2.431898,54.780858]},"properties":{"siteId":"79086","name":"CPUE South Tyne Timed Survey Site 3","waterbody":null,"region":"Yorkshire and North East","area":"North East","totalSurveys":2,"speciesCount":3,"firstSurvey":"08/08/2023","lastSurvey":"05/08/2024"}},{"type":"Feature","geometry":{"type":"Point","coordinates":[-2.446112,54.7868]},"properties":{"siteId":"79087","name":"CPUE South Tyne Timed Survey Site 4","waterbody":null,"region":"Yorkshire and North East","area":"North East","totalSurveys":2,"speciesCount":2,"firstSurvey":"08/08/2023","lastSurvey":"05/08/2024"}},{"type":"Feature","geometry":{"type":"Point","coordinates":[-2.443852,54.803371]},"properties":{"siteId":"79088","name":"CPUE South Tyne Timed Survey Site 5","waterbody":null,"region":"Yorkshire and North East","area":"North East","totalSurveys":2,"speciesCount":2,"firstSurvey":"08/08/2023","lastSurvey":"05/08/2024"}},{"type":"Feature","geometry":{"type":"Point","coordinates":[-2.443526,54.816205]},"properties":{"siteId":"79089","name":"CPUE South Tyne Timed Survey Site 6","waterbody":null,"region":"Yorkshire and North East","area":"North East","totalSurveys":2,"speciesCount":2,"firstSurvey":"08/08/2023","lastSurvey":"07/08/2024"}},{"type":"Feature","geometry":{"type":"Point","coordinates":[-2.451175,54.828156]},"properties":{"siteId":"79090","name":"CPUE South Tyne Timed Survey Site 7","waterbody":null,"region":"Yorkshire and North East","area":"North East","totalSurveys":2,"speciesCount":3,"firstSurvey":"09/08/2023","lastSurvey":"07/08/2024"}},{"type":"Feature","geometry":{"type":"Point","coordinates":[-2.463728,54.835486]},"properties":{"siteId":"79091","name":"CPUE South Tyne Timed Survey Site 8","waterbody":null,"region":"Yorkshire and North East","area":"North East","totalSurveys":2,"speciesCount":3,"firstSurvey":"09/08/2023","lastSurvey":"07/08/2024"}},{"type":"Feature","geometry":{"type":"Point","coordinates":[-2.472156,54.841313]},"properties":{"siteId":"79092","name":"CPUE South Tyne Timed Survey Site 9","waterbody":null,"region":"Yorkshire and North East","area":"North East","totalSurveys":2,"speciesCount":3,"firstSurvey":"09/08/2023","lastSurvey":"07/08/2024"}},{"type":"Feature","geometry":{"type":"Point","coordinates":[-2.160914,54.983093]},"properties":{"siteId":"16924","name":"Darden Burn 1","waterbody":"GB103023075520","region":"Yorkshire and North East","area":"North East","totalSurveys":5,"speciesCount":1,"firstSurvey":"12/09/2005","lastSurvey":"07/09/2023"}},{"type":"Feature","geometry":{"type":"Point","coordinates":[-2.176476,54.968693]},"properties":{"siteId":"16922","name":"Darden Burn 2","waterbody":"GB103023075520","region":"Yorkshire and North East","area":"North East","totalSurveys":1,"speciesCount":0,"firstSurvey":"12/09/2005","lastSurvey":"12/09/2005"}},{"type":"Feature","geometry":{"type":"Point","coordinates":[-2.391617,54.814991]},"properties":{"siteId":"69879","name":"Foreshield bridge","waterbody":null,"region":"Yorkshire and North East","area":"North East","totalSurveys":3,"speciesCount":1,"firstSurvey":"10/08/2017","lastSurvey":"02/09/2019"}},{"type":"Feature","geometry":{"type":"Point","coordinates":[-2.467868,54.827374]},"properties":{"siteId":"38488","name":"Gilderdale burn 2","waterbody":"GB103023075430","region":"Yorkshire and North East","area":"North East","totalSurveys":1,"speciesCount":3,"firstSurvey":"27/07/2012","lastSurvey":"27/07/2012"}},{"type":"Feature","geometry":{"type":"Point","coordinates":[-2.46229,54.829552]},"properties":{"siteId":"16937","name":"Gilderdale Burn","waterbody":"GB103023075430","region":"Yorkshire and North East","area":"North East","totalSurveys":1,"speciesCount":1,"firstSurvey":"21/09/2005","lastSurvey":"21/09/2005"}},{"type":"Feature","geometry":{"type":"Point","coordinates":[-2.502119,54.903082]},"properties":{"siteId":"16936","name":"Glendue Burn","waterbody":"GB103023075530","region":"Yorkshire and North East","area":"North East","totalSurveys":4,"speciesCount":4,"firstSurvey":"20/09/2005","lastSurvey":"13/07/2022"}},{"type":"Feature","geometry":{"type":"Point","coordinates":[-2.366654,54.799109]},"properties":{"siteId":"69878","name":"Haggsbank","waterbody":null,"region":"Yorkshire and North East","area":"North East","totalSurveys":3,"speciesCount":1,"firstSurvey":"10/08/2017","lastSurvey":"02/09/2019"}},{"type":"Feature","geometry":{"type":"Point","coordinates":[-2.589787,54.926053]},"properties":{"siteId":"16894","name":"Haining Burn","waterbody":"GB103023075470","region":"Yorkshire and North East","area":"North East","totalSurveys":3,"speciesCount":7,"firstSurvey":"03/10/2005","lastSurvey":"27/07/2012"}},{"type":"Feature","geometry":{"type":"Point","coordinates":[-2.450093,54.992251]},"properties":{"siteId":"16926","name":"Haltwhistle Burn at Cawfields Picnic Site","waterbody":"GB103023075570","region":"Yorkshire and North East","area":"North East","totalSurveys":4,"speciesCount":6,"firstSurvey":"12/09/2005","lastSurvey":"14/07/2022"}},{"type":"Feature","geometry":{"type":"Point","coordinates":[-2.44848,54.987764]},"properties":{"siteId":"16934","name":"Haltwhistle Burn at Roman Fort","waterbody":"GB103023075570","region":"Yorkshire and North East","area":"North East","totalSurveys":3,"speciesCount":6,"firstSurvey":"30/09/2005","lastSurvey":"24/08/2023"}},{"type":"Feature","geometry":{"type":"Point","coordinates":[-2.543051,54.931663]},"properties":{"siteId":"16891","name":"Hartley Burn at Byers Hall","waterbody":"GB103023075480","region":"Yorkshire and North East","area":"North East","totalSurveys":2,"speciesCount":4,"firstSurvey":"11/10/1996","lastSurvey":"03/10/2005"}},{"type":"Feature","geometry":{"type":"Point","coordinates":[-2.52592,54.934434]},"properties":{"siteId":"16892","name":"Hartly Burn","waterbody":"GB103023075480","region":"Yorkshire and North East","area":"North East","totalSurveys":4,"speciesCount":7,"firstSurvey":"03/10/2005","lastSurvey":"13/07/2022"}},{"type":"Feature","geometry":{"type":"Point","coordinates":[-2.295234,54.974753]},"properties":{"siteId":"13989","name":"Honeycrook Burn 1","waterbody":"GB103023075550","region":"Yorkshire and North East","area":"North East","totalSurveys":4,"speciesCount":5,"firstSurvey":"23/08/2004","lastSurvey":"15/07/2022"}},{"type":"Feature","geometry":{"type":"Point","coordinates":[-2.268796,54.992787]},"properties":{"siteId":"16935","name":"Honeycrook Burn 2","waterbody":"GB103023075550","region":"Yorkshire and North East","area":"North East","totalSurveys":4,"speciesCount":1,"firstSurvey":"20/09/2005","lastSurvey":"14/07/2022"}},{"type":"Feature","geometry":{"type":"Point","coordinates":[-2.524319,54.937335]},"properties":{"siteId":"42462","name":"Kellah Burn at Road Bridge","waterbody":"GB103023075510","region":"Yorkshire and North East","area":"North East","totalSurveys":1,"speciesCount":3,"firstSurvey":"28/07/2012","lastSurvey":"28/07/2012"}},{"type":"Feature","geometry":{"type":"Point","coordinates":[-2.541888,54.943845]},"properties":{"siteId":"13979","name":"Kellah Burn","waterbody":"GB103023075510","region":"Yorkshire and North East","area":"North East","totalSurveys":1,"speciesCount":1,"firstSurvey":"15/10/2004","lastSurvey":"15/10/2004"}},{"type":"Feature","geometry":{"type":"Point","coordinates":[-2.321683,54.953326]},"properties":{"siteId":"13985","name":"Kingswood Burn 2","waterbody":"GB103023074720","region":"Yorkshire and North East","area":"North East","totalSurveys":1,"speciesCount":1,"firstSurvey":"12/10/2004","lastSurvey":"12/10/2004"}},{"type":"Feature","geometry":{"type":"Point","coordinates":[-2.506403,54.871612]},"properties":{"siteId":"16920","name":"Knar Burn at Burnfoot","waterbody":"GB103023075440","region":"Yorkshire and North East","area":"North East","totalSurveys":4,"speciesCount":4,"firstSurvey":"08/09/2005","lastSurvey":"12/07/2022"}},{"type":"Feature","geometry":{"type":"Point","coordinates":[-2.528064,54.859837]},"properties":{"siteId":"16885","name":"Knar Burn at Knar Farm","waterbody":"GB103023075440","region":"Yorkshire and North East","area":"North East","totalSurveys":5,"speciesCount":5,"firstSurvey":"11/10/1996","lastSurvey":"12/07/2022"}},{"type":"Feature","geometry":{"type":"Point","coordinates":[-2.257631,54.957765]},"properties":{"siteId":"16896","name":"Langley Burn at Langley Castle","waterbody":"GB103023075710","region":"Yorkshire and North East","area":"North East","totalSurveys":1,"speciesCount":0,"firstSurvey":"29/09/2005","lastSurvey":"29/09/2005"}},{"type":"Feature","geometry":{"type":"Point","coordinates":[-2.238961,54.969485]},"properties":{"siteId":"16895","name":"Langley Burn","waterbody":"GB103023075710","region":"Yorkshire and North East","area":"North East","totalSurveys":4,"speciesCount":1,"firstSurvey":"28/09/2005","lastSurvey":"15/07/2022"}},{"type":"Feature","geometry":{"type":"Point","coordinates":[-2.339655,54.784809]},"properties":{"siteId":"69876","name":"Nenthead mining museum","waterbody":null,"region":"Yorkshire and North East","area":"North East","totalSurveys":3,"speciesCount":1,"firstSurvey":"10/08/2017","lastSurvey":"02/09/2019"}},{"type":"Feature","geometry":{"type":"Point","coordinates":[-2.362791,54.798536]},"properties":{"siteId":"69877","name":"Nentsberry bridge","waterbody":null,"region":"Yorkshire and North East","area":"North East","totalSurveys":3,"speciesCount":1,"firstSurvey":"10/08/2017","lastSurvey":"02/09/2019"}},{"type":"Feature","geometry":{"type":"Point","coordinates":[-2.457811,54.928869]},"properties":{"siteId":"29853","name":"Park Burn at Hargill House","waterbody":"GB103023075500","region":"Yorkshire and North East","area":"North East","totalSurveys":3,"speciesCount":3,"firstSurvey":"16/07/2008","lastSurvey":"25/10/2018"}},{"type":"Feature","geometry":{"type":"Point","coordinates":[-2.461904,54.931998]},"properties":{"siteId":"29851","name":"Park Burn","waterbody":"GB103023075500","region":"Yorkshire and North East","area":"North East","totalSurveys":1,"speciesCount":1,"firstSurvey":"16/07/2008","lastSurvey":"16/07/2008"}},{"type":"Feature","geometry":{"type":"Point","coordinates":[-2.307411,54.816168]},"properties":{"siteId":"69874","name":"Barney crag downstream","waterbody":null,"region":"Yorkshire and North East","area":"North East","totalSurveys":3,"speciesCount":1,"firstSurvey":"11/08/2017","lastSurvey":"08/09/2019"}},{"type":"Feature","geometry":{"type":"Point","coordinates":[-2.307384,54.814658]},"properties":{"siteId":"69873","name":"Barney crag upstream","waterbody":null,"region":"Yorkshire and North East","area":"North East","totalSurveys":3,"speciesCount":1,"firstSurvey":"11/08/2017","lastSurvey":"03/09/2019"}},{"type":"Feature","geometry":{"type":"Point","coordinates":[-2.358628,54.900895]},"properties":{"siteId":"16869","name":"Blaeberry Burn 2","waterbody":"GB103023074700","region":"Yorkshire and North East","area":"North East","totalSurveys":1,"speciesCount":1,"firstSurvey":"31/08/2005","lastSurvey":"31/08/2005"}},{"type":"Feature","geometry":{"type":"Point","coordinates":[-2.345149,54.905742]},"properties":{"siteId":"13986","name":"Blaeberry Burn","waterbody":"GB103023074700","region":"Yorkshire and North East","area":"North East","totalSurveys":4,"speciesCount":2,"firstSurvey":"12/10/2004","lastSurvey":"01/09/2023"}},{"type":"Feature","geometry":{"type":"Point","coordinates":[-2.231844,54.818529]},"properties":{"siteId":"16867","name":"Byerhope Burn","waterbody":"GB103023074710","region":"Yorkshire and North East","area":"North East","totalSurveys":1,"speciesCount":1,"firstSurvey":"31/08/2005","lastSurvey":"31/08/2005"}},{"type":"Feature","geometry":{"type":"Point","coordinates":[-2.35232,54.892826]},"properties":{"siteId":"16871","name":"Carrs Burn","waterbody":"GB103023074690","region":"Yorkshire and North East","area":"North East","totalSurveys":6,"speciesCount":3,"firstSurvey":"21/09/2005","lastSurvey":"01/09/2023"}},{"type":"Feature","geometry":{"type":"Point","coordinates":[-2.348738,54.920397]},"properties":{"siteId":"13987","name":"Church Burn 2","waterbody":"GB103023074700","region":"Yorkshire and North East","area":"North East","totalSurveys":3,"speciesCount":3,"firstSurvey":"12/10/2004","lastSurvey":"23/07/2014"}},{"type":"Feature","geometry":{"type":"Point","coordinates":[-2.326034,54.919858]},"properties":{"siteId":"16873","name":"Church Burn","waterbody":"GB103023074700","region":"Yorkshire and North East","area":"North East","totalSurveys":1,"speciesCount":2,"firstSurvey":"07/09/2005","lastSurvey":"07/09/2005"}},{"type":"Feature","geometry":{"type":"Point","coordinates":[-2.233395,54.817627]},"properties":{"siteId":"18672","name":"East Allen at Peasmeadows","waterbody":"GB103023074710","region":"Yorkshire and North East","area":"North East","totalSurveys":8,"speciesCount":4,"firstSurvey":"19/07/1996","lastSurvey":"29/08/2023"}},{"type":"Feature","geometry":{"type":"Point","coordinates":[-2.351175,54.940457]},"properties":{"siteId":"16861","name":"Kingswood Burn","waterbody":"GB103023074720","region":"Yorkshire and North East","area":"North East","totalSurveys":4,"speciesCount":1,"firstSurvey":"26/09/2005","lastSurvey":"01/09/2023"}},{"type":"Feature","geometry":{"type":"Point","coordinates":[-2.255391,54.850832]},"properties":{"siteId":"16872","name":"Knockshield Burn","waterbody":"GB103023074710","region":"Yorkshire and North East","area":"North East","totalSurveys":3,"speciesCount":2,"firstSurvey":"09/09/2005","lastSurvey":"29/08/2023"}},{"type":"Feature","geometry":{"type":"Point","coordinates":[-2.241159,54.814916]},"properties":{"siteId":"16880","name":"Middlehope Burn Slaghill","waterbody":"GB103023074710","region":"Yorkshire and North East","area":"North East","totalSurveys":1,"speciesCount":1,"firstSurvey":"11/08/2005","lastSurvey":"11/08/2005"}},{"type":"Feature","geometry":{"type":"Point","coordinates":[-2.355034,54.846987]},"properties":{"siteId":"24744","name":"Mohope Burn 2","waterbody":"GB103023074670","region":"Yorkshire and North East","area":"North East","totalSurveys":1,"speciesCount":1,"firstSurvey":"08/10/2006","lastSurvey":"08/10/2006"}},{"type":"Feature","geometry":{"type":"Point","coordinates":[-2.341384,54.860704]},"properties":{"siteId":"73303","name":"Mohope Burn New Site","waterbody":null,"region":"Yorkshire and North East","area":"North East","totalSurveys":1,"speciesCount":2,"firstSurvey":"03/09/2019","lastSurvey":"03/09/2019"}},{"type":"Feature","geometry":{"type":"Point","coordinates":[-2.342698,54.861401]},"properties":{"siteId":"16874","name":"Mohope Burn","waterbody":"GB103023074670","region":"Yorkshire and North East","area":"North East","totalSurveys":4,"speciesCount":1,"firstSurvey":"07/09/2005","lastSurvey":"09/09/2023"}},{"type":"Feature","geometry":{"type":"Point","coordinates":[-2.286955,54.909173]},"properties":{"siteId":"16859","name":"Oakeydene Burn","waterbody":"GB103023074710","region":"Yorkshire and North East","area":"North East","totalSurveys":4,"speciesCount":2,"firstSurvey":"26/09/2005","lastSurvey":"30/08/2023"}},{"type":"Feature","geometry":{"type":"Point","coordinates":[-2.321626,54.954018]},"properties":{"siteId":"16875","name":"River Allen at Plankey Mill","waterbody":"GB103023074720","region":"Yorkshire and North East","area":"North East","totalSurveys":2,"speciesCount":5,"firstSurvey":"27/07/1995","lastSurvey":"12/09/2005"}},{"type":"Feature","geometry":{"type":"Point","coordinates":[-2.315514,54.971108]},"properties":{"siteId":"16868","name":"River Allen at Ridley Hall","waterbody":"GB103023074720","region":"Yorkshire and North East","area":"North East","totalSurveys":11,"speciesCount":7,"firstSurvey":"31/08/2005","lastSurvey":"25/07/2024"}},{"type":"Feature","geometry":{"type":"Point","coordinates":[-2.222393,54.797877]},"properties":{"siteId":"16858","name":"River East Allen at Allenheads 1","waterbody":"GB103023074710","region":"Yorkshire and North East","area":"North East","totalSurveys":1,"speciesCount":1,"firstSurvey":"26/09/2005","lastSurvey":"26/09/2005"}},{"type":"Feature","geometry":{"type":"Point","coordinates":[-2.225549,54.805959]},"properties":{"siteId":"18676","name":"River East Allen at Allenheads 2","waterbody":"GB103023074710","region":"Yorkshire and North East","area":"North East","totalSurveys":1,"speciesCount":1,"firstSurvey":"19/07/1996","lastSurvey":"19/07/1996"}},{"type":"Feature","geometry":{"type":"Point","coordinates":[-2.223988,54.805064]},"properties":{"siteId":"18677","name":"River East Allen at Allenheads 3","waterbody":"GB103023074710","region":"Yorkshire and North East","area":"North East","totalSurveys":1,"speciesCount":1,"firstSurvey":"19/07/1997","lastSurvey":"19/07/1997"}},{"type":"Feature","geometry":{"type":"Point","coordinates":[-2.220867,54.803272]},"properties":{"siteId":"18678","name":"River East Allen at Allenheads 4","waterbody":"GB103023074710","region":"Yorkshire and North East","area":"North East","totalSurveys":1,"speciesCount":1,"firstSurvey":"19/07/1996","lastSurvey":"19/07/1996"}},{"type":"Feature","geometry":{"type":"Point","coordinates":[-2.268208,54.904723]},"properties":{"siteId":"16865","name":"River east Allen at Catton Bridge","waterbody":"GB103023074710","region":"Yorkshire and North East","area":"North East","totalSurveys":14,"speciesCount":6,"firstSurvey":"04/09/1995","lastSurvey":"03/07/2025"}},{"type":"Feature","geometry":{"type":"Point","coordinates":[-2.24457,54.864334]},"properties":{"siteId":"16864","name":"River East Allen at Sinderhope","waterbody":"GB103023074710","region":"Yorkshire and North East","area":"North East","totalSurveys":3,"speciesCount":3,"firstSurvey":"30/08/2005","lastSurvey":"24/07/2014"}},{"type":"Feature","geometry":{"type":"Point","coordinates":[-2.242872,54.840973]},"properties":{"siteId":"16862","name":"River East Allen at Tedham","waterbody":"GB103023074710","region":"Yorkshire and North East","area":"North East","totalSurveys":1,"speciesCount":3,"firstSurvey":"30/08/2005","lastSurvey":"30/08/2005"}},{"type":"Feature","geometry":{"type":"Point","coordinates":[-2.308866,54.919004]},"properties":{"siteId":"16866","name":"River east Allen at Wide Eals","waterbody":"GB103023074710","region":"Yorkshire and North East","area":"North East","totalSurveys":1,"speciesCount":3,"firstSurvey":"30/08/2005","lastSurvey":"30/08/2005"}},{"type":"Feature","geometry":{"type":"Point","coordinates":[-2.31132,54.832729]},"properties":{"siteId":"16877","name":"River West Allen at Black Cleugh","waterbody":"GB103023074680","region":"Yorkshire and North East","area":"North East","totalSurveys":2,"speciesCount":1,"firstSurvey":"08/08/2005","lastSurvey":"05/09/2011"}},{"type":"Feature","geometry":{"type":"Point","coordinates":[-2.311078,54.801277]},"properties":{"siteId":"16878","name":"River West Allen at Coal Cleugh","waterbody":"GB103023074680","region":"Yorkshire and North East","area":"North East","totalSurveys":1,"speciesCount":0,"firstSurvey":"08/08/2005","lastSurvey":"08/08/2005"}},{"type":"Feature","geometry":{"type":"Point","coordinates":[-2.341163,54.864101]},"properties":{"siteId":"16876","name":"River West Allen at Corryhill","waterbody":"GB103023074700","region":"Yorkshire and North East","area":"North East","totalSurveys":5,"speciesCount":2,"firstSurvey":"05/09/1995","lastSurvey":"01/09/2023"}},{"type":"Feature","geometry":{"type":"Point","coordinates":[-2.33984,54.891963]},"properties":{"siteId":"16857","name":"River West Allen at Parmentley Hall","waterbody":"GB103023074700","region":"Yorkshire and North East","area":"North East","totalSurveys":1,"speciesCount":1,"firstSurvey":"08/08/2005","lastSurvey":"08/08/2005"}},{"type":"Feature","geometry":{"type":"Point","coordinates":[-2.238217,54.843678]},"properties":{"siteId":"16860","name":"Sipton Burn","waterbody":"GB103023074710","region":"Yorkshire and North East","area":"North East","totalSurveys":1,"speciesCount":1,"firstSurvey":"26/09/2005","lastSurvey":"26/09/2005"}},{"type":"Feature","geometry":{"type":"Point","coordinates":[-2.239721,54.834689]},"properties":{"siteId":"16870","name":"Swinhope Burn at Burnmouth","waterbody":"GB103023074710","region":"Yorkshire and North East","area":"North East","totalSurveys":4,"speciesCount":2,"firstSurvey":"21/09/2005","lastSurvey":"29/08/2023"}},{"type":"Feature","geometry":{"type":"Point","coordinates":[-2.342851,54.879373]},"properties":{"siteId":"10751","name":"West Allen at ninebanks","waterbody":"GB103023074700","region":"Yorkshire and North East","area":"North East","totalSurveys":11,"speciesCount":5,"firstSurvey":"06/08/2002","lastSurvey":"03/09/2019"}},{"type":"Feature","geometry":{"type":"Point","coordinates":[-2.344294,54.86589]},"properties":{"siteId":"16879","name":"Whitewalls Burn","waterbody":"GB103023074700","region":"Yorkshire and North East","area":"North East","totalSurveys":1,"speciesCount":1,"firstSurvey":"11/08/2005","lastSurvey":"11/08/2005"}},{"type":"Feature","geometry":{"type":"Point","coordinates":[-2.435824,54.814822]},"properties":{"siteId":"29854","name":"River Nent at Banks Farm","waterbody":"GB103023075420","region":"Yorkshire and North East","area":"North East","totalSurveys":1,"speciesCount":1,"firstSurvey":"29/07/2008","lastSurvey":"29/07/2008"}},{"type":"Feature","geometry":{"type":"Point","coordinates":[-2.381169,54.810962]},"properties":{"siteId":"16932","name":"River Nent at Lovelady Shield","waterbody":"GB103023075420","region":"Yorkshire and North East","area":"North East","totalSurveys":5,"speciesCount":1,"firstSurvey":"21/09/2005","lastSurvey":"10/08/2023"}},{"type":"Feature","geometry":{"type":"Point","coordinates":[-2.343622,54.786811]},"properties":{"siteId":"16933","name":"River Nent at Nenthead","waterbody":"GB103023075420","region":"Yorkshire and North East","area":"North East","totalSurveys":1,"speciesCount":1,"firstSurvey":"21/09/2005","lastSurvey":"21/09/2005"}},{"type":"Feature","geometry":{"type":"Point","coordinates":[-2.495727,54.890528]},"properties":{"siteId":"16921","name":"Snope Burn","waterbody":"GB103023075530","region":"Yorkshire and North East","area":"North East","totalSurveys":4,"speciesCount":4,"firstSurvey":"08/09/2005","lastSurvey":"12/07/2022"}},{"type":"Feature","geometry":{"type":"Point","coordinates":[-2.441887,54.814351]},"properties":{"siteId":"16911","name":"South Tyne at Alston","waterbody":"GB103023075530","region":"Yorkshire and North East","area":"North East","totalSurveys":4,"speciesCount":5,"firstSurvey":"02/08/2005","lastSurvey":"10/08/2023"}},{"type":"Feature","geometry":{"type":"Point","coordinates":[-2.326471,54.973775]},"properties":{"siteId":"16899","name":"South Tyne at Beltingham","waterbody":"GB103023075530","region":"Yorkshire and North East","area":"North East","totalSurveys":3,"speciesCount":4,"firstSurvey":"26/09/2005","lastSurvey":"05/09/2022"}},{"type":"Feature","geometry":{"type":"Point","coordinates":[-2.443134,54.810275]},"properties":{"siteId":"80663","name":"South Tyne at D/S Alston Bridge","waterbody":null,"region":"Yorkshire and North East","area":"North East","totalSurveys":2,"speciesCount":5,"firstSurvey":"13/08/2024","lastSurvey":"09/07/2025"}},{"type":"Feature","geometry":{"type":"Point","coordinates":[-2.503656,54.901279]},"properties":{"siteId":"8804","name":"South Tyne at Eals","waterbody":"GB103023075530","region":"Yorkshire and North East","area":"North East","totalSurveys":6,"speciesCount":5,"firstSurvey":"05/09/1996","lastSurvey":"19/07/2006"}},{"type":"Feature","geometry":{"type":"Point","coordinates":[-2.512012,54.945277]},"properties":{"siteId":"16912","name":"South Tyne at Featherstone Bridge","waterbody":"GB103023075530","region":"Yorkshire and North East","area":"North East","totalSurveys":12,"speciesCount":6,"firstSurvey":"05/09/1996","lastSurvey":"25/08/2023"}},{"type":"Feature","geometry":{"type":"Point","coordinates":[-2.405595,54.764153]},"properties":{"siteId":"10747","name":"South Tyne at Garrigill","waterbody":"GB103023075400","region":"Yorkshire and North East","area":"North East","totalSurveys":10,"speciesCount":6,"firstSurvey":"04/09/1995","lastSurvey":"25/07/2022"}},{"type":"Feature","geometry":{"type":"Point","coordinates":[-2.252872,54.970868]},"properties":{"siteId":"28480","name":"South Tyne at Haydon Bridge Bypass D/S","waterbody":"GB103023075710","region":"Yorkshire and North East","area":"North East","totalSurveys":1,"speciesCount":4,"firstSurvey":"07/09/2007","lastSurvey":"07/09/2007"}},{"type":"Feature","geometry":{"type":"Point","coordinates":[-2.2671,54.970487]},"properties":{"siteId":"28481","name":"South Tyne at Haydon Bridge Bypass U/S","waterbody":"GB103023075710","region":"Yorkshire and North East","area":"North East","totalSurveys":3,"speciesCount":5,"firstSurvey":"07/09/2007","lastSurvey":"30/09/2014"}},{"type":"Feature","geometry":{"type":"Point","coordinates":[-2.260214,54.970789]},"properties":{"siteId":"31708","name":"South Tyne at Haydon Bridge D/S New Bridge","waterbody":"GB103023075710","region":"Yorkshire and North East","area":"North East","totalSurveys":1,"speciesCount":4,"firstSurvey":"25/09/2008","lastSurvey":"25/09/2008"}},{"type":"Feature","geometry":{"type":"Point","coordinates":[-2.240561,54.975772]},"properties":{"siteId":"8802","name":"South Tyne at Haydon Bridge","waterbody":"GB103023075710","region":"Yorkshire and North East","area":"North East","totalSurveys":18,"speciesCount":10,"firstSurvey":"27/07/1995","lastSurvey":"08/07/2025"}},{"type":"Feature","geometry":{"type":"Point","coordinates":[-2.372719,54.738197]},"properties":{"siteId":"16883","name":"South Tyne at Hole House","waterbody":"GB103023075380","region":"Yorkshire and North East","area":"North East","totalSurveys":2,"speciesCount":3,"firstSurvey":"05/10/2005","lastSurvey":"26/07/2011"}},{"type":"Feature","geometry":{"type":"Point","coordinates":[-2.473322,54.841192]},"properties":{"siteId":"8805","name":"South Tyne at Kirkhaugh","waterbody":"GB103023075530","region":"Yorkshire and North East","area":"North East","totalSurveys":20,"speciesCount":9,"firstSurvey":"04/09/1995","lastSurvey":"08/07/2025"}},{"type":"Feature","geometry":{"type":"Point","coordinates":[-2.507125,54.929122]},"properties":{"siteId":"16916","name":"South Tyne at Lambley Farm","waterbody":"GB103023075530","region":"Yorkshire and North East","area":"North East","totalSurveys":1,"speciesCount":4,"firstSurvey":"05/08/2005","lastSurvey":"05/08/2005"}},{"type":"Feature","geometry":{"type":"Point","coordinates":[-2.409192,54.966335]},"properties":{"siteId":"16914","name":"South Tyne at Melkridge","waterbody":"GB103023075530","region":"Yorkshire and North East","area":"North East","totalSurveys":4,"speciesCount":6,"firstSurvey":"05/09/1996","lastSurvey":"01/09/2017"}},{"type":"Feature","geometry":{"type":"Point","coordinates":[-2.504274,54.950701]},"properties":{"siteId":"8803","name":"South Tyne at Parkburn foot","waterbody":"GB103023075530","region":"Yorkshire and North East","area":"North East","totalSurveys":18,"speciesCount":7,"firstSurvey":"19/08/2002","lastSurvey":"29/07/2025"}},{"type":"Feature","geometry":{"type":"Point","coordinates":[-2.501739,54.87253]},"properties":{"siteId":"16915","name":"South Tyne at Parsons Shields","waterbody":"GB103023075530","region":"Yorkshire and North East","area":"North East","totalSurveys":2,"speciesCount":5,"firstSurvey":"04/09/1995","lastSurvey":"03/08/2005"}},{"type":"Feature","geometry":{"type":"Point","coordinates":[-2.44826,54.827807]},"properties":{"siteId":"16918","name":"South Tyne at Randleholme","waterbody":"GB103023075530","region":"Yorkshire and North East","area":"North East","totalSurveys":4,"speciesCount":6,"firstSurvey":"02/08/2005","lastSurvey":"26/07/2022"}},{"type":"Feature","geometry":{"type":"Point","coordinates":[-2.498867,54.892312]},"properties":{"siteId":"16913","name":"South Tyne at Softley","waterbody":"GB103023075530","region":"Yorkshire and North East","area":"North East","totalSurveys":1,"speciesCount":2,"firstSurvey":"02/08/2005","lastSurvey":"02/08/2005"}},{"type":"Feature","geometry":{"type":"Point","coordinates":[-2.497703,54.859894]},"properties":{"siteId":"16909","name":"South Tyne at Williamston","waterbody":"GB103023075530","region":"Yorkshire and North East","area":"North East","totalSurveys":4,"speciesCount":5,"firstSurvey":"02/08/2005","lastSurvey":"12/07/2022"}},{"type":"Feature","geometry":{"type":"Point","coordinates":[-2.153927,54.990659]},"properties":{"siteId":"80763","name":"South Tyne D/S of Fourstones Paper Mill","waterbody":null,"region":"Yorkshire and North East","area":"North East","totalSurveys":2,"speciesCount":8,"firstSurvey":"14/08/2024","lastSurvey":"29/07/2025"}},{"type":"Feature","geometry":{"type":"Point","coordinates":[-2.508108,54.883287]},"properties":{"siteId":"24703","name":"Thinhope Burn 2","waterbody":"GB103023075450","region":"Yorkshire and North East","area":"North East","totalSurveys":1,"speciesCount":2,"firstSurvey":"18/07/2006","lastSurvey":"18/07/2006"}},{"type":"Feature","geometry":{"type":"Point","coordinates":[-2.50037,54.887813]},"properties":{"siteId":"16904","name":"Thinhope Burn","waterbody":"GB103023075450","region":"Yorkshire and North East","area":"North East","totalSurveys":4,"speciesCount":7,"firstSurvey":"19/08/2005","lastSurvey":"12/07/2022"}},{"type":"Feature","geometry":{"type":"Point","coordinates":[-2.490602,54.853704]},"properties":{"siteId":"16906","name":"Thornhope Burn","waterbody":"GB103023075530","region":"Yorkshire and North East","area":"North East","totalSurveys":4,"speciesCount":7,"firstSurvey":"19/08/2005","lastSurvey":"12/07/2022"}},{"type":"Feature","geometry":{"type":"Point","coordinates":[-2.523336,54.975782]},"properties":{"siteId":"16930","name":"Tiplat Burn at College Farm","waterbody":"GB103023075580","region":"Yorkshire and North East","area":"North East","totalSurveys":4,"speciesCount":6,"firstSurvey":"09/08/2005","lastSurvey":"01/08/2022"}},{"type":"Feature","geometry":{"type":"Point","coordinates":[-2.373161,54.954769]},"properties":{"siteId":"16901","name":"Willimontswick Burn at Farrow Shields","waterbody":"GB103023075530","region":"Yorkshire and North East","area":"North East","totalSurveys":2,"speciesCount":1,"firstSurvey":"11/08/2005","lastSurvey":"10/07/2010"}},{"type":"Feature","geometry":{"type":"Point","coordinates":[-2.35754,54.96817]},"properties":{"siteId":"13994","name":"Willimontswick Burn","waterbody":"GB103023075530","region":"Yorkshire and North East","area":"North East","totalSurveys":2,"speciesCount":5,"firstSurvey":"11/10/2004","lastSurvey":"23/07/2014"}},{"type":"Feature","geometry":{"type":"Point","coordinates":[-2.021698,54.711809]},"properties":{"siteId":"10821","name":"Bollihope Burn at Bollihope Common","waterbody":"GB103024077360","region":"Yorkshire and North East","area":"North East","totalSurveys":4,"speciesCount":5,"firstSurvey":"06/10/2003","lastSurvey":"28/07/2025"}},{"type":"Feature","geometry":{"type":"Point","coordinates":[-2.228341,54.749339]},"properties":{"siteId":"24602","name":"Burnhope Burn at Wearhead","waterbody":"GB103024077430","region":"Yorkshire and North East","area":"North East","totalSurveys":2,"speciesCount":2,"firstSurvey":"21/08/2006","lastSurvey":"08/08/2012"}},{"type":"Feature","geometry":{"type":"Point","coordinates":[-2.223991,54.749473]},"properties":{"siteId":"80764","name":"Burnhope burn U/S Wearhead Conf.","waterbody":null,"region":"Yorkshire and North East","area":"North East","totalSurveys":2,"speciesCount":3,"firstSurvey":"10/09/2024","lastSurvey":"16/07/2025"}},{"type":"Feature","geometry":{"type":"Point","coordinates":[-2.003074,54.731581]},"properties":{"siteId":"11393","name":"Cow Burn at Thimbleby Hill","waterbody":"GB103024077460","region":"Yorkshire and North East","area":"North East","totalSurveys":1,"speciesCount":0,"firstSurvey":"08/10/2003","lastSurvey":"08/10/2003"}},{"type":"Feature","geometry":{"type":"Point","coordinates":[-2.222784,54.750266]},"properties":{"siteId":"79045","name":"CPUE Wear Timed Survey Site 1","waterbody":null,"region":"Yorkshire and North East","area":"North East","totalSurveys":2,"speciesCount":4,"firstSurvey":"13/09/2023","lastSurvey":"27/08/2024"}},{"type":"Feature","geometry":{"type":"Point","coordinates":[-2.017119,54.747468]},"properties":{"siteId":"79054","name":"CPUE Wear Timed Survey Site 10","waterbody":null,"region":"Yorkshire and North East","area":"North East","totalSurveys":2,"speciesCount":5,"firstSurvey":"18/09/2023","lastSurvey":"28/08/2024"}},{"type":"Feature","geometry":{"type":"Point","coordinates":[-2.20417,54.743694]},"properties":{"siteId":"79046","name":"CPUE Wear Timed Survey Site 2","waterbody":null,"region":"Yorkshire and North East","area":"North East","totalSurveys":2,"speciesCount":2,"firstSurvey":"13/09/2023","lastSurvey":"27/08/2024"}},{"type":"Feature","geometry":{"type":"Point","coordinates":[-2.186411,54.739373]},"properties":{"siteId":"79047","name":"CPUE Wear Timed Survey Site 3","waterbody":null,"region":"Yorkshire and North East","area":"North East","totalSurveys":2,"speciesCount":3,"firstSurvey":"13/09/2023","lastSurvey":"27/08/2024"}},{"type":"Feature","geometry":{"type":"Point","coordinates":[-2.163043,54.737304]},"properties":{"siteId":"79048","name":"CPUE Wear Timed Survey Site 4","waterbody":null,"region":"Yorkshire and North East","area":"North East","totalSurveys":2,"speciesCount":3,"firstSurvey":"13/09/2023","lastSurvey":"27/08/2024"}},{"type":"Feature","geometry":{"type":"Point","coordinates":[-2.139452,54.737459]},"properties":{"siteId":"79049","name":"CPUE Wear Timed Survey Site 5","waterbody":null,"region":"Yorkshire and North East","area":"North East","totalSurveys":2,"speciesCount":5,"firstSurvey":"18/09/2023","lastSurvey":"27/08/2024"}},{"type":"Feature","geometry":{"type":"Point","coordinates":[-2.113884,54.736039]},"properties":{"siteId":"79050","name":"CPUE Wear Timed Survey Site 6","waterbody":null,"region":"Yorkshire and North East","area":"North East","totalSurveys":2,"speciesCount":4,"firstSurvey":"18/09/2023","lastSurvey":"27/08/2024"}},{"type":"Feature","geometry":{"type":"Point","coordinates":[-2.098037,54.740196]},"properties":{"siteId":"79051","name":"CPUE Wear Timed Survey Site 7","waterbody":null,"region":"Yorkshire and North East","area":"North East","totalSurveys":2,"speciesCount":5,"firstSurvey":"18/09/2023","lastSurvey":"27/08/2024"}},{"type":"Feature","geometry":{"type":"Point","coordinates":[-2.071479,54.741014]},"properties":{"siteId":"79052","name":"CPUE Wear Timed Survey Site 8","waterbody":null,"region":"Yorkshire and North East","area":"North East","totalSurveys":2,"speciesCount":5,"firstSurvey":"18/09/2023","lastSurvey":"27/08/2024"}},{"type":"Feature","geometry":{"type":"Point","coordinates":[-2.057205,54.741067]},"properties":{"siteId":"79053","name":"CPUE Wear Timed Survey Site 9","waterbody":null,"region":"Yorkshire and North East","area":"North East","totalSurveys":2,"speciesCount":5,"firstSurvey":"18/09/2023","lastSurvey":"28/08/2024"}},{"type":"Feature","geometry":{"type":"Point","coordinates":[-2.118144,54.785443]},"properties":{"siteId":"10876","name":"Hawk Sike","waterbody":"GB103024077530","region":"Yorkshire and North East","area":"North East","totalSurveys":1,"speciesCount":1,"firstSurvey":"01/10/2003","lastSurvey":"01/10/2003"}},{"type":"Feature","geometry":{"type":"Point","coordinates":[-2.040352,54.740561]},"properties":{"siteId":"10904","name":"Horsley Burn at Stanhope","waterbody":"GB103024077460","region":"Yorkshire and North East","area":"North East","totalSurveys":4,"speciesCount":3,"firstSurvey":"03/10/2003","lastSurvey":"22/07/2025"}},{"type":"Feature","geometry":{"type":"Point","coordinates":[-2.052769,54.734266]},"properties":{"siteId":"10906","name":"Horsley Burn at Waterfall","waterbody":"GB103024077460","region":"Yorkshire and North East","area":"North East","totalSurveys":1,"speciesCount":1,"firstSurvey":"03/10/2003","lastSurvey":"03/10/2003"}},{"type":"Feature","geometry":{"type":"Point","coordinates":[-2.223798,54.736982]},"properties":{"siteId":"67363","name":"Greenwell crags D/S","waterbody":null,"region":"Yorkshire and North East","area":"North East","totalSurveys":1,"speciesCount":2,"firstSurvey":"04/07/2016","lastSurvey":"04/07/2016"}},{"type":"Feature","geometry":{"type":"Point","coordinates":[-2.224774,54.736576]},"properties":{"siteId":"67125","name":"Greenwell crags U/S","waterbody":null,"region":"Yorkshire and North East","area":"North East","totalSurveys":1,"speciesCount":1,"firstSurvey":"04/07/2016","lastSurvey":"04/07/2016"}},{"type":"Feature","geometry":{"type":"Point","coordinates":[-2.209666,54.743082]},"properties":{"siteId":"10932","name":"Ireshope Burn","waterbody":"GB103024077440","region":"Yorkshire and North East","area":"North East","totalSurveys":6,"speciesCount":2,"firstSurvey":"21/08/1997","lastSurvey":"21/07/2025"}},{"type":"Feature","geometry":{"type":"Point","coordinates":[-2.219112,54.740585]},"properties":{"siteId":"67126","name":"Shake hole","waterbody":null,"region":"Yorkshire and North East","area":"North East","totalSurveys":1,"speciesCount":1,"firstSurvey":"04/07/2016","lastSurvey":"04/07/2016"}},{"type":"Feature","geometry":{"type":"Point","coordinates":[-2.241206,54.726102]},"properties":{"siteId":"67124","name":"Wham Pasture","waterbody":null,"region":"Yorkshire and North East","area":"North East","totalSurveys":1,"speciesCount":1,"firstSurvey":"07/07/2016","lastSurvey":"07/07/2016"}},{"type":"Feature","geometry":{"type":"Point","coordinates":[-2.257466,54.809841]},"properties":{"siteId":"69603","name":"Killhope burn DS of Confluence","waterbody":null,"region":"Yorkshire and North East","area":"North East","totalSurveys":1,"speciesCount":1,"firstSurvey":"07/07/2017","lastSurvey":"07/07/2017"}},{"type":"Feature","geometry":{"type":"Point","coordinates":[-2.257225,54.769456]},"properties":{"siteId":"67507","name":"Killhope Burn U/S of Wellhope confluence","waterbody":null,"region":"Yorkshire and North East","area":"North East","totalSurveys":2,"speciesCount":1,"firstSurvey":"22/07/2016","lastSurvey":"07/07/2017"}},{"type":"Feature","geometry":{"type":"Point","coordinates":[-2.257193,54.769339]},"properties":{"siteId":"71263","name":"Wellhope / Killhope Burn Confluence","waterbody":null,"region":"Yorkshire and North East","area":"North East","totalSurveys":1,"speciesCount":1,"firstSurvey":"12/07/2018","lastSurvey":"12/07/2018"}},{"type":"Feature","geometry":{"type":"Point","coordinates":[-2.258031,54.769086]},"properties":{"siteId":"67506","name":"Wellhope Burn D/S","waterbody":null,"region":"Yorkshire and North East","area":"North East","totalSurveys":3,"speciesCount":1,"firstSurvey":"22/07/2016","lastSurvey":"12/07/2018"}},{"type":"Feature","geometry":{"type":"Point","coordinates":[-2.274099,54.766301]},"properties":{"siteId":"67505","name":"Wellhope Burn U/S","waterbody":null,"region":"Yorkshire and North East","area":"North East","totalSurveys":4,"speciesCount":1,"firstSurvey":"22/07/2016","lastSurvey":"10/10/2019"}},{"type":"Feature","geometry":{"type":"Point","coordinates":[-2.164696,54.762024]},"properties":{"siteId":"10930","name":"Middlehope Burn at Middlehope Lodge","waterbody":"GB103024077480","region":"Yorkshire and North East","area":"North East","totalSurveys":1,"speciesCount":1,"firstSurvey":"05/10/2003","lastSurvey":"05/10/2003"}},{"type":"Feature","geometry":{"type":"Point","coordinates":[-2.150693,54.757549]},"properties":{"siteId":"10929","name":"Middlehope Burn at Old Mine","waterbody":"GB103024077480","region":"Yorkshire and North East","area":"North East","totalSurveys":1,"speciesCount":1,"firstSurvey":"03/10/2003","lastSurvey":"03/10/2003"}},{"type":"Feature","geometry":{"type":"Point","coordinates":[-2.147514,54.737782]},"properties":{"siteId":"10928","name":"Middlehope Burn","waterbody":"GB103024077480","region":"Yorkshire and North East","area":"North East","totalSurveys":4,"speciesCount":4,"firstSurvey":"02/10/2003","lastSurvey":"14/09/2023"}},{"type":"Feature","geometry":{"type":"Point","coordinates":[-2.226832,54.75743]},"properties":{"siteId":"10824","name":"River Wear at Cowshill","waterbody":"GB103024077500","region":"Yorkshire and North East","area":"North East","totalSurveys":5,"speciesCount":3,"firstSurvey":"05/10/2003","lastSurvey":"16/07/2025"}},{"type":"Feature","geometry":{"type":"Point","coordinates":[-2.06365,54.740551]},"properties":{"siteId":"25481","name":"River Wear at Eastgate Caravan Site","waterbody":"GB103024077460","region":"Yorkshire and North East","area":"North East","totalSurveys":1,"speciesCount":4,"firstSurvey":"11/08/2006","lastSurvey":"11/08/2006"}},{"type":"Feature","geometry":{"type":"Point","coordinates":[-2.071416,54.740547]},"properties":{"siteId":"10838","name":"River Wear at Hagbridge","waterbody":"GB103024077460","region":"Yorkshire and North East","area":"North East","totalSurveys":5,"speciesCount":6,"firstSurvey":"06/08/1997","lastSurvey":"22/07/2025"}},{"type":"Feature","geometry":{"type":"Point","coordinates":[-2.01395,54.748655]},"properties":{"siteId":"8665","name":"River Wear at Stanhope Ford","waterbody":"GB103024077460","region":"Yorkshire and North East","area":"North East","totalSurveys":14,"speciesCount":7,"firstSurvey":"15/09/1995","lastSurvey":"23/07/2025"}},{"type":"Feature","geometry":{"type":"Point","coordinates":[-2.027931,54.746855]},"properties":{"siteId":"24623","name":"River Wear at Stanhope Weir","waterbody":"GB103024077460","region":"Yorkshire and North East","area":"North East","totalSurveys":1,"speciesCount":4,"firstSurvey":"08/10/2006","lastSurvey":"08/10/2006"}},{"type":"Feature","geometry":{"type":"Point","coordinates":[-2.223685,54.750246]},"properties":{"siteId":"10791","name":"River Wear at Wearhead","waterbody":"GB103024077440","region":"Yorkshire and North East","area":"North East","totalSurveys":17,"speciesCount":5,"firstSurvey":"15/09/1995","lastSurvey":"16/07/2025"}},{"type":"Feature","geometry":{"type":"Point","coordinates":[-2.139748,54.737791]},"properties":{"siteId":"10790","name":"River Wear at Westgate Station","waterbody":"GB103024077400","region":"Yorkshire and North East","area":"North East","totalSurveys":9,"speciesCount":6,"firstSurvey":"15/08/1997","lastSurvey":"22/07/2025"}},{"type":"Feature","geometry":{"type":"Point","coordinates":[-2.088562,54.768394]},"properties":{"siteId":"10795","name":"Rookhope Burn at footbridge","waterbody":"GB103024077530","region":"Yorkshire and North East","area":"North East","totalSurveys":8,"speciesCount":1,"firstSurvey":"12/09/2003","lastSurvey":"17/10/2019"}},{"type":"Feature","geometry":{"type":"Point","coordinates":[-2.166376,54.792575]},"properties":{"siteId":"10883","name":"Rookhope Burn at Frazers Hush","waterbody":"GB103024077530","region":"Yorkshire and North East","area":"North East","totalSurveys":6,"speciesCount":1,"firstSurvey":"01/10/2003","lastSurvey":"24/07/2025"}},{"type":"Feature","geometry":{"type":"Point","coordinates":[-2.144558,54.780022]},"properties":{"siteId":"10878","name":"Rookhope Burn at Wolf Cleugh","waterbody":"GB103024077530","region":"Yorkshire and North East","area":"North East","totalSurveys":3,"speciesCount":1,"firstSurvey":"01/10/2003","lastSurvey":"17/10/2019"}},{"type":"Feature","geometry":{"type":"Point","coordinates":[-2.075398,54.743636]},"properties":{"siteId":"10877","name":"Rookhope Burn","waterbody":"GB103024077530","region":"Yorkshire and North East","area":"North East","totalSurveys":4,"speciesCount":6,"firstSurvey":"06/10/2003","lastSurvey":"24/07/2025"}},{"type":"Feature","geometry":{"type":"Point","coordinates":[-2.017058,54.750452]},"properties":{"siteId":"10780","name":"Stanhope Burn at Stanhope","waterbody":"GB103024077510","region":"Yorkshire and North East","area":"North East","totalSurveys":17,"speciesCount":9,"firstSurvey":"18/09/1995","lastSurvey":"10/09/2024"}},{"type":"Feature","geometry":{"type":"Point","coordinates":[-2.144385,54.731495]},"properties":{"siteId":"10926","name":"Swinhope Burn at Caravan Site","waterbody":"GB103024077370","region":"Yorkshire and North East","area":"North East","totalSurveys":2,"speciesCount":1,"firstSurvey":"04/10/2003","lastSurvey":"08/08/2012"}},{"type":"Feature","geometry":{"type":"Point","coordinates":[-2.139733,54.733298]},"properties":{"siteId":"10925","name":"Swinhope Burn at Lands farm","waterbody":"GB103024077370","region":"Yorkshire and North East","area":"North East","totalSurveys":5,"speciesCount":6,"firstSurvey":"06/08/1997","lastSurvey":"21/07/2025"}},{"type":"Feature","geometry":{"type":"Point","coordinates":[-2.166011,54.703609]},"properties":{"siteId":"18870","name":"Swinhope Burn at Swinhope Head","waterbody":"GB103024077370","region":"Yorkshire and North East","area":"North East","totalSurveys":1,"speciesCount":1,"firstSurvey":"21/08/1997","lastSurvey":"21/08/1997"}},{"type":"Feature","geometry":{"type":"Point","coordinates":[-2.180125,54.736839]},"properties":{"siteId":"10931","name":"West Grain","waterbody":"GB103024077440","region":"Yorkshire and North East","area":"North East","totalSurveys":1,"speciesCount":1,"firstSurvey":"05/10/2003","lastSurvey":"05/10/2003"}},{"type":"Feature","geometry":{"type":"Point","coordinates":[-2.102469,54.736031]},"properties":{"siteId":"10907","name":"Westernhope Burn","waterbody":"GB103024077380","region":"Yorkshire and North East","area":"North East","totalSurveys":4,"speciesCount":6,"firstSurvey":"03/10/2003","lastSurvey":"21/07/2025"}},{"type":"Feature","geometry":{"type":"Point","coordinates":[-2.102189,54.006279]},"properties":{"siteId":"34600","name":"d/s Brockabank Bridge","waterbody":"GB104027063120","region":"Yorkshire and North East","area":"Yorkshire","totalSurveys":5,"speciesCount":3,"firstSurvey":"23/08/2006","lastSurvey":"28/08/2014"}},{"type":"Feature","geometry":{"type":"Point","coordinates":[-2.106776,54.00987]},"properties":{"siteId":"7565","name":"St. Helen's Weir","waterbody":"GB104027063120","region":"Yorkshire and North East","area":"Yorkshire","totalSurveys":2,"speciesCount":5,"firstSurvey":"13/08/2002","lastSurvey":"28/08/2014"}},{"type":"Feature","geometry":{"type":"Point","coordinates":[-2.080829,54.006295]},"properties":{"siteId":"7573","name":"Flasby","waterbody":"GB104027063080","region":"Yorkshire and North East","area":"Yorkshire","totalSurveys":2,"speciesCount":4,"firstSurvey":"15/08/2002","lastSurvey":"20/09/2019"}},{"type":"Feature","geometry":{"type":"Point","coordinates":[-2.059499,54.027878]},"properties":{"siteId":"34606","name":"u/s Hetton Bridge","waterbody":"GB104027063080","region":"Yorkshire and North East","area":"Yorkshire","totalSurveys":4,"speciesCount":3,"firstSurvey":"24/08/2006","lastSurvey":"27/08/2009"}},{"type":"Feature","geometry":{"type":"Point","coordinates":[-2.13705,54.065572]},"properties":{"siteId":"38547","name":"d/s Janet's Foss","waterbody":"GB104027063130","region":"Yorkshire and North East","area":"Yorkshire","totalSurveys":2,"speciesCount":2,"firstSurvey":"05/08/2011","lastSurvey":"26/08/2014"}},{"type":"Feature","geometry":{"type":"Point","coordinates":[-2.135952,54.066463]},"properties":{"siteId":"7576","name":"Gordale Bridge","waterbody":"GB104027063130","region":"Yorkshire and North East","area":"Yorkshire","totalSurveys":5,"speciesCount":2,"firstSurvey":"14/08/2002","lastSurvey":"19/08/2011"}},{"type":"Feature","geometry":{"type":"Point","coordinates":[-2.150017,54.055778]},"properties":{"siteId":"38526","name":"u/s Malham Beck","waterbody":"GB104027063130","region":"Yorkshire and North East","area":"Yorkshire","totalSurveys":1,"speciesCount":3,"firstSurvey":"05/08/2011","lastSurvey":"05/08/2011"}},{"type":"Feature","geometry":{"type":"Point","coordinates":[-2.15285,54.061787]},"properties":{"siteId":"68703","name":"Listers Arms","waterbody":null,"region":"Yorkshire and North East","area":"Yorkshire","totalSurveys":7,"speciesCount":2,"firstSurvey":"25/09/2017","lastSurvey":"18/08/2025"}},{"type":"Feature","geometry":{"type":"Point","coordinates":[-2.152737,54.060151]},"properties":{"siteId":"7577","name":"Malham Forge","waterbody":"GB104027063110","region":"Yorkshire and North East","area":"Yorkshire","totalSurveys":21,"speciesCount":4,"firstSurvey":"14/08/2002","lastSurvey":"18/08/2025"}},{"type":"Feature","geometry":{"type":"Point","coordinates":[-2.147893,54.004182]},"properties":{"siteId":"38546","name":"Bell Busk","waterbody":"GB104027063090","region":"Yorkshire and North East","area":"Yorkshire","totalSurveys":5,"speciesCount":9,"firstSurvey":"05/08/2011","lastSurvey":"20/09/2019"}},{"type":"Feature","geometry":{"type":"Point","coordinates":[-2.180045,54.016074]},"properties":{"siteId":"7566","name":"Otterburn Village","waterbody":"GB104027063090","region":"Yorkshire and North East","area":"Yorkshire","totalSurveys":7,"speciesCount":5,"firstSurvey":"15/08/2002","lastSurvey":"20/09/2019"}},{"type":"Feature","geometry":{"type":"Point","coordinates":[-2.181372,54.019388]},"properties":{"siteId":"64923","name":"u/s Otterburn village (Firbeck plantation)","waterbody":null,"region":"Yorkshire and North East","area":"Yorkshire","totalSurveys":1,"speciesCount":3,"firstSurvey":"02/09/2015","lastSurvey":"02/09/2015"}},{"type":"Feature","geometry":{"type":"Point","coordinates":[-2.094614,54.029653]},"properties":{"siteId":"34599","name":"Winterburn Bridge","waterbody":"GB104027063120","region":"Yorkshire and North East","area":"Yorkshire","totalSurveys":4,"speciesCount":4,"firstSurvey":"23/08/2006","lastSurvey":"27/08/2009"}},{"type":"Feature","geometry":{"type":"Point","coordinates":[-2.145299,54.003925]},"properties":{"siteId":"29025","name":"Bell Busk","waterbody":"GB104027063100","region":"Yorkshire and North East","area":"Yorkshire","totalSurveys":3,"speciesCount":5,"firstSurvey":"22/08/2007","lastSurvey":"05/09/2014"}},{"type":"Feature","geometry":{"type":"Point","coordinates":[-2.154211,54.045769]},"properties":{"siteId":"7602","name":"Hanlith Bridge","waterbody":"GB104027063100","region":"Yorkshire and North East","area":"Yorkshire","totalSurveys":16,"speciesCount":8,"firstSurvey":"14/08/2002","lastSurvey":"29/08/2024"}},{"type":"Feature","geometry":{"type":"Point","coordinates":[-2.143431,54.019718]},"properties":{"siteId":"7601","name":"Newfield Hall Bridge","waterbody":"GB104027063100","region":"Yorkshire and North East","area":"Yorkshire","totalSurveys":2,"speciesCount":4,"firstSurvey":"13/08/2002","lastSurvey":"05/09/2014"}},{"type":"Feature","geometry":{"type":"Point","coordinates":[-2.081722,54.459255]},"properties":{"siteId":"14558","name":"Arkle Beck at Crooks Bridge","waterbody":"GB104027069170","region":"Yorkshire and North East","area":"Yorkshire","totalSurveys":4,"speciesCount":4,"firstSurvey":"01/06/2005","lastSurvey":"12/09/2022"}},{"type":"Feature","geometry":{"type":"Point","coordinates":[-2.029258,54.435913]},"properties":{"siteId":"14575","name":"Arkle Beck at Whaw Bridge","waterbody":"GB104027069170","region":"Yorkshire and North East","area":"Yorkshire","totalSurveys":5,"speciesCount":3,"firstSurvey":"01/06/2005","lastSurvey":"20/09/2022"}},{"type":"Feature","geometry":{"type":"Point","coordinates":[-2.038513,54.440404]},"properties":{"siteId":"14557","name":"Punchard Gill at Punchard Gill Bridge","waterbody":"GB104027069170","region":"Yorkshire and North East","area":"Yorkshire","totalSurveys":4,"speciesCount":3,"firstSurvey":"01/06/2005","lastSurvey":"20/09/2022"}},{"type":"Feature","geometry":{"type":"Point","coordinates":[-2.098694,54.46104]},"properties":{"siteId":"14556","name":"William Gill nr Cocker","waterbody":"GB104027069170","region":"Yorkshire and North East","area":"Yorkshire","totalSurveys":4,"speciesCount":2,"firstSurvey":"01/06/2005","lastSurvey":"26/09/2022"}},{"type":"Feature","geometry":{"type":"Point","coordinates":[-2.019987,54.393676]},"properties":{"siteId":"14552","name":"Barney Beck nr Feetham Pasture","waterbody":"GB104027069080","region":"Yorkshire and North East","area":"Yorkshire","totalSurveys":7,"speciesCount":1,"firstSurvey":"01/06/2005","lastSurvey":"24/09/2023"}},{"type":"Feature","geometry":{"type":"Point","coordinates":[-2.045346,54.401272]},"properties":{"siteId":"14551","name":"Hard Level Gill at Old Gang Smelting Mill Bridge","waterbody":"GB104027069080","region":"Yorkshire and North East","area":"Yorkshire","totalSurveys":7,"speciesCount":1,"firstSurvey":"01/06/2005","lastSurvey":"24/09/2023"}},{"type":"Feature","geometry":{"type":"Point","coordinates":[-2.251103,54.410491]},"properties":{"siteId":"14540","name":"Birkdale Beck at Crook Seal","waterbody":"GB104027069110","region":"Yorkshire and North East","area":"Yorkshire","totalSurveys":3,"speciesCount":1,"firstSurvey":"06/06/2005","lastSurvey":"29/08/2024"}},{"type":"Feature","geometry":{"type":"Point","coordinates":[-2.282035,54.427498]},"properties":{"siteId":"14533","name":"Uldale Beck u/s Beck Meetings","waterbody":"GB104027069110","region":"Yorkshire and North East","area":"Yorkshire","totalSurveys":4,"speciesCount":1,"firstSurvey":"06/06/2005","lastSurvey":"26/09/2022"}},{"type":"Feature","geometry":{"type":"Point","coordinates":[-2.160187,54.407052]},"properties":{"siteId":"14543","name":"East Gill nr Shot Lathe","waterbody":"GB104027069100","region":"Yorkshire and North East","area":"Yorkshire","totalSurveys":1,"speciesCount":1,"firstSurvey":"06/06/2005","lastSurvey":"06/06/2005"}},{"type":"Feature","geometry":{"type":"Point","coordinates":[-2.203324,54.406987]},"properties":{"siteId":"14539","name":"Great Ash Gill nr Hoggarths","waterbody":"GB104027069050","region":"Yorkshire and North East","area":"Yorkshire","totalSurveys":1,"speciesCount":0,"firstSurvey":"06/06/2005","lastSurvey":"06/06/2005"}},{"type":"Feature","geometry":{"type":"Point","coordinates":[-2.221786,54.402461]},"properties":{"siteId":"14584","name":"Great Sledale Beck at Stone House","waterbody":null,"region":"Yorkshire and North East","area":"Yorkshire","totalSurveys":1,"speciesCount":1,"firstSurvey":"01/08/2016","lastSurvey":"01/08/2016"}},{"type":"Feature","geometry":{"type":"Point","coordinates":[-2.078485,54.380171]},"properties":{"siteId":"8522","name":"Gunnerside Gill at Gunnerside","waterbody":"GB104027069090","region":"Yorkshire and North East","area":"Yorkshire","totalSurveys":18,"speciesCount":3,"firstSurvey":"03/09/2002","lastSurvey":"04/09/2024"}},{"type":"Feature","geometry":{"type":"Point","coordinates":[-2.164784,54.400754]},"properties":{"siteId":"14544","name":"Skeb Skeugh nr Thorns Farm","waterbody":"GB104027069100","region":"Yorkshire and North East","area":"Yorkshire","totalSurveys":4,"speciesCount":2,"firstSurvey":"06/06/2005","lastSurvey":"12/09/2022"}},{"type":"Feature","geometry":{"type":"Point","coordinates":[-2.162329,54.379845]},"properties":{"siteId":"14545","name":"Skeb Skeugh nr Thwaite","waterbody":"GB104027069030","region":"Yorkshire and North East","area":"Yorkshire","totalSurveys":1,"speciesCount":2,"firstSurvey":"07/06/2005","lastSurvey":"07/06/2005"}},{"type":"Feature","geometry":{"type":"Point","coordinates":[-2.152368,54.375607]},"properties":{"siteId":"8516","name":"Straw Beck West of Muker","waterbody":"GB104027069030","region":"Yorkshire and North East","area":"Yorkshire","totalSurveys":16,"speciesCount":4,"firstSurvey":"29/08/2002","lastSurvey":"04/09/2024"}},{"type":"Feature","geometry":{"type":"Point","coordinates":[-2.168067,54.378759]},"properties":{"siteId":"14547","name":"Thwaite Beck at Thwaite Bridge","waterbody":"GB104027069030","region":"Yorkshire and North East","area":"Yorkshire","totalSurveys":4,"speciesCount":2,"firstSurvey":"06/06/2005","lastSurvey":"14/09/2022"}},{"type":"Feature","geometry":{"type":"Point","coordinates":[-2.104639,54.372962]},"properties":{"siteId":"8518","name":"Oxnop Beck u/s A684","waterbody":"GB104027069120","region":"Yorkshire and North East","area":"Yorkshire","totalSurveys":17,"speciesCount":3,"firstSurvey":"29/08/2002","lastSurvey":"04/09/2024"}},{"type":"Feature","geometry":{"type":"Point","coordinates":[-2.123108,54.372046]},"properties":{"siteId":"14549","name":"Rountin Gill at B6270","waterbody":"GB104027069120","region":"Yorkshire and North East","area":"Yorkshire","totalSurveys":2,"speciesCount":1,"firstSurvey":"03/06/2005","lastSurvey":"20/09/2022"}},{"type":"Feature","geometry":{"type":"Point","coordinates":[-2.17567,54.425004]},"properties":{"siteId":"14542","name":"Stonesdale Beck nr Low Frith","waterbody":"GB104027069150","region":"Yorkshire and North East","area":"Yorkshire","totalSurveys":3,"speciesCount":1,"firstSurvey":"06/06/2005","lastSurvey":"01/08/2016"}},{"type":"Feature","geometry":{"type":"Point","coordinates":[-2.038446,54.370305]},"properties":{"siteId":"14550","name":"Summer Lodge Beck at Haverdale Bridge","waterbody":"GB104027069120","region":"Yorkshire and North East","area":"Yorkshire","totalSurveys":1,"speciesCount":2,"firstSurvey":"03/06/2005","lastSurvey":"03/06/2005"}},{"type":"Feature","geometry":{"type":"Point","coordinates":[-2.055361,54.357716]},"properties":{"siteId":"8524","name":"Summer Lodge Beck d/s Summer Lodge","waterbody":"GB104027069120","region":"Yorkshire and North East","area":"Yorkshire","totalSurveys":17,"speciesCount":2,"firstSurvey":"30/08/2002","lastSurvey":"05/09/2024"}},{"type":"Feature","geometry":{"type":"Point","coordinates":[-2.214197,54.424043]},"properties":{"siteId":"14541","name":"Whitsundale Beck at Ravenseat","waterbody":"GB104027069130","region":"Yorkshire and North East","area":"Yorkshire","totalSurveys":4,"speciesCount":1,"firstSurvey":"06/06/2005","lastSurvey":"14/09/2022"}},{"type":"Feature","geometry":{"type":"Point","coordinates":[-2.198706,54.407893]},"properties":{"siteId":"8515","name":"Hoggarths","waterbody":"GB104027069050","region":"Yorkshire and North East","area":"Yorkshire","totalSurveys":17,"speciesCount":2,"firstSurvey":"29/08/2002","lastSurvey":"04/09/2024"}},{"type":"Feature","geometry":{"type":"Point","coordinates":[-2.151982,54.271356]},"properties":{"siteId":"26517","name":"Bardale Beck at Marsett","waterbody":"GB104027069400","region":"Yorkshire and North East","area":"Yorkshire","totalSurveys":3,"speciesCount":4,"firstSurvey":"06/06/2007","lastSurvey":"23/09/2025"}},{"type":"Feature","geometry":{"type":"Point","coordinates":[-2.032386,54.258488]},"properties":{"siteId":"51964","name":"Bishopdale Beck Howesyke Farm Lower","waterbody":"GB104027069360","region":"Yorkshire and North East","area":"Yorkshire","totalSurveys":1,"speciesCount":4,"firstSurvey":"12/09/2013","lastSurvey":"12/09/2013"}},{"type":"Feature","geometry":{"type":"Point","coordinates":[-2.032447,54.258156]},"properties":{"siteId":"51963","name":"Bishopdale Beck Howesyke Farm Upper","waterbody":"GB104027069360","region":"Yorkshire and North East","area":"Yorkshire","totalSurveys":1,"speciesCount":4,"firstSurvey":"12/09/2013","lastSurvey":"12/09/2013"}},{"type":"Feature","geometry":{"type":"Point","coordinates":[-2.02148,54.303804]},"properties":{"siteId":"7064","name":"Eller Beck Nr. Woodhall","waterbody":"GB104027069462","region":"Yorkshire and North East","area":"Yorkshire","totalSurveys":17,"speciesCount":4,"firstSurvey":"18/10/2001","lastSurvey":"26/08/2025"}},{"type":"Feature","geometry":{"type":"Point","coordinates":[-2.21977,54.313492]},"properties":{"siteId":"7062","name":"Appersett Bridge","waterbody":"GB104027069440","region":"Yorkshire and North East","area":"Yorkshire","totalSurveys":17,"speciesCount":5,"firstSurvey":"18/10/2001","lastSurvey":"06/08/2025"}},{"type":"Feature","geometry":{"type":"Point","coordinates":[-2.222779,54.315625]},"properties":{"siteId":"40308","name":"Appersett Layby","waterbody":"GB104027069440","region":"Yorkshire and North East","area":"Yorkshire","totalSurveys":1,"speciesCount":4,"firstSurvey":"02/08/2011","lastSurvey":"02/08/2011"}},{"type":"Feature","geometry":{"type":"Point","coordinates":[-2.150581,54.308206]},"properties":{"siteId":"26713","name":"Cattriggs Farm","waterbody":"GB104027069462","region":"Yorkshire and North East","area":"Yorkshire","totalSurveys":3,"speciesCount":4,"firstSurvey":"06/06/2007","lastSurvey":"01/09/2025"}},{"type":"Feature","geometry":{"type":"Point","coordinates":[-2.321469,54.345617]},"properties":{"siteId":"7061","name":"Lunds","waterbody":"GB104027069500","region":"Yorkshire and North East","area":"Yorkshire","totalSurveys":18,"speciesCount":4,"firstSurvey":"16/10/2001","lastSurvey":"05/08/2025"}},{"type":"Feature","geometry":{"type":"Point","coordinates":[-2.104482,54.310951]},"properties":{"siteId":"13430","name":"Pry Hill","waterbody":"GB104027069462","region":"Yorkshire and North East","area":"Yorkshire","totalSurveys":5,"speciesCount":6,"firstSurvey":"06/09/2004","lastSurvey":"08/09/2025"}},{"type":"Feature","geometry":{"type":"Point","coordinates":[-2.273651,54.325963]},"properties":{"siteId":"26712","name":"Thwaite Bridge","waterbody":"GB104027069500","region":"Yorkshire and North East","area":"Yorkshire","totalSurveys":4,"speciesCount":4,"firstSurvey":"05/06/2007","lastSurvey":"05/08/2025"}},{"type":"Feature","geometry":{"type":"Point","coordinates":[-2.327701,54.355486]},"properties":{"siteId":"26711","name":"West End","waterbody":"GB104027069500","region":"Yorkshire and North East","area":"Yorkshire","totalSurveys":4,"speciesCount":3,"firstSurvey":"05/06/2007","lastSurvey":"05/08/2025"}},{"type":"Feature","geometry":{"type":"Point","coordinates":[-2.074868,54.169603]},"properties":{"siteId":"11801","name":"Starbotton","waterbody":"GB104027069290","region":"Yorkshire and North East","area":"Yorkshire","totalSurveys":17,"speciesCount":3,"firstSurvey":"02/10/2002","lastSurvey":"28/08/2024"}},{"type":"Feature","geometry":{"type":"Point","coordinates":[-2.070053,54.13033]},"properties":{"siteId":"30548","name":"Hawkwith","waterbody":"GB104027064180","region":"Yorkshire and North East","area":"Yorkshire","totalSurveys":3,"speciesCount":3,"firstSurvey":"26/06/2008","lastSurvey":"31/07/2014"}},{"type":"Feature","geometry":{"type":"Point","coordinates":[-2.044943,54.118389]},"properties":{"siteId":"30547","name":"Skirfare Bridge","waterbody":"GB104027064180","region":"Yorkshire and North East","area":"Yorkshire","totalSurveys":3,"speciesCount":4,"firstSurvey":"26/06/2008","lastSurvey":"31/07/2014"}},{"type":"Feature","geometry":{"type":"Point","coordinates":[-2.170145,54.170224]},"properties":{"siteId":"11802","name":"Skirfare U/S Heseldene Beck Confl","waterbody":"GB104027069250","region":"Yorkshire and North East","area":"Yorkshire","totalSurveys":7,"speciesCount":3,"firstSurvey":"02/10/2002","lastSurvey":"23/08/2011"}},{"type":"Feature","geometry":{"type":"Point","coordinates":[-2.105732,54.199328]},"properties":{"siteId":"5345","name":"Buckden U/S Gravel Trap","waterbody":"GB104027069290","region":"Yorkshire and North East","area":"Yorkshire","totalSurveys":6,"speciesCount":4,"firstSurvey":"05/06/2002","lastSurvey":"26/06/2008"}},{"type":"Feature","geometry":{"type":"Point","coordinates":[-2.033601,54.093498]},"properties":{"siteId":"3753","name":"Conistone d/s","waterbody":"GB104027064253","region":"Yorkshire and North East","area":"Yorkshire","totalSurveys":10,"speciesCount":7,"firstSurvey":"14/08/1996","lastSurvey":"01/08/2014"}},{"type":"Feature","geometry":{"type":"Point","coordinates":[-2.115145,54.19975]},"properties":{"siteId":"59423","name":"Hubberholme","waterbody":"GB104027069290","region":"Yorkshire and North East","area":"Yorkshire","totalSurveys":1,"speciesCount":4,"firstSurvey":"30/07/2014","lastSurvey":"30/07/2014"}},{"type":"Feature","geometry":{"type":"Point","coordinates":[-2.05355,54.149213]},"properties":{"siteId":"30177","name":"Kettlewell","waterbody":"GB104027069290","region":"Yorkshire and North East","area":"Yorkshire","totalSurveys":3,"speciesCount":4,"firstSurvey":"30/06/2008","lastSurvey":"30/09/2025"}},{"type":"Feature","geometry":{"type":"Point","coordinates":[-2.100976,54.197804]},"properties":{"siteId":"5346","name":"Cray Beck Confluence","waterbody":"GB104027069290","region":"Yorkshire and North East","area":"Yorkshire","totalSurveys":2,"speciesCount":4,"firstSurvey":"05/06/2002","lastSurvey":"12/06/2003"}},{"type":"Feature","geometry":{"type":"Point","coordinates":[-2.103285,54.201577]},"properties":{"siteId":"5350","name":"Cray Beck","waterbody":"GB104027069290","region":"Yorkshire and North East","area":"Yorkshire","totalSurveys":2,"speciesCount":3,"firstSurvey":"06/06/2002","lastSurvey":"12/06/2003"}},{"type":"Feature","geometry":{"type":"Point","coordinates":[-2.093286,54.185947]},"properties":{"siteId":"5347","name":"Redmires","waterbody":"GB104027069290","region":"Yorkshire and North East","area":"Yorkshire","totalSurveys":3,"speciesCount":4,"firstSurvey":"06/06/2002","lastSurvey":"01/10/2025"}},{"type":"Feature","geometry":{"type":"Point","coordinates":[-2.083444,54.176319]},"properties":{"siteId":"81703","name":"Starbotton","waterbody":null,"region":"Yorkshire and North East","area":"Yorkshire","totalSurveys":1,"speciesCount":4,"firstSurvey":"01/10/2025","lastSurvey":"01/10/2025"}},{"type":"Feature","geometry":{"type":"Point","coordinates":[-2.766452,54.009909]},"properties":{"siteId":"13148","name":"Banton House Farm","waterbody":"GB112072065900","region":"North West","area":"North","totalSurveys":2,"speciesCount":6,"firstSurvey":"30/07/2002","lastSurvey":"26/08/2014"}},{"type":"Feature","geometry":{"type":"Point","coordinates":[-2.739163,54.037996]},"properties":{"siteId":"13151","name":"Church Bridge","waterbody":"GB112072065900","region":"North West","area":"North","totalSurveys":2,"speciesCount":5,"firstSurvey":"20/08/2002","lastSurvey":"14/08/2014"}},{"type":"Feature","geometry":{"type":"Point","coordinates":[-2.739591,54.041462]},"properties":{"siteId":"59563","name":"Mother Dyke Bridge","waterbody":"GB112072065900","region":"North West","area":"North","totalSurveys":1,"speciesCount":2,"firstSurvey":"14/08/2014","lastSurvey":"14/08/2014"}},{"type":"Feature","geometry":{"type":"Point","coordinates":[-2.749029,54.028767]},"properties":{"siteId":"13161","name":"Quernmore","waterbody":"GB112072065900","region":"North West","area":"North","totalSurveys":2,"speciesCount":4,"firstSurvey":"30/07/2002","lastSurvey":"14/08/2014"}},{"type":"Feature","geometry":{"type":"Point","coordinates":[-2.718716,54.044133]},"properties":{"siteId":"59343","name":"Rushy Lee Farm","waterbody":"GB112072065900","region":"North West","area":"North","totalSurveys":2,"speciesCount":2,"firstSurvey":"30/08/2002","lastSurvey":"26/08/2014"}},{"type":"Feature","geometry":{"type":"Point","coordinates":[-2.680994,54.157013]},"properties":{"siteId":"19393","name":"300m U/S Keer West Bridge","waterbody":"GB112073071250","region":"North West","area":"North","totalSurveys":1,"speciesCount":2,"firstSurvey":"06/10/1998","lastSurvey":"06/10/1998"}},{"type":"Feature","geometry":{"type":"Point","coordinates":[-2.770663,54.134453]},"properties":{"siteId":"31213","name":"BFI Waste Care","waterbody":"GB112073064430","region":"North West","area":"North","totalSurveys":1,"speciesCount":2,"firstSurvey":"22/08/1995","lastSurvey":"22/08/1995"}},{"type":"Feature","geometry":{"type":"Point","coordinates":[-2.705075,54.146709]},"properties":{"siteId":"34629","name":"Borwick Lodge","waterbody":"GB112073071250","region":"North West","area":"North","totalSurveys":3,"speciesCount":6,"firstSurvey":"13/08/2010","lastSurvey":"25/07/2022"}},{"type":"Feature","geometry":{"type":"Point","coordinates":[-2.704308,54.146588]},"properties":{"siteId":"19400","name":"Carnforth Angler's Pond","waterbody":"GB112073071250","region":"North West","area":"North","totalSurveys":2,"speciesCount":5,"firstSurvey":"29/08/1995","lastSurvey":"17/07/2000"}},{"type":"Feature","geometry":{"type":"Point","coordinates":[-2.687827,54.149811]},"properties":{"siteId":"35689","name":"Cinder Hill Farm","waterbody":"GB112073071250","region":"North West","area":"North","totalSurveys":3,"speciesCount":10,"firstSurvey":"16/08/2010","lastSurvey":"26/07/2022"}},{"type":"Feature","geometry":{"type":"Point","coordinates":[-2.759885,54.136768]},"properties":{"siteId":"31215","name":"D/S A6","waterbody":"GB112073064430","region":"North West","area":"North","totalSurveys":1,"speciesCount":4,"firstSurvey":"23/08/1995","lastSurvey":"23/08/1995"}},{"type":"Feature","geometry":{"type":"Point","coordinates":[-2.714864,54.144405]},"properties":{"siteId":"31219","name":"D/S Greenbank Farm","waterbody":"GB112073071250","region":"North West","area":"North","totalSurveys":1,"speciesCount":7,"firstSurvey":"26/09/1995","lastSurvey":"26/09/1995"}},{"type":"Feature","geometry":{"type":"Point","coordinates":[-2.683755,54.154454]},"properties":{"siteId":"19391","name":"D/S Keer West Bridge","waterbody":"GB112073071250","region":"North West","area":"North","totalSurveys":17,"speciesCount":10,"firstSurvey":"26/09/1995","lastSurvey":"17/06/2024"}},{"type":"Feature","geometry":{"type":"Point","coordinates":[-2.676363,54.165964]},"properties":{"siteId":"31217","name":"D/S Wash Dub Wood","waterbody":"GB112073071250","region":"North West","area":"North","totalSurveys":5,"speciesCount":5,"firstSurvey":"26/09/1995","lastSurvey":"01/07/2022"}},{"type":"Feature","geometry":{"type":"Point","coordinates":[-2.670633,54.16303]},"properties":{"siteId":"19399","name":"Hurtsfield Wood","waterbody":"GB112073071250","region":"North West","area":"North","totalSurveys":3,"speciesCount":2,"firstSurvey":"06/05/2000","lastSurvey":"15/08/2022"}},{"type":"Feature","geometry":{"type":"Point","coordinates":[-2.711599,54.150392]},"properties":{"siteId":"19401","name":"Near Railway Cottage","waterbody":"GB112073071250","region":"North West","area":"North","totalSurveys":4,"speciesCount":4,"firstSurvey":"06/07/2000","lastSurvey":"15/06/2022"}},{"type":"Feature","geometry":{"type":"Point","coordinates":[-2.734563,54.140727]},"properties":{"siteId":"19406","name":"High Keer Bridge at Kellet Lane","waterbody":"GB112073064430","region":"North West","area":"North","totalSurveys":17,"speciesCount":14,"firstSurvey":"23/08/1995","lastSurvey":"30/09/2025"}},{"type":"Feature","geometry":{"type":"Point","coordinates":[-2.672331,54.173293]},"properties":{"siteId":"31218","name":"Keer Wood","waterbody":"GB112073071250","region":"North West","area":"North","totalSurveys":1,"speciesCount":3,"firstSurvey":"26/09/1995","lastSurvey":"26/09/1995"}},{"type":"Feature","geometry":{"type":"Point","coordinates":[-2.722455,54.140764]},"properties":{"siteId":"19402","name":"Pack Horse Bridge U/S Railway Viaduct","waterbody":"GB112073064430","region":"North West","area":"North","totalSurveys":5,"speciesCount":9,"firstSurvey":"29/08/1995","lastSurvey":"15/06/2022"}},{"type":"Feature","geometry":{"type":"Point","coordinates":[-2.74543,54.141523]},"properties":{"siteId":"31214","name":"Pine Lake Outlet","waterbody":"GB112073064430","region":"North West","area":"North","totalSurveys":2,"speciesCount":5,"firstSurvey":"22/08/1995","lastSurvey":"17/07/2000"}},{"type":"Feature","geometry":{"type":"Point","coordinates":[-2.717198,54.136805]},"properties":{"siteId":"19404","name":"Old Hall Car Park","waterbody":"GB112073071250","region":"North West","area":"North","totalSurveys":5,"speciesCount":4,"firstSurvey":"26/09/1995","lastSurvey":"15/06/2022"}},{"type":"Feature","geometry":{"type":"Point","coordinates":[-2.71676,54.129168]},"properties":{"siteId":"19405","name":"Pedder Potts Reservoir","waterbody":"GB112073071250","region":"North West","area":"North","totalSurveys":1,"speciesCount":1,"firstSurvey":"06/07/2000","lastSurvey":"06/07/2000"}},{"type":"Feature","geometry":{"type":"Point","coordinates":[-2.753014,54.139355]},"properties":{"siteId":"31216","name":"Truck Stop","waterbody":"GB112073064430","region":"North West","area":"North","totalSurveys":1,"speciesCount":2,"firstSurvey":"22/08/1995","lastSurvey":"22/08/1995"}},{"type":"Feature","geometry":{"type":"Point","coordinates":[-2.671977,54.172244]},"properties":{"siteId":"19394","name":"U/S Keer Falls","waterbody":"GB112073071250","region":"North West","area":"North","totalSurveys":5,"speciesCount":3,"firstSurvey":"26/09/1995","lastSurvey":"25/07/2022"}},{"type":"Feature","geometry":{"type":"Point","coordinates":[-2.682789,54.156257]},"properties":{"siteId":"19392","name":"U/S Keer West Bridge","waterbody":"GB112073071250","region":"North West","area":"North","totalSurveys":1,"speciesCount":2,"firstSurvey":"06/10/1998","lastSurvey":"06/10/1998"}},{"type":"Feature","geometry":{"type":"Point","coordinates":[-2.580123,54.262884]},"properties":{"siteId":"31594","name":"Abbey Beck A683 Road Bridge","waterbody":"GB112072071690","region":"North West","area":"North","totalSurveys":3,"speciesCount":5,"firstSurvey":"26/07/1991","lastSurvey":"04/10/2012"}},{"type":"Feature","geometry":{"type":"Point","coordinates":[-2.580783,54.262863]},"properties":{"siteId":"58243","name":"Footbridge upstream Millbeck Farm","waterbody":"GB112072071690","region":"North West","area":"North","totalSurveys":2,"speciesCount":5,"firstSurvey":"20/08/2013","lastSurvey":"09/09/2016"}},{"type":"Feature","geometry":{"type":"Point","coordinates":[-2.58795,54.261614]},"properties":{"siteId":"58263","name":"PTC Lune below Low Lane","waterbody":"GB112072071690","region":"North West","area":"North","totalSurveys":1,"speciesCount":2,"firstSurvey":"04/10/2012","lastSurvey":"04/10/2012"}},{"type":"Feature","geometry":{"type":"Point","coordinates":[-2.583171,54.309064]},"properties":{"siteId":"8266","name":"Above Broadraine Counter","waterbody":"GB112072071720","region":"North West","area":"North","totalSurveys":4,"speciesCount":6,"firstSurvey":"23/08/2002","lastSurvey":"25/09/2009"}},{"type":"Feature","geometry":{"type":"Point","coordinates":[-2.60969,54.289754]},"properties":{"siteId":"16090","name":"Aikrigg Beck (stocking)","waterbody":"GB112072071690","region":"North West","area":"North","totalSurveys":2,"speciesCount":5,"firstSurvey":"19/09/2005","lastSurvey":"25/09/2006"}},{"type":"Feature","geometry":{"type":"Point","coordinates":[-2.614265,54.150155]},"properties":{"siteId":"8152","name":"Arkholme Broomfield","waterbody":"GB112072071690","region":"North West","area":"North","totalSurveys":2,"speciesCount":5,"firstSurvey":"06/08/1991","lastSurvey":"21/08/2002"}},{"type":"Feature","geometry":{"type":"Point","coordinates":[-2.63287,54.137287]},"properties":{"siteId":"31651","name":"Arkholme","waterbody":"GB112072066000","region":"North West","area":"North","totalSurveys":1,"speciesCount":0,"firstSurvey":"06/08/1991","lastSurvey":"06/08/1991"}},{"type":"Feature","geometry":{"type":"Point","coordinates":[-2.713543,54.073787]},"properties":{"siteId":"8150","name":"Caton","waterbody":"GB112072065960","region":"North West","area":"North","totalSurveys":9,"speciesCount":8,"firstSurvey":"10/07/1991","lastSurvey":"28/07/2025"}},{"type":"Feature","geometry":{"type":"Point","coordinates":[-2.661704,54.052612]},"properties":{"siteId":"49565","name":"Littledale Hall","waterbody":"GB112072065960","region":"North West","area":"North","totalSurveys":1,"speciesCount":2,"firstSurvey":"02/08/2013","lastSurvey":"02/08/2013"}},{"type":"Feature","geometry":{"type":"Point","coordinates":[-2.831329,54.010421]},"properties":{"siteId":"36704","name":"Ashton Haaf Nets","waterbody":null,"region":"North West","area":"North","totalSurveys":10,"speciesCount":1,"firstSurvey":"05/07/2010","lastSurvey":"28/08/2012"}},{"type":"Feature","geometry":{"type":"Point","coordinates":[-2.6706,54.106049]},"properties":{"siteId":"17730","name":"Aughton Beck Site 1 (200m d/s Road Bridge)","waterbody":"GB112072065980","region":"North West","area":"North","totalSurveys":3,"speciesCount":9,"firstSurvey":"06/10/2005","lastSurvey":"02/07/2013"}},{"type":"Feature","geometry":{"type":"Point","coordinates":[-2.668885,54.106885]},"properties":{"siteId":"17752","name":"Aughton Beck Site 2 (immed u/s Road Bridge)","waterbody":"GB112072065980","region":"North West","area":"North","totalSurveys":1,"speciesCount":4,"firstSurvey":"06/10/2005","lastSurvey":"06/10/2005"}},{"type":"Feature","geometry":{"type":"Point","coordinates":[-2.675127,54.10135]},"properties":{"siteId":"8172","name":"Aughton Below Snab","waterbody":"GB112072065980","region":"North West","area":"North","totalSurveys":2,"speciesCount":4,"firstSurvey":"20/06/1985","lastSurvey":"21/08/2002"}},{"type":"Feature","geometry":{"type":"Point","coordinates":[-2.57583,54.444753]},"properties":{"siteId":"8348","name":"Bankers Pool","waterbody":"GB112072071750","region":"North West","area":"North","totalSurveys":3,"speciesCount":7,"firstSurvey":"19/08/1991","lastSurvey":"27/08/2002"}},{"type":"Feature","geometry":{"type":"Point","coordinates":[-2.59815,54.230243]},"properties":{"siteId":"67623","name":"250 Metres Downstream Beckfoot Farm","waterbody":null,"region":"North West","area":"North","totalSurveys":1,"speciesCount":6,"firstSurvey":"01/08/2016","lastSurvey":"01/08/2016"}},{"type":"Feature","geometry":{"type":"Point","coordinates":[-2.526284,54.242442]},"properties":{"siteId":"11412","name":"Barbon Beck #1","waterbody":"GB112072071700","region":"North West","area":"North","totalSurveys":1,"speciesCount":2,"firstSurvey":"25/08/1993","lastSurvey":"25/08/1993"}},{"type":"Feature","geometry":{"type":"Point","coordinates":[-2.592094,54.230453]},"properties":{"siteId":"11411","name":"Barbon Beck #2","waterbody":null,"region":"North West","area":"North","totalSurveys":1,"speciesCount":2,"firstSurvey":"25/08/1993","lastSurvey":"25/08/1993"}},{"type":"Feature","geometry":{"type":"Point","coordinates":[-2.600772,54.230113]},"properties":{"siteId":"67624","name":"Barbon Beck PTC Lune","waterbody":null,"region":"North West","area":"North","totalSurveys":1,"speciesCount":6,"firstSurvey":"01/08/2016","lastSurvey":"01/08/2016"}},{"type":"Feature","geometry":{"type":"Point","coordinates":[-2.523151,54.243462]},"properties":{"siteId":"31095","name":"Barbon Beck Top","waterbody":"GB112072071700","region":"North West","area":"North","totalSurveys":2,"speciesCount":2,"firstSurvey":"05/08/1982","lastSurvey":"10/07/1984"}},{"type":"Feature","geometry":{"type":"Point","coordinates":[-2.579694,54.237766]},"properties":{"siteId":"67625","name":"Barbon Beck Upstream Hodge Bridge A683","waterbody":null,"region":"North West","area":"North","totalSurveys":1,"speciesCount":5,"firstSurvey":"01/08/2016","lastSurvey":"01/08/2016"}},{"type":"Feature","geometry":{"type":"Point","coordinates":[-2.595134,54.230635]},"properties":{"siteId":"31127","name":"Beckfoot Farm","waterbody":"GB112072071700","region":"North West","area":"North","totalSurveys":5,"speciesCount":2,"firstSurvey":"13/07/1981","lastSurvey":"04/07/1985"}},{"type":"Feature","geometry":{"type":"Point","coordinates":[-2.584563,54.234857]},"properties":{"siteId":"31596","name":"d/s footbridge below A683","waterbody":"GB112072071700","region":"North West","area":"North","totalSurveys":1,"speciesCount":5,"firstSurvey":"24/07/1991","lastSurvey":"24/07/1991"}},{"type":"Feature","geometry":{"type":"Point","coordinates":[-2.607148,54.10635]},"properties":{"siteId":"11410","name":"Mealbank Bridge","waterbody":"GB112072066040","region":"North West","area":"North","totalSurveys":1,"speciesCount":2,"firstSurvey":"25/08/1993","lastSurvey":"25/08/1993"}},{"type":"Feature","geometry":{"type":"Point","coordinates":[-2.519658,54.247629]},