[{"id":"SW-72922272","label":"WOOLLEIGH BROOK ABOVE ROBOROUGH STW","lat":50.93253,"lon":-4.02908,"type":"FRESHWATER - RIVERS","determinands":{"ammonia":{"mean":0.03,"min":0.03,"max":0.03,"latest":0.03,"n_samples":1,"unit":"mg/l","label":"Ammoniacal Nitrogen as N","status":"High","trend":"insufficient_data"},"do_percent":{"mean":93.4,"min":93.4,"max":93.4,"latest":93.4,"n_samples":1,"unit":"%","label":"Dissolved Oxygen (% sat)","status":"High","trend":"insufficient_data"},"nitrate":{"mean":3.5885,"min":1.41,"max":5.34,"latest":2.65,"n_samples":13,"unit":"mg/l","label":"Nitrate as N"},"ph":{"mean":7.3,"min":7.3,"max":7.3,"latest":7.3,"n_samples":1,"unit":"pH","label":"pH","status":"High","trend":"insufficient_data"},"phosphate":{"mean":0.0653,"min":0.02,"max":0.238,"latest":0.031,"n_samples":13,"unit":"mg/l","label":"Orthophosphate, reactive as P","status":"Good","trend":"insufficient_data"},"temperature":{"mean":8.8,"min":8.8,"max":8.8,"latest":8.8,"n_samples":1,"unit":"\u00b0C","label":"Temperature"},"total_oxidised_n":{"mean":3.6062,"min":1.41,"max":5.35,"latest":2.66,"n_samples":13,"unit":"mg/l","label":"Nitrogen, Total Oxidised as N"}},"statuses":{"ammonia":"High","do_percent":"High","ph":"High","phosphate":"Good"},"sample_count":43,"total_samples":43,"earliest_sample":"2013-05-30","latest_sample":"2014-05-21","overall_status":"Good","worst_determinand":"phosphate"},{"id":"SW-91221755","label":"TRIB OF CAUDWORTHY WATER AT STAPLETON","lat":50.72816,"lon":-4.48396,"type":"FRESHWATER - RIVERS","determinands":{"ammonia":{"mean":0.3171,"min":0.03,"max":3.2,"latest":0.03,"n_samples":12,"unit":"mg/l","label":"Ammoniacal Nitrogen as N","status":"Good","trend":"insufficient_data"},"do_percent":{"mean":90.0833,"min":46.5,"max":99.7,"latest":97.2,"n_samples":12,"unit":"%","label":"Dissolved Oxygen (% sat)","status":"High","trend":"insufficient_data"},"nitrate":{"mean":1.0488,"min":0.296,"max":3.1,"latest":1.3,"n_samples":12,"unit":"mg/l","label":"Nitrate as N"},"ph":{"mean":7.175,"min":6.91,"max":7.78,"latest":6.96,"n_samples":12,"unit":"pH","label":"pH","status":"High","trend":"insufficient_data"},"phosphate":{"mean":0.0228,"min":0.01,"max":0.064,"latest":0.018,"n_samples":12,"unit":"mg/l","label":"Orthophosphate, reactive as P","status":"High","trend":"insufficient_data"},"ss":{"mean":56.1417,"min":3.1,"max":420.0,"latest":4.0,"n_samples":12,"unit":"mg/l","label":"Suspended Solids at 105C"},"temperature":{"mean":11.525,"min":7.2,"max":16.6,"latest":7.2,"n_samples":12,"unit":"\u00b0C","label":"Temperature"},"total_oxidised_n":{"mean":1.0583,"min":0.3,"max":3.1,"latest":1.3,"n_samples":12,"unit":"mg/l","label":"Nitrogen, Total Oxidised as N"}},"statuses":{"ammonia":"Good","do_percent":"High","ph":"High","phosphate":"High"},"sample_count":96,"total_samples":96,"earliest_sample":"2023-04-27","latest_sample":"2024-03-05","overall_status":"Good","worst_determinand":"ammonia"},{"id":"SW-72930892","label":"HIGHER SOUTH WHIDDON, BEAWORTHY UPSTREAM GROUNDWATER FOOT & MOUTH","lat":50.77895,"lon":-4.16713,"type":"GROUNDWATER - SPRING","determinands":{"ammonia":{"mean":0.0962,"min":0.03,"max":0.243,"latest":0.083,"n_samples":6,"unit":"mg/l","label":"Ammoniacal Nitrogen as N","status":"High","trend":"insufficient_data"},"ph":{"mean":6.9433,"min":6.6,"max":7.6,"latest":6.6,"n_samples":6,"unit":"pH","label":"pH","status":"High","trend":"insufficient_data"},"ss_alt":{"mean":139.1667,"min":86.0,"max":217.0,"latest":86.0,"n_samples":6,"unit":"mg/l","label":"Suspended Solids (alt)"},"total_oxidised_n":{"mean":0.5183,"min":0.2,"max":0.81,"latest":0.56,"n_samples":6,"unit":"mg/l","label":"Nitrogen, Total Oxidised as N"}},"statuses":{"ammonia":"High","ph":"High"},"sample_count":24,"total_samples":24,"earliest_sample":"2001-10-19","latest_sample":"2002-05-17","overall_status":"High","worst_determinand":"ammonia"},{"id":"SW-81220235","label":"TAMAR ESTUARY AT TINNEL","lat":50.45769,"lon":-4.22718,"type":"SALINE WATER - ESTUARINE SITES - NON BATHING/SHELLFISH","determinands":{"do_percent":{"mean":96.75,"min":95.0,"max":98.5,"latest":98.5,"n_samples":2,"unit":"%","label":"Dissolved Oxygen (% sat)","status":"High","trend":"insufficient_data"},"temperature":{"mean":7.45,"min":6.3,"max":8.6,"latest":8.6,"n_samples":2,"unit":"\u00b0C","label":"Temperature"}},"statuses":{"do_percent":"High"},"sample_count":4,"total_samples":4,"earliest_sample":"2015-02-11","latest_sample":"2015-02-26","overall_status":"High","worst_determinand":"do_percent"},{"id":"SW-73021990","label":"ATHERINGTON  S T W - EFFLUENT","lat":50.99005,"lon":-4.00611,"type":"SEWAGE DISCHARGES - FINAL/TREATED EFFLUENT - WATER COMPANY","determinands":{"ammonia":{"mean":52.1,"min":52.1,"max":52.1,"latest":52.1,"n_samples":1,"unit":"mg/l","label":"Ammoniacal Nitrogen as N","status":"Bad","trend":"insufficient_data"},"bod":{"mean":201.0,"min":201.0,"max":201.0,"latest":201.0,"n_samples":1,"unit":"mg/l","label":"BOD 5 Day ATU","status":"Bad","trend":"insufficient_data"},"ss":{"mean":81.3,"min":81.3,"max":81.3,"latest":81.3,"n_samples":1,"unit":"mg/l","label":"Suspended Solids at 105C"}},"statuses":{"ammonia":"Bad","bod":"Bad"},"sample_count":3,"total_samples":3,"earliest_sample":"2011-06-03","latest_sample":"2011-06-03","overall_status":"Bad","worst_determinand":"ammonia"},{"id":"SW-72922104","label":"DEEPMOOR TIP DMBHG1 21L","lat":50.97146,"lon":-4.10203,"type":"GROUNDWATER - LANDFILL SITE","determinands":{"ammonia":{"mean":0.39,"min":0.17,"max":0.5,"latest":0.5,"n_samples":3,"unit":"mg/l","label":"Ammoniacal Nitrogen as N","status":"Good","trend":"insufficient_data"},"bod":{"mean":3.3333,"min":1.0,"max":5.0,"latest":1.0,"n_samples":3,"unit":"mg/l","label":"BOD 5 Day ATU","status":"High","trend":"insufficient_data"},"ph":{"mean":6.9867,"min":6.8,"max":7.1,"latest":7.1,"n_samples":3,"unit":"pH","label":"pH","status":"High","trend":"insufficient_data"},"ss_alt":{"mean":386.3333,"min":344.0,"max":434.0,"latest":381.0,"n_samples":3,"unit":"mg/l","label":"Suspended Solids (alt)"}},"statuses":{"ammonia":"Good","bod":"High","ph":"High"},"sample_count":12,"total_samples":12,"earliest_sample":"2005-04-20","latest_sample":"2008-01-09","overall_status":"Good","worst_determinand":"ammonia"},{"id":"SW-72922110","label":"DEEPMOOR TIP DMUS6 29L","lat":50.97146,"lon":-4.10203,"type":"GROUNDWATER - LANDFILL SITE","determinands":{"ammonia":{"mean":0.4033,"min":0.21,"max":0.5,"latest":0.5,"n_samples":3,"unit":"mg/l","label":"Ammoniacal Nitrogen as N","status":"Good","trend":"insufficient_data"},"bod":{"mean":3.0,"min":1.0,"max":4.0,"latest":1.0,"n_samples":3,"unit":"mg/l","label":"BOD 5 Day ATU","status":"High","trend":"insufficient_data"},"ph":{"mean":7.4933,"min":7.4,"max":7.6,"latest":7.4,"n_samples":3,"unit":"pH","label":"pH","status":"High","trend":"insufficient_data"},"ss_alt":{"mean":444.6667,"min":311.0,"max":606.0,"latest":311.0,"n_samples":3,"unit":"mg/l","label":"Suspended Solids (alt)"}},"statuses":{"ammonia":"Good","bod":"High","ph":"High"},"sample_count":12,"total_samples":12,"earliest_sample":"2005-04-20","latest_sample":"2007-07-10","overall_status":"Good","worst_determinand":"ammonia"},{"id":"SW-82511126","label":"RAF ST EVAL STW F/E","lat":50.48183,"lon":-4.9836,"type":"SEWAGE DISCHARGES - FINAL/TREATED EFFLUENT - NOT WATER COMPANY","determinands":{"bod":{"mean":20.0257,"min":4.06,"max":71.7,"latest":13.8,"n_samples":30,"unit":"mg/l","label":"BOD 5 Day ATU","status":"Bad","trend":"declining"},"ph":{"mean":7.2533,"min":6.59,"max":7.7,"latest":7.5,"n_samples":30,"unit":"pH","label":"pH","status":"High","trend":"stable"},"ss":{"mean":24.7587,"min":3.0,"max":111.0,"latest":12.4,"n_samples":30,"unit":"mg/l","label":"Suspended Solids at 105C"}},"statuses":{"bod":"Bad","ph":"High"},"sample_count":90,"total_samples":90,"earliest_sample":"2011-03-23","latest_sample":"2014-02-19","overall_status":"Bad","worst_determinand":"bod"},{"id":"SW-72931805","label":"PEACEWATER TIP 5 O/F ON W STREAM","lat":50.73401,"lon":-4.04192,"type":"WASTE SITE - SURFACE WATER MONITORING POINT - LANDFILL","determinands":{"ammonia":{"mean":0.5,"min":0.5,"max":0.5,"latest":0.5,"n_samples":2,"unit":"mg/l","label":"Ammoniacal Nitrogen as N","status":"Good","trend":"insufficient_data"},"ph":{"mean":7.185,"min":6.77,"max":7.6,"latest":7.6,"n_samples":2,"unit":"pH","label":"pH","status":"High","trend":"insufficient_data"},"temperature":{"mean":10.9,"min":10.9,"max":10.9,"latest":10.9,"n_samples":1,"unit":"\u00b0C","label":"Temperature"}},"statuses":{"ammonia":"Good","ph":"High"},"sample_count":5,"total_samples":5,"earliest_sample":"2006-11-22","latest_sample":"2007-07-31","overall_status":"Good","worst_determinand":"ammonia"},{"id":"SW-72931804","label":"PEACEWATER TIP PGW3 (GW)","lat":50.73401,"lon":-4.04192,"type":"GROUNDWATER - LANDFILL SITE","determinands":{"ammonia":{"mean":0.4217,"min":0.03,"max":0.5,"latest":0.5,"n_samples":6,"unit":"mg/l","label":"Ammoniacal Nitrogen as N","status":"Good","trend":"declining"},"bod":{"mean":2.95,"min":1.0,"max":4.0,"latest":3.0,"n_samples":6,"unit":"mg/l","label":"BOD 5 Day ATU","status":"High","trend":"improving"},"ph":{"mean":5.63,"min":5.2,"max":6.1,"latest":6.0,"n_samples":6,"unit":"pH","label":"pH","status":"Poor","trend":"increasing"},"ss_alt":{"mean":140.8333,"min":117.0,"max":206.0,"latest":117.0,"n_samples":6,"unit":"mg/l","label":"Suspended Solids (alt)"}},"statuses":{"ammonia":"Good","bod":"High","ph":"Poor"},"sample_count":24,"total_samples":24,"earliest_sample":"2005-08-16","latest_sample":"2008-04-08","overall_status":"Poor","worst_determinand":"ph"},{"id":"SW-72922111","label":"DEEPMOOR TIP DMTLEO 30L","lat":50.97146,"lon":-4.10203,"type":"WASTE SITE - LEACHATE BOREHOLE","determinands":{"ammonia":{"mean":47.675,"min":0.5,"max":86.4,"latest":39.3,"n_samples":4,"unit":"mg/l","label":"Ammoniacal Nitrogen as N","status":"Bad","trend":"insufficient_data"},"bod":{"mean":13.5625,"min":7.5,"max":23.0,"latest":9.75,"n_samples":4,"unit":"mg/l","label":"BOD 5 Day ATU","status":"Bad","trend":"insufficient_data"},"ph":{"mean":6.8725,"min":6.4,"max":7.4,"latest":6.4,"n_samples":4,"unit":"pH","label":"pH","status":"High","trend":"insufficient_data"},"ss_alt":{"mean":4140.0,"min":2840.0,"max":6830.0,"latest":6830.0,"n_samples":4,"unit":"mg/l","label":"Suspended Solids (alt)"}},"statuses":{"ammonia":"Bad","bod":"Bad","ph":"High"},"sample_count":16,"total_samples":16,"earliest_sample":"2005-04-20","latest_sample":"2008-04-21","overall_status":"Bad","worst_determinand":"ammonia"},{"id":"SW-72922105","label":"DEEPMOOR TIP DMBHG222L","lat":50.97146,"lon":-4.10203,"type":"GROUNDWATER - LANDFILL SITE","determinands":{"ammonia":{"mean":2.685,"min":0.91,"max":5.7,"latest":0.91,"n_samples":4,"unit":"mg/l","label":"Ammoniacal Nitrogen as N","status":"Bad","trend":"insufficient_data"},"bod":{"mean":2.55,"min":1.0,"max":4.0,"latest":1.0,"n_samples":4,"unit":"mg/l","label":"BOD 5 Day ATU","status":"High","trend":"insufficient_data"},"ph":{"mean":6.1075,"min":6.0,"max":6.3,"latest":6.0,"n_samples":4,"unit":"pH","label":"pH","status":"Good","trend":"insufficient_data"},"ss_alt":{"mean":789.5,"min":569.0,"max":1110.0,"latest":569.0,"n_samples":4,"unit":"mg/l","label":"Suspended Solids (alt)"}},"statuses":{"ammonia":"Bad","bod":"High","ph":"Good"},"sample_count":16,"total_samples":16,"earliest_sample":"2005-04-20","latest_sample":"2008-01-09","overall_status":"Bad","worst_determinand":"ammonia"},{"id":"SW-72930449","label":"HORTON BRIDGE","lat":50.93913,"lon":-4.4219,"type":"FRESHWATER - UNSPECIFIED","determinands":{"ammonia":{"mean":0.3282,"min":0.077,"max":0.5,"latest":0.236,"n_samples":4,"unit":"mg/l","label":"Ammoniacal Nitrogen as N","status":"Good","trend":"insufficient_data"},"bod":{"mean":4.2,"min":2.1,"max":7.3,"latest":7.3,"n_samples":4,"unit":"mg/l","label":"BOD 5 Day ATU","status":"Good","trend":"insufficient_data"},"ph":{"mean":6.27,"min":6.27,"max":6.27,"latest":6.27,"n_samples":1,"unit":"pH","label":"pH","status":"Good","trend":"insufficient_data"},"ss":{"mean":11.7472,"min":3.0,"max":139.0,"latest":3.0,"n_samples":36,"unit":"mg/l","label":"Suspended Solids at 105C"},"temperature":{"mean":15.4,"min":15.4,"max":15.4,"latest":15.4,"n_samples":1,"unit":"\u00b0C","label":"Temperature"}},"statuses":{"ammonia":"Good","bod":"Good","ph":"Good"},"sample_count":46,"total_samples":46,"earliest_sample":"2002-10-14","latest_sample":"2006-12-12","overall_status":"Good","worst_determinand":"ammonia"},{"id":"SW-82710685","label":"JACOB STREAM BELOW JACOBSTOW STW (SOUTH PARK)","lat":50.73466,"lon":-4.5479,"type":"FRESHWATER - RIVERS","determinands":{"ammonia":{"mean":0.5935,"min":0.03,"max":1.69,"latest":0.03,"n_samples":4,"unit":"mg/l","label":"Ammoniacal Nitrogen as N","status":"Good","trend":"insufficient_data"},"do_percent":{"mean":88.25,"min":80.0,"max":92.0,"latest":92.0,"n_samples":4,"unit":"%","label":"Dissolved Oxygen (% sat)","status":"High","trend":"insufficient_data"},"nitrate":{"mean":1.2142,"min":0.649,"max":1.95,"latest":1.95,"n_samples":4,"unit":"mg/l","label":"Nitrate as N"},"ph":{"mean":7.3625,"min":7.2,"max":7.6,"latest":7.25,"n_samples":4,"unit":"pH","label":"pH","status":"High","trend":"insufficient_data"},"phosphate":{"mean":0.1412,"min":0.014,"max":0.371,"latest":0.014,"n_samples":4,"unit":"mg/l","label":"Orthophosphate, reactive as P","status":"Moderate","trend":"insufficient_data"},"temperature":{"mean":12.875,"min":11.4,"max":14.0,"latest":11.4,"n_samples":4,"unit":"\u00b0C","label":"Temperature"},"total_oxidised_n":{"mean":1.2275,"min":0.68,"max":1.95,"latest":1.95,"n_samples":4,"unit":"mg/l","label":"Nitrogen, Total Oxidised as N"}},"statuses":{"ammonia":"Good","do_percent":"High","ph":"High","phosphate":"Moderate"},"sample_count":28,"total_samples":28,"earliest_sample":"2014-07-09","latest_sample":"2014-10-22","overall_status":"Moderate","worst_determinand":"phosphate"},{"id":"SW-81250274","label":"GREYSTONE QUARRY OUTLET B","lat":50.59977,"lon":-4.31873,"type":"TRADE DISCHARGES - MINERAL WORKINGS","determinands":{"ammonia":{"mean":0.5,"min":0.5,"max":0.5,"latest":0.5,"n_samples":1,"unit":"mg/l","label":"Ammoniacal Nitrogen as N","status":"Good","trend":"insufficient_data"},"bod":{"mean":3.0,"min":3.0,"max":3.0,"latest":3.0,"n_samples":1,"unit":"mg/l","label":"BOD 5 Day ATU","status":"High","trend":"insufficient_data"},"do_percent":{"mean":48.0,"min":48.0,"max":48.0,"latest":48.0,"n_samples":1,"unit":"%","label":"Dissolved Oxygen (% sat)","status":"Poor","trend":"insufficient_data"},"ph":{"mean":7.54,"min":7.0,"max":8.14,"latest":7.08,"n_samples":18,"unit":"pH","label":"pH","status":"High","trend":"stable"},"ss":{"mean":7.3756,"min":3.0,"max":45.5,"latest":5.5,"n_samples":18,"unit":"mg/l","label":"Suspended Solids at 105C"},"temperature":{"mean":10.4778,"min":7.4,"max":19.8,"latest":12.0,"n_samples":18,"unit":"\u00b0C","label":"Temperature"}},"statuses":{"ammonia":"Good","bod":"High","do_percent":"Poor","ph":"High"},"sample_count":57,"total_samples":57,"earliest_sample":"2001-07-13","latest_sample":"2021-11-03","overall_status":"Poor","worst_determinand":"do_percent"},{"id":"SW-72922271","label":"ROBOROUGH STW - OUTLET TO WOOLEIGH BROOK","lat":50.93258,"lon":-4.02919,"type":"SEWAGE DISCHARGES - FINAL/TREATED EFFLUENT - WATER COMPANY","determinands":{"ammonia":{"mean":3.945,"min":0.77,"max":7.12,"latest":7.12,"n_samples":2,"unit":"mg/l","label":"Ammoniacal Nitrogen as N","status":"Bad","trend":"insufficient_data"},"bod":{"mean":12.1,"min":12.1,"max":12.1,"latest":12.1,"n_samples":1,"unit":"mg/l","label":"BOD 5 Day ATU","status":"Bad","trend":"insufficient_data"},"do_percent":{"mean":77.0,"min":77.0,"max":77.0,"latest":77.0,"n_samples":1,"unit":"%","label":"Dissolved Oxygen (% sat)","status":"Good","trend":"insufficient_data"},"nitrate":{"mean":6.8292,"min":2.91,"max":17.6,"latest":17.6,"n_samples":12,"unit":"mg/l","label":"Nitrate as N"},"ph":{"mean":7.0,"min":7.0,"max":7.0,"latest":7.0,"n_samples":1,"unit":"pH","label":"pH","status":"High","trend":"insufficient_data"},"phosphate":{"mean":2.9908,"min":0.69,"max":7.52,"latest":5.64,"n_samples":12,"unit":"mg/l","label":"Orthophosphate, reactive as P","status":"Bad","trend":"insufficient_data"},"ss":{"mean":20.5,"min":20.5,"max":20.5,"latest":20.5,"n_samples":1,"unit":"mg/l","label":"Suspended Solids at 105C"},"temperature":{"mean":9.3,"min":9.3,"max":9.3,"latest":9.3,"n_samples":1,"unit":"\u00b0C","label":"Temperature"},"total_oxidised_n":{"mean":7.53,"min":3.4,"max":18.5,"latest":18.5,"n_samples":12,"unit":"mg/l","label":"Nitrogen, Total Oxidised as N"}},"statuses":{"ammonia":"Bad","bod":"Bad","do_percent":"Good","ph":"High","phosphate":"Bad"},"sample_count":43,"total_samples":43,"earliest_sample":"2013-10-16","latest_sample":"2014-05-21","overall_status":"Bad","worst_determinand":"ammonia"},{"id":"SW-72930891","label":"HIGHER SOUTH WHIDDON, BEAWORTHY DOWNSTREAM GROUNDWATER FOOT & MOUTH","lat":50.77848,"lon":-4.16826,"type":"FRESHWATER - RIVERS","determinands":{"ammonia":{"mean":0.1533,"min":0.03,"max":0.435,"latest":0.435,"n_samples":6,"unit":"mg/l","label":"Ammoniacal Nitrogen as N","status":"High","trend":"insufficient_data"},"ph":{"mean":7.075,"min":6.6,"max":7.5,"latest":6.6,"n_samples":6,"unit":"pH","label":"pH","status":"High","trend":"insufficient_data"},"ss_alt":{"mean":125.3333,"min":92.0,"max":175.0,"latest":99.0,"n_samples":6,"unit":"mg/l","label":"Suspended Solids (alt)"},"total_oxidised_n":{"mean":0.8717,"min":0.29,"max":1.3,"latest":0.69,"n_samples":6,"unit":"mg/l","label":"Nitrogen, Total Oxidised as N"}},"statuses":{"ammonia":"High","ph":"High"},"sample_count":24,"total_samples":24,"earliest_sample":"2001-10-19","latest_sample":"2002-05-17","overall_status":"High","worst_determinand":"ammonia"},{"id":"SW-82518049","label":"CAMEL ESTUARY ROCK BEACH TRAC FISH COLUMN DATA","lat":50.54727,"lon":-4.92895,"type":"SALINE WATER - ESTUARINE SITES - NON BATHING/SHELLFISH","determinands":{"do_percent":{"mean":93.9667,"min":92.0,"max":97.9,"latest":92.0,"n_samples":3,"unit":"%","label":"Dissolved Oxygen (% sat)","status":"High","trend":"declining"},"temperature":{"mean":16.9667,"min":16.9,"max":17.0,"latest":17.0,"n_samples":3,"unit":"\u00b0C","label":"Temperature"}},"statuses":{"do_percent":"High"},"sample_count":6,"total_samples":46,"earliest_sample":"2007-06-28","latest_sample":"2025-09-19","overall_status":"High","worst_determinand":"do_percent"},{"id":"SW-81221935","label":"ABOVE MILTON COOMBE     MILTON BROOK","lat":50.4734,"lon":-4.13073,"type":"FRESHWATER - RIVERS","determinands":{"ammonia":{"mean":0.03,"min":0.03,"max":0.03,"latest":0.03,"n_samples":1,"unit":"mg/l","label":"Ammoniacal Nitrogen as N","status":"High","trend":"insufficient_data"},"bod":{"mean":1.0,"min":1.0,"max":1.0,"latest":1.0,"n_samples":1,"unit":"mg/l","label":"BOD 5 Day ATU","status":"High","trend":"insufficient_data"},"do_percent":{"mean":93.5,"min":93.5,"max":93.5,"latest":93.5,"n_samples":1,"unit":"%","label":"Dissolved Oxygen (% sat)","status":"High","trend":"insufficient_data"},"nitrate":{"mean":4.23,"min":4.23,"max":4.23,"latest":4.23,"n_samples":1,"unit":"mg/l","label":"Nitrate as N"},"ph":{"mean":7.69,"min":7.69,"max":7.69,"latest":7.69,"n_samples":1,"unit":"pH","label":"pH","status":"High","trend":"insufficient_data"},"phosphate":{"mean":0.173,"min":0.173,"max":0.173,"latest":0.173,"n_samples":1,"unit":"mg/l","label":"Orthophosphate, reactive as P","status":"Moderate","trend":"insufficient_data"},"ss":{"mean":3.0,"min":3.0,"max":3.0,"latest":3.0,"n_samples":1,"unit":"mg/l","label":"Suspended Solids at 105C"},"temperature":{"mean":12.88,"min":12.88,"max":12.88,"latest":12.88,"n_samples":1,"unit":"\u00b0C","label":"Temperature"},"total_oxidised_n":{"mean":4.23,"min":4.23,"max":4.23,"latest":4.23,"n_samples":1,"unit":"mg/l","label":"Nitrogen, Total Oxidised as N"}},"statuses":{"ammonia":"High","bod":"High","do_percent":"High","ph":"High","phosphate":"Moderate"},"sample_count":9,"total_samples":9,"earliest_sample":"2004-09-24","latest_sample":"2004-09-24","overall_status":"Moderate","worst_determinand":"phosphate"},{"id":"SW-72931806","label":"PEACEWATER TIP D/S O/F CULVERT","lat":50.73401,"lon":-4.04192,"type":"WASTE SITE - SURFACE WATER MONITORING POINT - LANDFILL","determinands":{"ammonia":{"mean":1.315,"min":0.5,"max":3.3,"latest":2.09,"n_samples":6,"unit":"mg/l","label":"Ammoniacal Nitrogen as N","status":"Poor","trend":"improving"},"ph":{"mean":7.1333,"min":6.5,"max":7.6,"latest":7.2,"n_samples":6,"unit":"pH","label":"pH","status":"High","trend":"increasing"},"temperature":{"mean":11.95,"min":11.4,"max":12.5,"latest":11.8,"n_samples":4,"unit":"\u00b0C","label":"Temperature"}},"statuses":{"ammonia":"Poor","ph":"High"},"sample_count":16,"total_samples":16,"earliest_sample":"2005-08-16","latest_sample":"2008-04-08","overall_status":"Poor","worst_determinand":"ammonia"},{"id":"SW-81522519","label":"EAST TAPHOUSE STREAM BELOW EAST TAPHOUSE STW","lat":50.44232,"lon":-4.56526,"type":"FRESHWATER - RIVERS","determinands":{"ammonia":{"mean":0.985,"min":0.03,"max":1.94,"latest":1.94,"n_samples":2,"unit":"mg/l","label":"Ammoniacal Nitrogen as N","status":"Moderate","trend":"insufficient_data"},"bod":{"mean":1.775,"min":1.3,"max":2.25,"latest":1.3,"n_samples":2,"unit":"mg/l","label":"BOD 5 Day ATU","status":"High","trend":"insufficient_data"},"ph":{"mean":7.8,"min":7.8,"max":7.8,"latest":7.8,"n_samples":1,"unit":"pH","label":"pH","status":"High","trend":"insufficient_data"},"ss":{"mean":11.4,"min":11.4,"max":11.4,"latest":11.4,"n_samples":1,"unit":"mg/l","label":"Suspended Solids at 105C"}},"statuses":{"ammonia":"Moderate","bod":"High","ph":"High"},"sample_count":6,"total_samples":6,"earliest_sample":"2005-07-20","latest_sample":"2007-11-12","overall_status":"Moderate","worst_determinand":"ammonia"},{"id":"SW-72931813","label":"PEACEWATER TIP O/F OPP SITE ENT","lat":50.73401,"lon":-4.04192,"type":"WASTE SITE - SURFACE WATER MONITORING POINT - LANDFILL","determinands":{"ammonia":{"mean":0.5,"min":0.5,"max":0.5,"latest":0.5,"n_samples":5,"unit":"mg/l","label":"Ammoniacal Nitrogen as N","status":"Good","trend":"insufficient_data"},"ph":{"mean":6.774,"min":6.0,"max":7.6,"latest":7.0,"n_samples":5,"unit":"pH","label":"pH","status":"High","trend":"insufficient_data"},"temperature":{"mean":11.65,"min":10.8,"max":12.6,"latest":11.3,"n_samples":4,"unit":"\u00b0C","label":"Temperature"}},"statuses":{"ammonia":"Good","ph":"High"},"sample_count":14,"total_samples":14,"earliest_sample":"2006-11-22","latest_sample":"2008-04-08","overall_status":"Good","worst_determinand":"ammonia"},{"id":"SW-81522733","label":"TREVENNA     ST. NEOT RIVER   (FOWEY)","lat":50.48986,"lon":-4.5629,"type":"FRESHWATER - RIVERS","determinands":{"ammonia":{"mean":0.03,"min":0.03,"max":0.03,"latest":0.03,"n_samples":1,"unit":"mg/l","label":"Ammoniacal Nitrogen as N","status":"High","trend":"insufficient_data"},"do_percent":{"mean":100.0,"min":100.0,"max":100.0,"latest":100.0,"n_samples":1,"unit":"%","label":"Dissolved Oxygen (% sat)","status":"High","trend":"insufficient_data"},"nitrate":{"mean":0.456,"min":0.456,"max":0.456,"latest":0.456,"n_samples":1,"unit":"mg/l","label":"Nitrate as N"},"ph":{"mean":7.04,"min":7.04,"max":7.04,"latest":7.04,"n_samples":1,"unit":"pH","label":"pH","status":"High","trend":"insufficient_data"},"phosphate":{"mean":0.02,"min":0.02,"max":0.02,"latest":0.02,"n_samples":1,"unit":"mg/l","label":"Orthophosphate, reactive as P","status":"High","trend":"insufficient_data"},"ss":{"mean":9.6,"min":9.6,"max":9.6,"latest":9.6,"n_samples":1,"unit":"mg/l","label":"Suspended Solids at 105C"},"ss_alt":{"mean":64.0,"min":64.0,"max":64.0,"latest":64.0,"n_samples":1,"unit":"mg/l","label":"Suspended Solids (alt)"},"temperature":{"mean":14.5,"min":14.5,"max":14.5,"latest":14.5,"n_samples":1,"unit":"\u00b0C","label":"Temperature"},"total_oxidised_n":{"mean":0.46,"min":0.46,"max":0.46,"latest":0.46,"n_samples":1,"unit":"mg/l","label":"Nitrogen, Total Oxidised as N"}},"statuses":{"ammonia":"High","do_percent":"High","ph":"High","phosphate":"High"},"sample_count":9,"total_samples":9,"earliest_sample":"2013-06-07","latest_sample":"2013-06-07","overall_status":"High","worst_determinand":"ammonia"},{"id":"SW-72922106","label":"DEEPMOOR TIP DMBHG3 23L","lat":50.97146,"lon":-4.10203,"type":"GROUNDWATER - LANDFILL SITE","determinands":{"ammonia":{"mean":0.36,"min":0.08,"max":0.5,"latest":0.5,"n_samples":3,"unit":"mg/l","label":"Ammoniacal Nitrogen as N","status":"Good","trend":"insufficient_data"},"bod":{"mean":3.6333,"min":1.9,"max":5.0,"latest":1.9,"n_samples":3,"unit":"mg/l","label":"BOD 5 Day ATU","status":"High","trend":"insufficient_data"},"ph":{"mean":6.4933,"min":6.3,"max":6.8,"latest":6.3,"n_samples":3,"unit":"pH","label":"pH","status":"Good","trend":"insufficient_data"},"ss_alt":{"mean":195.6667,"min":180.0,"max":217.0,"latest":180.0,"n_samples":3,"unit":"mg/l","label":"Suspended Solids (alt)"}},"statuses":{"ammonia":"Good","bod":"High","ph":"Good"},"sample_count":12,"total_samples":12,"earliest_sample":"2005-04-20","latest_sample":"2008-01-09","overall_status":"Good","worst_determinand":"ammonia"},{"id":"SW-81218804","label":"INVESTIGATION IN CATCHMENT 12A","lat":50.36761,"lon":-4.19055,"type":"POLLUTION/INVESTIGATION POINTS - ENVIRONMENT","determinands":{"ss":{"mean":6.38,"min":4.3,"max":9.7,"latest":9.7,"n_samples":10,"unit":"mg/l","label":"Suspended Solids at 105C"}},"statuses":{},"sample_count":10,"total_samples":10,"earliest_sample":"2002-11-27","latest_sample":"2002-11-27","overall_status":"Unknown","worst_determinand":null},{"id":"SW-72922099","label":"DEEPMOOR TIP DMUS5 14L","lat":50.97146,"lon":-4.10203,"type":"WASTE SITE - SURFACE WATER MONITORING POINT - LANDFILL","determinands":{"ammonia":{"mean":1.01,"min":0.11,"max":2.77,"latest":0.5,"n_samples":6,"unit":"mg/l","label":"Ammoniacal Nitrogen as N","status":"Moderate","trend":"stable"},"ph":{"mean":7.3333,"min":6.8,"max":7.7,"latest":7.6,"n_samples":6,"unit":"pH","label":"pH","status":"High","trend":"stable"},"temperature":{"mean":11.3,"min":10.2,"max":13.4,"latest":10.3,"n_samples":3,"unit":"\u00b0C","label":"Temperature"}},"statuses":{"ammonia":"Moderate","ph":"High"},"sample_count":15,"total_samples":15,"earliest_sample":"2005-08-24","latest_sample":"2008-06-17","overall_status":"Moderate","worst_determinand":"ammonia"},{"id":"SW-82514128","label":"LITTLE BODIEVE HOLIDAY PARK","lat":50.52772,"lon":-4.8276,"type":"SEWAGE DISCHARGES - FINAL/TREATED EFFLUENT - NOT WATER COMPANY","determinands":{"ammonia":{"mean":15.06,"min":8.3,"max":20.0,"latest":8.3,"n_samples":5,"unit":"mg/l","label":"Ammoniacal Nitrogen as N","status":"Bad","trend":"improving"},"bod":{"mean":4.46,"min":3.0,"max":6.4,"latest":3.6,"n_samples":5,"unit":"mg/l","label":"BOD 5 Day ATU","status":"Good","trend":"improving"},"phosphate":{"mean":12.0,"min":12.0,"max":12.0,"latest":12.0,"n_samples":1,"unit":"mg/l","label":"Orthophosphate, reactive as P","status":"Bad","trend":"insufficient_data"},"ss":{"mean":21.66,"min":7.3,"max":43.0,"latest":43.0,"n_samples":5,"unit":"mg/l","label":"Suspended Solids at 105C"},"total_oxidised_n":{"mean":27.0,"min":27.0,"max":27.0,"latest":27.0,"n_samples":1,"unit":"mg/l","label":"Nitrogen, Total Oxidised as N"}},"statuses":{"ammonia":"Bad","bod":"Good","phosphate":"Bad"},"sample_count":17,"total_samples":39,"earliest_sample":"2011-07-06","latest_sample":"2023-10-09","overall_status":"Bad","worst_determinand":"ammonia"},{"id":"SW-73021992","label":"CHANTRY STREAM ABOVE ATHERINGTON STW","lat":50.99018,"lon":-4.00533,"type":"FRESHWATER - RIVERS","determinands":{"ammonia":{"mean":0.0344,"min":0.03,"max":0.045,"latest":0.03,"n_samples":7,"unit":"mg/l","label":"Ammoniacal Nitrogen as N","status":"High","trend":"insufficient_data"},"bod":{"mean":1.3714,"min":1.0,"max":1.9,"latest":1.0,"n_samples":7,"unit":"mg/l","label":"BOD 5 Day ATU","status":"High","trend":"insufficient_data"},"do_percent":{"mean":96.1714,"min":88.2,"max":105.0,"latest":88.2,"n_samples":7,"unit":"%","label":"Dissolved Oxygen (% sat)","status":"High","trend":"insufficient_data"},"ss":{"mean":26.0857,"min":6.9,"max":56.4,"latest":6.9,"n_samples":7,"unit":"mg/l","label":"Suspended Solids at 105C"},"temperature":{"mean":9.3686,"min":6.9,"max":11.5,"latest":8.88,"n_samples":7,"unit":"\u00b0C","label":"Temperature"}},"statuses":{"ammonia":"High","bod":"High","do_percent":"High"},"sample_count":35,"total_samples":35,"earliest_sample":"2000-01-28","latest_sample":"2002-03-05","overall_status":"High","worst_determinand":"ammonia"},{"id":"SW-72922270","label":"ROBOROUGH  S T W - EFFLUENT","lat":50.93212,"lon":-4.02781,"type":"SEWAGE DISCHARGES - FINAL/TREATED EFFLUENT - WATER COMPANY","determinands":{"ammonia":{"mean":1.674,"min":0.5,"max":3.04,"latest":3.04,"n_samples":5,"unit":"mg/l","label":"Ammoniacal Nitrogen as N","status":"Poor","trend":"insufficient_data"},"bod":{"mean":9.84,"min":7.4,"max":13.5,"latest":9.2,"n_samples":5,"unit":"mg/l","label":"BOD 5 Day ATU","status":"Bad","trend":"insufficient_data"},"nitrate":{"mean":4.3,"min":4.3,"max":4.3,"latest":4.3,"n_samples":1,"unit":"mg/l","label":"Nitrate as N"},"ph":{"mean":7.02,"min":6.9,"max":7.15,"latest":7.15,"n_samples":5,"unit":"pH","label":"pH","status":"High","trend":"insufficient_data"},"phosphate":{"mean":5.13,"min":5.13,"max":5.13,"latest":5.13,"n_samples":1,"unit":"mg/l","label":"Orthophosphate, reactive as P","status":"Bad","trend":"insufficient_data"},"ss":{"mean":12.72,"min":5.3,"max":19.1,"latest":14.2,"n_samples":5,"unit":"mg/l","label":"Suspended Solids at 105C"},"total_oxidised_n":{"mean":8.2,"min":8.2,"max":8.2,"latest":8.2,"n_samples":1,"unit":"mg/l","label":"Nitrogen, Total Oxidised as N"}},"statuses":{"ammonia":"Poor","bod":"Bad","ph":"High","phosphate":"Bad"},"sample_count":23,"total_samples":23,"earliest_sample":"2000-01-18","latest_sample":"2013-05-30","overall_status":"Bad","worst_determinand":"bod"},{"id":"SW-82510160","label":"PORTH STREAM U/S NANKELLY BRIDGE","lat":50.42,"lon":-4.95249,"type":"FRESHWATER - RIVERS","determinands":{"ammonia":{"mean":0.0335,"min":0.03,"max":0.037,"latest":0.03,"n_samples":2,"unit":"mg/l","label":"Ammoniacal Nitrogen as N","status":"High","trend":"insufficient_data"},"bod":{"mean":1.605,"min":1.0,"max":2.21,"latest":1.0,"n_samples":2,"unit":"mg/l","label":"BOD 5 Day ATU","status":"High","trend":"insufficient_data"},"phosphate":{"mean":0.037,"min":0.02,"max":0.054,"latest":0.02,"n_samples":2,"unit":"mg/l","label":"Orthophosphate, reactive as P","status":"Good","trend":"insufficient_data"},"total_oxidised_n":{"mean":2.93,"min":1.79,"max":4.07,"latest":4.07,"n_samples":2,"unit":"mg/l","label":"Nitrogen, Total Oxidised as N"}},"statuses":{"ammonia":"High","bod":"High","phosphate":"Good"},"sample_count":8,"total_samples":8,"earliest_sample":"2015-08-19","latest_sample":"2015-09-08","overall_status":"Good","worst_determinand":"phosphate"},{"id":"SW-72931591","label":"ASHBURY HOTEL AND GOLF COURSE OKEHAMPTON BY DRIVING RANGE","lat":50.73665,"lon":-4.06783,"type":"SEWAGE & TRADE COMBINED - UNSPECIFIED","determinands":{"ammonia":{"mean":14.6545,"min":5.2,"max":26.0,"latest":26.0,"n_samples":11,"unit":"mg/l","label":"Ammoniacal Nitrogen as N","status":"Bad","trend":"improving"},"bod":{"mean":3.0,"min":3.0,"max":3.0,"latest":3.0,"n_samples":1,"unit":"mg/l","label":"BOD 5 Day ATU","status":"High","trend":"insufficient_data"},"ph":{"mean":3.81,"min":3.81,"max":3.81,"latest":3.81,"n_samples":1,"unit":"pH","label":"pH","status":"Poor","trend":"insufficient_data"},"phosphate":{"mean":13.0,"min":13.0,"max":13.0,"latest":13.0,"n_samples":1,"unit":"mg/l","label":"Orthophosphate, reactive as P","status":"Bad","trend":"insufficient_data"},"ss":{"mean":11.0,"min":11.0,"max":11.0,"latest":11.0,"n_samples":1,"unit":"mg/l","label":"Suspended Solids at 105C"},"total_oxidised_n":{"mean":36.0,"min":36.0,"max":36.0,"latest":36.0,"n_samples":1,"unit":"mg/l","label":"Nitrogen, Total Oxidised as N"}},"statuses":{"ammonia":"Bad","bod":"High","ph":"Poor","phosphate":"Bad"},"sample_count":16,"total_samples":21,"earliest_sample":"2019-02-05","latest_sample":"2026-01-21","overall_status":"Bad","worst_determinand":"ammonia"},{"id":"SW-82514110","label":"WADEBRIDGE S T W - INLET","lat":50.52497,"lon":-4.84938,"type":"SEWAGE - CRUDE TO FURTHER TREATMENT - WATER COMPANY","determinands":{"bod":{"mean":57.2162,"min":3.0,"max":453.0,"latest":28.0,"n_samples":37,"unit":"mg/l","label":"BOD 5 Day ATU","status":"Bad","trend":"declining"}},"statuses":{"bod":"Bad"},"sample_count":37,"total_samples":37,"earliest_sample":"2006-02-10","latest_sample":"2014-07-02","overall_status":"Bad","worst_determinand":"bod"},{"id":"SW-72922102","label":"DEEPMOOR TIP DMBHL3 19L","lat":50.97146,"lon":-4.10203,"type":"WASTE SITE - LEACHATE BOREHOLE","determinands":{"ammonia":{"mean":4.1675,"min":1.57,"max":7.0,"latest":3.6,"n_samples":4,"unit":"mg/l","label":"Ammoniacal Nitrogen as N","status":"Bad","trend":"insufficient_data"},"bod":{"mean":10.735,"min":5.0,"max":23.4,"latest":5.54,"n_samples":4,"unit":"mg/l","label":"BOD 5 Day ATU","status":"Bad","trend":"insufficient_data"},"ph":{"mean":6.965,"min":6.8,"max":7.1,"latest":7.1,"n_samples":4,"unit":"pH","label":"pH","status":"High","trend":"insufficient_data"},"ss_alt":{"mean":1045.25,"min":796.0,"max":1580.0,"latest":828.0,"n_samples":4,"unit":"mg/l","label":"Suspended Solids (alt)"}},"statuses":{"ammonia":"Bad","bod":"Bad","ph":"High"},"sample_count":16,"total_samples":16,"earliest_sample":"2005-04-20","latest_sample":"2008-04-21","overall_status":"Bad","worst_determinand":"ammonia"},{"id":"SW-72931803","label":"PEACEWATER TIP PGW2 (GW)","lat":50.73401,"lon":-4.04192,"type":"GROUNDWATER - LANDFILL SITE","determinands":{"ammonia":{"mean":0.4217,"min":0.03,"max":0.5,"latest":0.5,"n_samples":6,"unit":"mg/l","label":"Ammoniacal Nitrogen as N","status":"Good","trend":"declining"},"bod":{"mean":3.3,"min":1.0,"max":5.0,"latest":4.0,"n_samples":6,"unit":"mg/l","label":"BOD 5 Day ATU","status":"High","trend":"improving"},"ph":{"mean":6.3333,"min":5.9,"max":6.7,"latest":6.4,"n_samples":6,"unit":"pH","label":"pH","status":"Good","trend":"stable"},"ss_alt":{"mean":185.3333,"min":177.0,"max":199.0,"latest":181.0,"n_samples":6,"unit":"mg/l","label":"Suspended Solids (alt)"}},"statuses":{"ammonia":"Good","bod":"High","ph":"Good"},"sample_count":24,"total_samples":24,"earliest_sample":"2005-08-16","latest_sample":"2008-04-08","overall_status":"Good","worst_determinand":"ammonia"},{"id":"SW-72931816","label":"PEACEWATER TIP POINT 2 EAST","lat":50.73401,"lon":-4.04192,"type":"WASTE SITE - SURFACE WATER MONITORING POINT - LANDFILL","determinands":{"ammonia":{"mean":0.5,"min":0.5,"max":0.5,"latest":0.5,"n_samples":1,"unit":"mg/l","label":"Ammoniacal Nitrogen as N","status":"Good","trend":"insufficient_data"},"ph":{"mean":6.4,"min":6.4,"max":6.4,"latest":6.4,"n_samples":1,"unit":"pH","label":"pH","status":"Good","trend":"insufficient_data"},"temperature":{"mean":10.4,"min":10.4,"max":10.4,"latest":10.4,"n_samples":1,"unit":"\u00b0C","label":"Temperature"}},"statuses":{"ammonia":"Good","ph":"Good"},"sample_count":3,"total_samples":3,"earliest_sample":"2007-03-08","latest_sample":"2007-03-08","overall_status":"Good","worst_determinand":"ammonia"},{"id":"SW-72922103","label":"DEEPMOOR TIP DMBHL4 20L","lat":50.97146,"lon":-4.10203,"type":"WASTE SITE - LEACHATE BOREHOLE","determinands":{"ammonia":{"mean":192.2,"min":153.0,"max":217.0,"latest":200.0,"n_samples":5,"unit":"mg/l","label":"Ammoniacal Nitrogen as N","status":"Bad","trend":"declining"},"bod":{"mean":17.96,"min":7.0,"max":26.9,"latest":21.4,"n_samples":5,"unit":"mg/l","label":"BOD 5 Day ATU","status":"Bad","trend":"declining"},"ph":{"mean":7.012,"min":6.9,"max":7.1,"latest":7.1,"n_samples":5,"unit":"pH","label":"pH","status":"High","trend":"stable"},"ss_alt":{"mean":3170.0,"min":2710.0,"max":3540.0,"latest":3310.0,"n_samples":5,"unit":"mg/l","label":"Suspended Solids (alt)"},"temperature":{"mean":14.9,"min":14.9,"max":14.9,"latest":14.9,"n_samples":1,"unit":"\u00b0C","label":"Temperature"}},"statuses":{"ammonia":"Bad","bod":"Bad","ph":"High"},"sample_count":21,"total_samples":21,"earliest_sample":"2005-04-20","latest_sample":"2008-04-21","overall_status":"Bad","worst_determinand":"ammonia"},{"id":"SW-72922117","label":"DEEPMOOR TIP DMTLEI 44L","lat":50.97146,"lon":-4.10203,"type":"WASTE SITE - LEACHATE BOREHOLE","determinands":{"ammonia":{"mean":167.25,"min":0.5,"max":334.0,"latest":0.5,"n_samples":2,"unit":"mg/l","label":"Ammoniacal Nitrogen as N","status":"Bad","trend":"insufficient_data"},"bod":{"mean":26.65,"min":18.3,"max":35.0,"latest":18.3,"n_samples":2,"unit":"mg/l","label":"BOD 5 Day ATU","status":"Bad","trend":"insufficient_data"},"ph":{"mean":7.405,"min":6.9,"max":7.91,"latest":6.9,"n_samples":2,"unit":"pH","label":"pH","status":"High","trend":"insufficient_data"},"ss_alt":{"mean":3900.0,"min":3360.0,"max":4440.0,"latest":3360.0,"n_samples":2,"unit":"mg/l","label":"Suspended Solids (alt)"}},"statuses":{"ammonia":"Bad","bod":"Bad","ph":"High"},"sample_count":8,"total_samples":8,"earliest_sample":"2005-04-20","latest_sample":"2007-07-10","overall_status":"Bad","worst_determinand":"ammonia"},{"id":"SW-72922739","label":"BEAFORD BROOK ABOVE BEAFORD STW","lat":50.92164,"lon":-4.05653,"type":"FRESHWATER - RIVERS","determinands":{"nitrate":{"mean":3.2108,"min":0.65,"max":12.8,"latest":1.16,"n_samples":12,"unit":"mg/l","label":"Nitrate as N"},"phosphate":{"mean":0.105,"min":0.02,"max":0.485,"latest":0.031,"n_samples":12,"unit":"mg/l","label":"Orthophosphate, reactive as P","status":"Good","trend":"insufficient_data"},"total_oxidised_n":{"mean":3.2175,"min":0.66,"max":12.8,"latest":1.16,"n_samples":12,"unit":"mg/l","label":"Nitrogen, Total Oxidised as N"}},"statuses":{"phosphate":"Good"},"sample_count":36,"total_samples":36,"earliest_sample":"2013-05-24","latest_sample":"2014-05-07","overall_status":"Good","worst_determinand":"phosphate"},{"id":"SW-72931590","label":"ASHBURY HOTEL AND GOLF COURSE  OKEHAMPTON","lat":50.73362,"lon":-4.06939,"type":"SEWAGE DISCHARGES - FINAL/TREATED EFFLUENT - NOT WATER COMPANY","determinands":{"ammonia":{"mean":54.375,"min":18.0,"max":95.0,"latest":26.0,"n_samples":8,"unit":"mg/l","label":"Ammoniacal Nitrogen as N","status":"Bad","trend":"declining"}},"statuses":{"ammonia":"Bad"},"sample_count":8,"total_samples":12,"earliest_sample":"2019-02-05","latest_sample":"2026-01-22","overall_status":"Bad","worst_determinand":"ammonia"},{"id":"SW-91221750","label":"TRIB OF CAUDWORTHY WATER AT MIDDLE WHEATLY","lat":50.71566,"lon":-4.48402,"type":"FRESHWATER - RIVERS","determinands":{"ammonia":{"mean":0.2221,"min":0.03,"max":1.5,"latest":0.03,"n_samples":12,"unit":"mg/l","label":"Ammoniacal Nitrogen as N","status":"High","trend":"insufficient_data"},"do_percent":{"mean":93.4667,"min":89.6,"max":97.2,"latest":96.1,"n_samples":12,"unit":"%","label":"Dissolved Oxygen (% sat)","status":"High","trend":"insufficient_data"},"nitrate":{"mean":3.5492,"min":2.39,"max":4.8,"latest":4.2,"n_samples":12,"unit":"mg/l","label":"Nitrate as N"},"ph":{"mean":7.1892,"min":6.68,"max":7.89,"latest":6.8,"n_samples":12,"unit":"pH","label":"pH","status":"High","trend":"insufficient_data"},"phosphate":{"mean":0.0164,"min":0.01,"max":0.05,"latest":0.012,"n_samples":12,"unit":"mg/l","label":"Orthophosphate, reactive as P","status":"High","trend":"insufficient_data"},"ss":{"mean":61.2,"min":3.0,"max":500.0,"latest":5.7,"n_samples":12,"unit":"mg/l","label":"Suspended Solids at 105C"},"temperature":{"mean":12.2917,"min":8.4,"max":16.7,"latest":8.4,"n_samples":12,"unit":"\u00b0C","label":"Temperature"},"total_oxidised_n":{"mean":3.5583,"min":2.4,"max":4.8,"latest":4.2,"n_samples":12,"unit":"mg/l","label":"Nitrogen, Total Oxidised as N"}},"statuses":{"ammonia":"High","do_percent":"High","ph":"High","phosphate":"High"},"sample_count":96,"total_samples":96,"earliest_sample":"2023-04-27","latest_sample":"2024-03-05","overall_status":"High","worst_determinand":"ammonia"},{"id":"SW-82518098","label":"CAMEL ESTUARY OLD TOWN COVE TRAC FISH COLUMN DATA","lat":50.53014,"lon":-4.90909,"type":"SALINE WATER - ESTUARINE SITES - NON BATHING/SHELLFISH","determinands":{"do_percent":{"mean":102.2,"min":99.7,"max":104.7,"latest":104.7,"n_samples":2,"unit":"%","label":"Dissolved Oxygen (% sat)","status":"High","trend":"declining"},"temperature":{"mean":17.65,"min":17.3,"max":18.0,"latest":17.3,"n_samples":2,"unit":"\u00b0C","label":"Temperature"}},"statuses":{"do_percent":"High"},"sample_count":4,"total_samples":32,"earliest_sample":"2010-05-25","latest_sample":"2025-09-18","overall_status":"High","worst_determinand":"do_percent"},{"id":"SW-81220230","label":"TAMAR ESTUARY AT SOUTH HOOE","lat":50.46762,"lon":-4.22291,"type":"SALINE WATER - ESTUARINE SITES - NON BATHING/SHELLFISH","determinands":{"do_percent":{"mean":94.5,"min":93.5,"max":96.0,"latest":96.0,"n_samples":3,"unit":"%","label":"Dissolved Oxygen (% sat)","status":"High","trend":"insufficient_data"},"temperature":{"mean":7.1333,"min":6.4,"max":8.6,"latest":8.6,"n_samples":3,"unit":"\u00b0C","label":"Temperature"}},"statuses":{"do_percent":"High"},"sample_count":6,"total_samples":6,"earliest_sample":"2015-02-11","latest_sample":"2015-02-26","overall_status":"High","worst_determinand":"do_percent"},{"id":"SW-81251581","label":"TRIBUTARY OF RIVER TAMAR UPSTREAM OF DOWNGATE STOKECLIMSLAND STW","lat":50.5342,"lon":-4.30959,"type":"FRESHWATER - RIVERS","determinands":{"do_percent":{"mean":100.9,"min":100.9,"max":100.9,"latest":100.9,"n_samples":1,"unit":"%","label":"Dissolved Oxygen (% sat)","status":"High","trend":"insufficient_data"},"ph":{"mean":7.18,"min":7.18,"max":7.18,"latest":7.18,"n_samples":1,"unit":"pH","label":"pH","status":"High","trend":"insufficient_data"},"temperature":{"mean":14.2,"min":14.2,"max":14.2,"latest":14.2,"n_samples":1,"unit":"\u00b0C","label":"Temperature"}},"statuses":{"do_percent":"High","ph":"High"},"sample_count":3,"total_samples":3,"earliest_sample":"2024-07-30","latest_sample":"2024-07-30","overall_status":"High","worst_determinand":"do_percent"},{"id":"SW-72922101","label":"DEEPMOOR TIP BMBHL2 18L","lat":50.97146,"lon":-4.10203,"type":"WASTE SITE - LEACHATE BOREHOLE","determinands":{"ammonia":{"mean":119.755,"min":0.51,"max":239.0,"latest":0.51,"n_samples":2,"unit":"mg/l","label":"Ammoniacal Nitrogen as N","status":"Bad","trend":"insufficient_data"},"bod":{"mean":89.5,"min":20.0,"max":159.0,"latest":20.0,"n_samples":2,"unit":"mg/l","label":"BOD 5 Day ATU","status":"Bad","trend":"insufficient_data"},"ph":{"mean":7.005,"min":6.8,"max":7.21,"latest":6.8,"n_samples":2,"unit":"pH","label":"pH","status":"High","trend":"insufficient_data"},"ss_alt":{"mean":2203.5,"min":937.0,"max":3470.0,"latest":937.0,"n_samples":2,"unit":"mg/l","label":"Suspended Solids (alt)"}},"statuses":{"ammonia":"Bad","bod":"Bad","ph":"High"},"sample_count":8,"total_samples":8,"earliest_sample":"2005-04-20","latest_sample":"2007-07-10","overall_status":"Bad","worst_determinand":"ammonia"},{"id":"SW-81218803","label":"INVESTIGATION IN CATCHMENT 12A","lat":50.36761,"lon":-4.19055,"type":"POLLUTION/INVESTIGATION POINTS - ENVIRONMENT","determinands":{"ss":{"mean":4.2931,"min":3.0,"max":15.3,"latest":15.3,"n_samples":29,"unit":"mg/l","label":"Suspended Solids at 105C"}},"statuses":{},"sample_count":29,"total_samples":29,"earliest_sample":"2002-10-03","latest_sample":"2002-11-27","overall_status":"Unknown","worst_determinand":null},{"id":"SW-72931800","label":"PEACEWATER TIP INLET TO CULVERT","lat":50.73401,"lon":-4.04192,"type":"WASTE SITE - SURFACE WATER MONITORING POINT - LANDFILL","determinands":{"ammonia":{"mean":0.4233,"min":0.04,"max":0.5,"latest":0.5,"n_samples":6,"unit":"mg/l","label":"Ammoniacal Nitrogen as N","status":"Good","trend":"declining"},"ph":{"mean":6.9167,"min":6.0,"max":7.9,"latest":7.9,"n_samples":6,"unit":"pH","label":"pH","status":"High","trend":"increasing"},"temperature":{"mean":11.9333,"min":11.3,"max":12.6,"latest":12.6,"n_samples":3,"unit":"\u00b0C","label":"Temperature"}},"statuses":{"ammonia":"Good","ph":"High"},"sample_count":15,"total_samples":15,"earliest_sample":"2005-08-16","latest_sample":"2008-04-08","overall_status":"Good","worst_determinand":"ammonia"},{"id":"SW-81221933","label":"MILTON BROOK ABOVE MILTON COMBE STW","lat":50.46958,"lon":-4.13309,"type":"FRESHWATER - RIVERS","determinands":{"phosphate":{"mean":0.114,"min":0.047,"max":0.352,"latest":0.158,"n_samples":23,"unit":"mg/l","label":"Orthophosphate, reactive as P","status":"Good","trend":"insufficient_data"}},"statuses":{"phosphate":"Good"},"sample_count":23,"total_samples":23,"earliest_sample":"2008-09-02","latest_sample":"2010-07-26","overall_status":"Good","worst_determinand":"phosphate"},{"id":"SW-72941698","label":"BECKAMOOR BROOK ABOVE FOLLY GATE STW","lat":50.76515,"lon":-4.02569,"type":"FRESHWATER - RIVERS","determinands":{"ammonia":{"mean":0.03,"min":0.03,"max":0.03,"latest":0.03,"n_samples":1,"unit":"mg/l","label":"Ammoniacal Nitrogen as N","status":"High","trend":"insufficient_data"},"bod":{"mean":1.39,"min":1.39,"max":1.39,"latest":1.39,"n_samples":1,"unit":"mg/l","label":"BOD 5 Day ATU","status":"High","trend":"insufficient_data"},"nitrate":{"mean":0.884,"min":0.884,"max":0.884,"latest":0.884,"n_samples":1,"unit":"mg/l","label":"Nitrate as N"},"phosphate":{"mean":0.0231,"min":0.0231,"max":0.0231,"latest":0.0231,"n_samples":1,"unit":"mg/l","label":"Orthophosphate, reactive as P","status":"High","trend":"insufficient_data"},"ss":{"mean":8.0,"min":8.0,"max":8.0,"latest":8.0,"n_samples":1,"unit":"mg/l","label":"Suspended Solids at 105C"},"total_oxidised_n":{"mean":0.89,"min":0.89,"max":0.89,"latest":0.89,"n_samples":1,"unit":"mg/l","label":"Nitrogen, Total Oxidised as N"}},"statuses":{"ammonia":"High","bod":"High","phosphate":"High"},"sample_count":6,"total_samples":6,"earliest_sample":"2007-09-11","latest_sample":"2007-09-11","overall_status":"High","worst_determinand":"ammonia"},{"id":"SW-72923009","label":"MERTON STREAM BELOW MERTON STW","lat":50.88438,"lon":-4.10359,"type":"FRESHWATER - RIVERS","determinands":{"ammonia":{"mean":0.953,"min":0.953,"max":0.953,"latest":0.953,"n_samples":1,"unit":"mg/l","label":"Ammoniacal Nitrogen as N","status":"Moderate","trend":"insufficient_data"},"bod":{"mean":1.63,"min":1.63,"max":1.63,"latest":1.63,"n_samples":1,"unit":"mg/l","label":"BOD 5 Day ATU","status":"High","trend":"insufficient_data"},"nitrate":{"mean":4.94,"min":4.94,"max":4.94,"latest":4.94,"n_samples":1,"unit":"mg/l","label":"Nitrate as N"},"phosphate":{"mean":0.323,"min":0.323,"max":0.323,"latest":0.323,"n_samples":1,"unit":"mg/l","label":"Orthophosphate, reactive as P","status":"Poor","trend":"insufficient_data"},"ss":{"mean":6.0,"min":6.0,"max":6.0,"latest":6.0,"n_samples":1,"unit":"mg/l","label":"Suspended Solids at 105C"},"total_oxidised_n":{"mean":4.98,"min":4.98,"max":4.98,"latest":4.98,"n_samples":1,"unit":"mg/l","label":"Nitrogen, Total Oxidised as N"}},"statuses":{"ammonia":"Moderate","bod":"High","phosphate":"Poor"},"sample_count":6,"total_samples":6,"earliest_sample":"2008-06-04","latest_sample":"2008-06-04","overall_status":"Poor","worst_determinand":"phosphate"},{"id":"SW-82510016","label":"CAMEL WFD FISH WATER COLUMN DATA","lat":50.53223,"lon":-4.87632,"type":"SALINE WATER - ESTUARINE SITES - NON BATHING/SHELLFISH","determinands":{"do_percent":{"mean":97.1364,"min":84.4,"max":127.2,"latest":94.1,"n_samples":11,"unit":"%","label":"Dissolved Oxygen (% sat)","status":"High","trend":"stable"},"temperature":{"mean":15.4925,"min":13.968,"max":16.712,"latest":16.6,"n_samples":11,"unit":"\u00b0C","label":"Temperature"}},"statuses":{"do_percent":"High"},"sample_count":22,"total_samples":22,"earliest_sample":"2007-09-11","latest_sample":"2019-10-01","overall_status":"High","worst_determinand":"do_percent"},{"id":"SW-81522523","label":"EAST TAPHOUSE STREAM ABOVE EAST TAPHOUSE STW","lat":50.44225,"lon":-4.56427,"type":"FRESHWATER - RIVERS","determinands":{"ammonia":{"mean":2.79,"min":1.45,"max":4.13,"latest":4.13,"n_samples":2,"unit":"mg/l","label":"Ammoniacal Nitrogen as N","status":"Bad","trend":"insufficient_data"},"bod":{"mean":1.895,"min":1.19,"max":2.6,"latest":2.6,"n_samples":2,"unit":"mg/l","label":"BOD 5 Day ATU","status":"High","trend":"insufficient_data"},"ph":{"mean":6.35,"min":6.35,"max":6.35,"latest":6.35,"n_samples":1,"unit":"pH","label":"pH","status":"Good","trend":"insufficient_data"},"ss":{"mean":14.25,"min":8.7,"max":19.8,"latest":19.8,"n_samples":2,"unit":"mg/l","label":"Suspended Solids at 105C"}},"statuses":{"ammonia":"Bad","bod":"High","ph":"Good"},"sample_count":7,"total_samples":7,"earliest_sample":"2005-07-20","latest_sample":"2007-11-12","overall_status":"Bad","worst_determinand":"ammonia"},{"id":"SW-72931815","label":"PEACEWATER TIP POINT 1 EAST","lat":50.73401,"lon":-4.04192,"type":"WASTE SITE - SURFACE WATER MONITORING POINT - LANDFILL","determinands":{"ammonia":{"mean":0.5,"min":0.5,"max":0.5,"latest":0.5,"n_samples":2,"unit":"mg/l","label":"Ammoniacal Nitrogen as N","status":"Good","trend":"insufficient_data"},"ph":{"mean":6.425,"min":6.4,"max":6.45,"latest":6.4,"n_samples":2,"unit":"pH","label":"pH","status":"Good","trend":"insufficient_data"},"temperature":{"mean":11.45,"min":10.7,"max":12.2,"latest":10.7,"n_samples":2,"unit":"\u00b0C","label":"Temperature"}},"statuses":{"ammonia":"Good","ph":"Good"},"sample_count":6,"total_samples":6,"earliest_sample":"2006-11-22","latest_sample":"2007-03-08","overall_status":"Good","worst_determinand":"ammonia"},{"id":"SW-72931801","label":"PEACEWATER TIP OUTFALL CULVERT","lat":50.73401,"lon":-4.04192,"type":"WASTE SITE - SURFACE WATER MONITORING POINT - LANDFILL","determinands":{"ammonia":{"mean":1.643,"min":0.5,"max":5.2,"latest":2.19,"n_samples":6,"unit":"mg/l","label":"Ammoniacal Nitrogen as N","status":"Poor","trend":"improving"},"ph":{"mean":7.1133,"min":6.48,"max":7.4,"latest":7.2,"n_samples":6,"unit":"pH","label":"pH","status":"High","trend":"increasing"},"temperature":{"mean":11.5667,"min":10.8,"max":12.5,"latest":12.5,"n_samples":3,"unit":"\u00b0C","label":"Temperature"}},"statuses":{"ammonia":"Poor","ph":"High"},"sample_count":15,"total_samples":15,"earliest_sample":"2005-08-16","latest_sample":"2008-04-08","overall_status":"Poor","worst_determinand":"ammonia"},{"id":"SW-72923550","label":"EAST YARDE STW PETERS MARLAND","lat":50.90976,"lon":-4.14647,"type":"SEWAGE DISCHARGES - FINAL/TREATED EFFLUENT - WATER COMPANY","determinands":{"ammonia":{"mean":6.25,"min":0.5,"max":12.4,"latest":0.5,"n_samples":7,"unit":"mg/l","label":"Ammoniacal Nitrogen as N","status":"Bad","trend":"insufficient_data"},"bod":{"mean":19.0614,"min":5.42,"max":40.1,"latest":26.4,"n_samples":7,"unit":"mg/l","label":"BOD 5 Day ATU","status":"Bad","trend":"insufficient_data"},"ph":{"mean":6.73,"min":6.2,"max":7.4,"latest":6.9,"n_samples":7,"unit":"pH","label":"pH","status":"High","trend":"insufficient_data"},"ss":{"mean":35.2286,"min":9.1,"max":78.0,"latest":58.0,"n_samples":7,"unit":"mg/l","label":"Suspended Solids at 105C"},"temperature":{"mean":11.05,"min":9.1,"max":13.0,"latest":9.1,"n_samples":2,"unit":"\u00b0C","label":"Temperature"}},"statuses":{"ammonia":"Bad","bod":"Bad","ph":"High"},"sample_count":30,"total_samples":30,"earliest_sample":"2006-12-14","latest_sample":"2008-10-30","overall_status":"Bad","worst_determinand":"ammonia"},{"id":"SW-82710509","label":"BUDE MEADOWS TOURING HOLIDAY PARK","lat":50.78351,"lon":-4.53126,"type":"SEWAGE DISCHARGES - FINAL/TREATED EFFLUENT - NOT WATER COMPANY","determinands":{"ammonia":{"mean":12.0,"min":12.0,"max":12.0,"latest":12.0,"n_samples":1,"unit":"mg/l","label":"Ammoniacal Nitrogen as N","status":"Bad","trend":"stable"},"bod":{"mean":3.5,"min":3.0,"max":4.0,"latest":3.0,"n_samples":2,"unit":"mg/l","label":"BOD 5 Day ATU","status":"High","trend":"improving"},"ph":{"mean":7.0,"min":7.0,"max":7.0,"latest":7.0,"n_samples":1,"unit":"pH","label":"pH","status":"High","trend":"insufficient_data"},"phosphate":{"mean":2.05,"min":1.9,"max":2.2,"latest":1.9,"n_samples":2,"unit":"mg/l","label":"Orthophosphate, reactive as P","status":"Bad","trend":"insufficient_data"},"ss":{"mean":10.1,"min":3.2,"max":17.0,"latest":17.0,"n_samples":2,"unit":"mg/l","label":"Suspended Solids at 105C"},"total_oxidised_n":{"mean":1.0,"min":1.0,"max":1.0,"latest":1.0,"n_samples":2,"unit":"mg/l","label":"Nitrogen, Total Oxidised as N"}},"statuses":{"ammonia":"Bad","bod":"High","ph":"High","phosphate":"Bad"},"sample_count":10,"total_samples":52,"earliest_sample":"2000-08-07","latest_sample":"2025-11-19","overall_status":"Bad","worst_determinand":"ammonia"},{"id":"SW-81281158","label":"RIVER CAREY BELOW ASHWATER (NEW) STW (NORTH)","lat":50.734,"lon":-4.27898,"type":"FRESHWATER - RIVERS","determinands":{"ammonia":{"mean":0.0412,"min":0.03,"max":0.11,"latest":0.03,"n_samples":10,"unit":"mg/l","label":"Ammoniacal Nitrogen as N","status":"High","trend":"insufficient_data"},"do_percent":{"mean":98.23,"min":91.7,"max":101.1,"latest":100.0,"n_samples":10,"unit":"%","label":"Dissolved Oxygen (% sat)","status":"High","trend":"insufficient_data"},"nitrate":{"mean":1.3409,"min":0.743,"max":1.7,"latest":1.3,"n_samples":10,"unit":"mg/l","label":"Nitrate as N"},"ph":{"mean":7.463,"min":7.19,"max":7.68,"latest":7.6,"n_samples":10,"unit":"pH","label":"pH","status":"High","trend":"insufficient_data"},"phosphate":{"mean":0.0548,"min":0.022,"max":0.14,"latest":0.042,"n_samples":10,"unit":"mg/l","label":"Orthophosphate, reactive as P","status":"Good","trend":"insufficient_data"},"temperature":{"mean":10.88,"min":5.9,"max":16.6,"latest":7.5,"n_samples":10,"unit":"\u00b0C","label":"Temperature"},"total_oxidised_n":{"mean":1.345,"min":0.75,"max":1.7,"latest":1.3,"n_samples":10,"unit":"mg/l","label":"Nitrogen, Total Oxidised as N"}},"statuses":{"ammonia":"High","do_percent":"High","ph":"High","phosphate":"Good"},"sample_count":70,"total_samples":70,"earliest_sample":"2024-06-27","latest_sample":"2025-03-12","overall_status":"Good","worst_determinand":"phosphate"},{"id":"SW-82710680","label":"JACOB STREAM AT TREFORDA","lat":50.74085,"lon":-4.54446,"type":"FRESHWATER - RIVERS","determinands":{"ammonia":{"mean":0.064,"min":0.03,"max":0.111,"latest":0.03,"n_samples":6,"unit":"mg/l","label":"Ammoniacal Nitrogen as N","status":"High","trend":"insufficient_data"},"bod":{"mean":1.2714,"min":1.0,"max":2.1,"latest":1.5,"n_samples":7,"unit":"mg/l","label":"BOD 5 Day ATU","status":"High","trend":"insufficient_data"},"do_percent":{"mean":94.1667,"min":84.4,"max":98.2,"latest":84.4,"n_samples":6,"unit":"%","label":"Dissolved Oxygen (% sat)","status":"High","trend":"insufficient_data"},"nitrate":{"mean":1.6433,"min":1.08,"max":2.19,"latest":1.1,"n_samples":6,"unit":"mg/l","label":"Nitrate as N"},"ph":{"mean":7.3957,"min":6.95,"max":7.62,"latest":7.44,"n_samples":7,"unit":"pH","label":"pH","status":"High","trend":"insufficient_data"},"phosphate":{"mean":0.0507,"min":0.02,"max":0.097,"latest":0.097,"n_samples":6,"unit":"mg/l","label":"Orthophosphate, reactive as P","status":"Good","trend":"insufficient_data"},"ss":{"mean":6.0383,"min":3.52,"max":11.5,"latest":7.42,"n_samples":6,"unit":"mg/l","label":"Suspended Solids at 105C"},"temperature":{"mean":10.0886,"min":5.9,"max":13.9,"latest":13.9,"n_samples":7,"unit":"\u00b0C","label":"Temperature"},"total_oxidised_n":{"mean":1.6633,"min":1.09,"max":2.21,"latest":1.12,"n_samples":6,"unit":"mg/l","label":"Nitrogen, Total Oxidised as N"}},"statuses":{"ammonia":"High","bod":"High","do_percent":"High","ph":"High","phosphate":"Good"},"sample_count":57,"total_samples":57,"earliest_sample":"2011-02-02","latest_sample":"2011-07-20","overall_status":"Good","worst_determinand":"phosphate"},{"id":"SW-81940667","label":"STP @ BEACONSIDE FE","lat":50.36695,"lon":-4.97401,"type":"SEWAGE DISCHARGES - FINAL/TREATED EFFLUENT - NOT WATER COMPANY","determinands":{"ammonia":{"mean":52.55,"min":46.0,"max":59.1,"latest":59.1,"n_samples":2,"unit":"mg/l","label":"Ammoniacal Nitrogen as N","status":"Bad","trend":"insufficient_data"},"bod":{"mean":57.5,"min":55.0,"max":60.0,"latest":55.0,"n_samples":2,"unit":"mg/l","label":"BOD 5 Day ATU","status":"Bad","trend":"insufficient_data"},"ph":{"mean":7.245,"min":7.18,"max":7.31,"latest":7.31,"n_samples":2,"unit":"pH","label":"pH","status":"High","trend":"insufficient_data"},"ss":{"mean":42.2,"min":37.7,"max":46.7,"latest":37.7,"n_samples":2,"unit":"mg/l","label":"Suspended Solids at 105C"}},"statuses":{"ammonia":"Bad","bod":"Bad","ph":"High"},"sample_count":8,"total_samples":8,"earliest_sample":"2016-01-06","latest_sample":"2016-04-04","overall_status":"Bad","worst_determinand":"ammonia"},{"id":"SW-72931090","label":"HIGHAMPTON STREAM BELOW HIGHAMPTON STW","lat":50.81411,"lon":-4.14795,"type":"FRESHWATER - RIVERS","determinands":{"ammonia":{"mean":0.5,"min":0.5,"max":0.5,"latest":0.5,"n_samples":3,"unit":"mg/l","label":"Ammoniacal Nitrogen as N","status":"Good","trend":"insufficient_data"},"bod":{"mean":1.9,"min":1.1,"max":3.2,"latest":1.1,"n_samples":3,"unit":"mg/l","label":"BOD 5 Day ATU","status":"High","trend":"insufficient_data"},"ss":{"mean":13.8667,"min":6.6,"max":24.3,"latest":6.6,"n_samples":3,"unit":"mg/l","label":"Suspended Solids at 105C"}},"statuses":{"ammonia":"Good","bod":"High"},"sample_count":9,"total_samples":9,"earliest_sample":"2000-06-13","latest_sample":"2000-12-15","overall_status":"Good","worst_determinand":"ammonia"},{"id":"SW-82511192","label":"RETALLACK 365 SURFSIDE","lat":50.45343,"lon":-4.90724,"type":"SEWAGE DISCHARGES - FINAL/TREATED EFFLUENT - NOT WATER COMPANY","determinands":{"ammonia":{"mean":0.1482,"min":0.03,"max":0.5,"latest":0.26,"n_samples":6,"unit":"mg/l","label":"Ammoniacal Nitrogen as N","status":"High","trend":"insufficient_data"},"bod":{"mean":3.1667,"min":3.0,"max":4.0,"latest":3.0,"n_samples":6,"unit":"mg/l","label":"BOD 5 Day ATU","status":"High","trend":"insufficient_data"},"ph":{"mean":6.5,"min":6.5,"max":6.5,"latest":6.5,"n_samples":1,"unit":"pH","label":"pH","status":"High","trend":"insufficient_data"},"phosphate":{"mean":0.5,"min":0.5,"max":0.5,"latest":0.5,"n_samples":1,"unit":"mg/l","label":"Orthophosphate, reactive as P","status":"Poor","trend":"insufficient_data"},"ss":{"mean":7.7167,"min":3.0,"max":13.0,"latest":13.0,"n_samples":6,"unit":"mg/l","label":"Suspended Solids at 105C"},"total_oxidised_n":{"mean":16.0,"min":16.0,"max":16.0,"latest":16.0,"n_samples":1,"unit":"mg/l","label":"Nitrogen, Total Oxidised as N"}},"statuses":{"ammonia":"High","bod":"High","ph":"High","phosphate":"Poor"},"sample_count":21,"total_samples":21,"earliest_sample":"2024-01-26","latest_sample":"2026-03-23","overall_status":"Poor","worst_determinand":"phosphate"},{"id":"SW-91211781","label":"WEST BALSDON STREAM ABOVE WHITSTONE STW","lat":50.75452,"lon":-4.45256,"type":"FRESHWATER - RIVERS","determinands":{"ammonia":{"mean":0.5,"min":0.5,"max":0.5,"latest":0.5,"n_samples":1,"unit":"mg/l","label":"Ammoniacal Nitrogen as N","status":"Good","trend":"insufficient_data"},"bod":{"mean":2.34,"min":2.34,"max":2.34,"latest":2.34,"n_samples":1,"unit":"mg/l","label":"BOD 5 Day ATU","status":"High","trend":"insufficient_data"},"phosphate":{"mean":0.5,"min":0.5,"max":0.5,"latest":0.5,"n_samples":1,"unit":"mg/l","label":"Orthophosphate, reactive as P","status":"Poor","trend":"insufficient_data"},"ss":{"mean":3.38,"min":3.38,"max":3.38,"latest":3.38,"n_samples":1,"unit":"mg/l","label":"Suspended Solids at 105C"},"total_oxidised_n":{"mean":1.0,"min":1.0,"max":1.0,"latest":1.0,"n_samples":1,"unit":"mg/l","label":"Nitrogen, Total Oxidised as N"}},"statuses":{"ammonia":"Good","bod":"High","phosphate":"Poor"},"sample_count":5,"total_samples":5,"earliest_sample":"2014-10-10","latest_sample":"2014-10-10","overall_status":"Poor","worst_determinand":"phosphate"},{"id":"SW-91230001","label":"CHURCHTOWN, TRESMEER","lat":50.65982,"lon":-4.49842,"type":"SEWAGE DISCHARGES - FINAL/TREATED EFFLUENT - NOT WATER COMPANY","determinands":{"ammonia":{"mean":0.94,"min":0.5,"max":2.1,"latest":0.5,"n_samples":4,"unit":"mg/l","label":"Ammoniacal Nitrogen as N","status":"Moderate","trend":"insufficient_data"},"bod":{"mean":2.55,"min":1.5,"max":2.9,"latest":1.5,"n_samples":4,"unit":"mg/l","label":"BOD 5 Day ATU","status":"High","trend":"insufficient_data"},"ss":{"mean":8.2325,"min":3.0,"max":14.0,"latest":5.13,"n_samples":4,"unit":"mg/l","label":"Suspended Solids at 105C"}},"statuses":{"ammonia":"Moderate","bod":"High"},"sample_count":12,"total_samples":12,"earliest_sample":"2011-02-09","latest_sample":"2012-02-20","overall_status":"Moderate","worst_determinand":"ammonia"},{"id":"SW-81522035","label":"DEVIOCK WOOD     CARDINHAM WATER (FOWEY)","lat":50.47847,"lon":-4.66941,"type":"FRESHWATER - RIVERS","determinands":{"ammonia":{"mean":0.03,"min":0.03,"max":0.03,"latest":0.03,"n_samples":1,"unit":"mg/l","label":"Ammoniacal Nitrogen as N","status":"High","trend":"insufficient_data"},"do_percent":{"mean":102.0,"min":102.0,"max":102.0,"latest":102.0,"n_samples":1,"unit":"%","label":"Dissolved Oxygen (% sat)","status":"High","trend":"insufficient_data"},"ph":{"mean":7.33,"min":7.33,"max":7.33,"latest":7.33,"n_samples":1,"unit":"pH","label":"pH","status":"High","trend":"insufficient_data"},"ss":{"mean":4.63,"min":4.63,"max":4.63,"latest":4.63,"n_samples":1,"unit":"mg/l","label":"Suspended Solids at 105C"},"temperature":{"mean":11.9,"min":11.9,"max":11.9,"latest":11.9,"n_samples":1,"unit":"\u00b0C","label":"Temperature"},"total_oxidised_n":{"mean":1.81,"min":1.81,"max":1.81,"latest":1.81,"n_samples":1,"unit":"mg/l","label":"Nitrogen, Total Oxidised as N"}},"statuses":{"ammonia":"High","do_percent":"High","ph":"High"},"sample_count":6,"total_samples":6,"earliest_sample":"2013-11-01","latest_sample":"2013-11-01","overall_status":"High","worst_determinand":"ammonia"},{"id":"SW-72930370","label":"FORMER SITE OF FARM,OPPOSITE BONDS FARM,COLSCOTT,WEST PUTFORD,HOLSWORTHY,DEVON.","lat":50.90902,"lon":-4.3308,"type":"SEWAGE DISCHARGES - FINAL/TREATED EFFLUENT - NOT WATER COMPANY","determinands":{"ammonia":{"mean":16.395,"min":1.1,"max":40.2,"latest":5.75,"n_samples":8,"unit":"mg/l","label":"Ammoniacal Nitrogen as N","status":"Bad","trend":"improving"},"bod":{"mean":22.8775,"min":2.92,"max":123.0,"latest":5.7,"n_samples":8,"unit":"mg/l","label":"BOD 5 Day ATU","status":"Bad","trend":"improving"},"ph":{"mean":7.1171,"min":6.72,"max":7.5,"latest":7.5,"n_samples":7,"unit":"pH","label":"pH","status":"High","trend":"insufficient_data"},"phosphate":{"mean":1.91,"min":1.91,"max":1.91,"latest":1.91,"n_samples":1,"unit":"mg/l","label":"Orthophosphate, reactive as P","status":"Bad","trend":"insufficient_data"},"ss":{"mean":15.625,"min":3.7,"max":31.7,"latest":15.6,"n_samples":8,"unit":"mg/l","label":"Suspended Solids at 105C"},"total_oxidised_n":{"mean":9.75,"min":9.75,"max":9.75,"latest":9.75,"n_samples":1,"unit":"mg/l","label":"Nitrogen, Total Oxidised as N"}},"statuses":{"ammonia":"Bad","bod":"Bad","ph":"High","phosphate":"Bad"},"sample_count":33,"total_samples":33,"earliest_sample":"2002-04-12","latest_sample":"2009-12-15","overall_status":"Bad","worst_determinand":"ammonia"},{"id":"SW-82711511","label":"IVYLEAF COMBE HOLIDAY CHALETS  STRATTON  BUDE","lat":50.84597,"lon":-4.5041,"type":"SEWAGE DISCHARGES - FINAL/TREATED EFFLUENT - NOT WATER COMPANY","determinands":{"ammonia":{"mean":4.25,"min":0.5,"max":15.7,"latest":2.33,"n_samples":5,"unit":"mg/l","label":"Ammoniacal Nitrogen as N","status":"Bad","trend":"insufficient_data"},"bod":{"mean":8.48,"min":3.5,"max":14.5,"latest":14.5,"n_samples":5,"unit":"mg/l","label":"BOD 5 Day ATU","status":"Poor","trend":"insufficient_data"},"ph":{"mean":7.3025,"min":6.99,"max":7.57,"latest":6.99,"n_samples":4,"unit":"pH","label":"pH","status":"High","trend":"insufficient_data"},"ss":{"mean":29.0,"min":9.4,"max":69.2,"latest":31.0,"n_samples":5,"unit":"mg/l","label":"Suspended Solids at 105C"}},"statuses":{"ammonia":"Bad","bod":"Poor","ph":"High"},"sample_count":19,"total_samples":19,"earliest_sample":"2000-08-07","latest_sample":"2005-08-08","overall_status":"Bad","worst_determinand":"ammonia"},{"id":"SW-81231166","label":"RIVER TAVY AT CROWNDALE COTTAGES","lat":50.53266,"lon":-4.15498,"type":"FRESHWATER - RIVERS","determinands":{"ammonia":{"mean":0.03,"min":0.03,"max":0.03,"latest":0.03,"n_samples":10,"unit":"mg/l","label":"Ammoniacal Nitrogen as N","status":"High","trend":"insufficient_data"},"do_percent":{"mean":100.37,"min":97.4,"max":104.0,"latest":100.0,"n_samples":10,"unit":"%","label":"Dissolved Oxygen (% sat)","status":"High","trend":"insufficient_data"},"nitrate":{"mean":0.8488,"min":0.266,"max":1.1,"latest":1.1,"n_samples":10,"unit":"mg/l","label":"Nitrate as N"},"ph":{"mean":7.295,"min":6.64,"max":7.66,"latest":7.29,"n_samples":10,"unit":"pH","label":"pH","status":"High","trend":"insufficient_data"},"phosphate":{"mean":0.0126,"min":0.01,"max":0.02,"latest":0.012,"n_samples":10,"unit":"mg/l","label":"Orthophosphate, reactive as P","status":"High","trend":"insufficient_data"},"temperature":{"mean":11.55,"min":7.6,"max":15.7,"latest":7.6,"n_samples":10,"unit":"\u00b0C","label":"Temperature"},"total_oxidised_n":{"mean":0.852,"min":0.27,"max":1.1,"latest":1.1,"n_samples":10,"unit":"mg/l","label":"Nitrogen, Total Oxidised as N"}},"statuses":{"ammonia":"High","do_percent":"High","ph":"High","phosphate":"High"},"sample_count":70,"total_samples":70,"earliest_sample":"2024-06-24","latest_sample":"2025-03-14","overall_status":"High","worst_determinand":"ammonia"},{"id":"SW-81272507","label":"BRATTON CLOVELLY  S T W - EFFLUENT","lat":50.70507,"lon":-4.17521,"type":"SEWAGE DISCHARGES - FINAL/TREATED EFFLUENT - WATER COMPANY","determinands":{"ammonia":{"mean":18.0,"min":18.0,"max":18.0,"latest":18.0,"n_samples":1,"unit":"mg/l","label":"Ammoniacal Nitrogen as N","status":"Bad","trend":"insufficient_data"},"bod":{"mean":24.0,"min":24.0,"max":24.0,"latest":24.0,"n_samples":1,"unit":"mg/l","label":"BOD 5 Day ATU","status":"Bad","trend":"insufficient_data"},"ss":{"mean":36.5,"min":36.5,"max":36.5,"latest":36.5,"n_samples":1,"unit":"mg/l","label":"Suspended Solids at 105C"}},"statuses":{"ammonia":"Bad","bod":"Bad"},"sample_count":3,"total_samples":3,"earliest_sample":"2004-05-25","latest_sample":"2004-05-25","overall_status":"Bad","worst_determinand":"ammonia"},{"id":"SW-81220255","label":"TAMAR ESTUARY AT NORTH HOOE","lat":50.47089,"lon":-4.22765,"type":"SALINE WATER - ESTUARINE SITES - NON BATHING/SHELLFISH","determinands":{"do_percent":{"mean":99.5,"min":99.0,"max":100.0,"latest":99.0,"n_samples":2,"unit":"%","label":"Dissolved Oxygen (% sat)","status":"High","trend":"insufficient_data"},"temperature":{"mean":8.7,"min":8.7,"max":8.7,"latest":8.7,"n_samples":2,"unit":"\u00b0C","label":"Temperature"}},"statuses":{"do_percent":"High"},"sample_count":4,"total_samples":4,"earliest_sample":"2015-02-26","latest_sample":"2015-02-26","overall_status":"High","worst_determinand":"do_percent"},{"id":"SW-81521933","label":"LANHYDROCK HOUSE   BODMIN","lat":50.44121,"lon":-4.69774,"type":"SEWAGE DISCHARGES - FINAL/TREATED EFFLUENT - NOT WATER COMPANY","determinands":{"ammonia":{"mean":0.5,"min":0.5,"max":0.5,"latest":0.5,"n_samples":5,"unit":"mg/l","label":"Ammoniacal Nitrogen as N","status":"Good","trend":"insufficient_data"},"bod":{"mean":6.738,"min":2.99,"max":19.7,"latest":2.99,"n_samples":5,"unit":"mg/l","label":"BOD 5 Day ATU","status":"Poor","trend":"insufficient_data"},"ph":{"mean":6.816,"min":5.2,"max":7.45,"latest":7.45,"n_samples":5,"unit":"pH","label":"pH","status":"High","trend":"insufficient_data"},"ss":{"mean":15.72,"min":3.0,"max":38.1,"latest":14.0,"n_samples":5,"unit":"mg/l","label":"Suspended Solids at 105C"}},"statuses":{"ammonia":"Good","bod":"Poor","ph":"High"},"sample_count":20,"total_samples":20,"earliest_sample":"2000-06-12","latest_sample":"2005-09-01","overall_status":"Poor","worst_determinand":"bod"},{"id":"SW-91221522","label":"TAMAR OTTER SANCTUARY MARSH POND OVERFLOW","lat":50.6784,"lon":-4.42281,"type":"FRESHWATER - RIVERS","determinands":{"ammonia":{"mean":1.485,"min":0.096,"max":4.6,"latest":2.8,"n_samples":12,"unit":"mg/l","label":"Ammoniacal Nitrogen as N","status":"Poor","trend":"insufficient_data"},"do_percent":{"mean":71.5667,"min":22.1,"max":140.0,"latest":48.9,"n_samples":12,"unit":"%","label":"Dissolved Oxygen (% sat)","status":"Good","trend":"insufficient_data"},"nitrate":{"mean":0.4172,"min":0.192,"max":0.908,"latest":0.196,"n_samples":12,"unit":"mg/l","label":"Nitrate as N"},"ph":{"mean":7.3225,"min":6.75,"max":8.8,"latest":6.98,"n_samples":12,"unit":"pH","label":"pH","status":"High","trend":"insufficient_data"},"phosphate":{"mean":0.1302,"min":0.049,"max":0.302,"latest":0.302,"n_samples":12,"unit":"mg/l","label":"Orthophosphate, reactive as P","status":"Moderate","trend":"insufficient_data"},"temperature":{"mean":11.8167,"min":3.6,"max":19.6,"latest":8.4,"n_samples":12,"unit":"\u00b0C","label":"Temperature"},"total_oxidised_n":{"mean":0.4442,"min":0.2,"max":1.01,"latest":0.2,"n_samples":12,"unit":"mg/l","label":"Nitrogen, Total Oxidised as N"}},"statuses":{"ammonia":"Poor","do_percent":"Good","ph":"High","phosphate":"Moderate"},"sample_count":84,"total_samples":84,"earliest_sample":"2015-10-20","latest_sample":"2016-12-08","overall_status":"Poor","worst_determinand":"ammonia"},{"id":"SW-81220278","label":"CHELFHAM SENIOR SCHOOL, BERE ALSTON","lat":50.49479,"lon":-4.21827,"type":"SEWAGE DISCHARGES - FINAL/TREATED EFFLUENT - NOT WATER COMPANY","determinands":{"ammonia":{"mean":19.6867,"min":0.5,"max":52.6,"latest":8.09,"n_samples":18,"unit":"mg/l","label":"Ammoniacal Nitrogen as N","status":"Bad","trend":"improving"},"bod":{"mean":46.3139,"min":3.0,"max":274.0,"latest":10.1,"n_samples":18,"unit":"mg/l","label":"BOD 5 Day ATU","status":"Bad","trend":"improving"},"ph":{"mean":7.4056,"min":6.5,"max":7.75,"latest":7.2,"n_samples":18,"unit":"pH","label":"pH","status":"High","trend":"stable"},"ss":{"mean":34.6722,"min":3.0,"max":111.0,"latest":16.2,"n_samples":18,"unit":"mg/l","label":"Suspended Solids at 105C"}},"statuses":{"ammonia":"Bad","bod":"Bad","ph":"High"},"sample_count":72,"total_samples":72,"earliest_sample":"2001-07-16","latest_sample":"2006-01-19","overall_status":"Bad","worst_determinand":"ammonia"},{"id":"SW-91211779","label":"WHITSTONE  S T W - EFFLUENT","lat":50.75488,"lon":-4.45258,"type":"SEWAGE DISCHARGES - FINAL/TREATED EFFLUENT - WATER COMPANY","determinands":{"ammonia":{"mean":38.1,"min":38.1,"max":38.1,"latest":38.1,"n_samples":1,"unit":"mg/l","label":"Ammoniacal Nitrogen as N","status":"Bad","trend":"insufficient_data"},"bod":{"mean":84.8,"min":84.8,"max":84.8,"latest":84.8,"n_samples":1,"unit":"mg/l","label":"BOD 5 Day ATU","status":"Bad","trend":"insufficient_data"},"ss":{"mean":58.7,"min":58.7,"max":58.7,"latest":58.7,"n_samples":1,"unit":"mg/l","label":"Suspended Solids at 105C"}},"statuses":{"ammonia":"Bad","bod":"Bad"},"sample_count":3,"total_samples":3,"earliest_sample":"2014-10-10","latest_sample":"2014-10-10","overall_status":"Bad","worst_determinand":"ammonia"},{"id":"SW-81521857","label":"LANLIVERY STREAM ABOVE LANLIVERY CARP BODMIN FISH FARM","lat":50.3972,"lon":-4.69862,"type":"FRESHWATER - COMPARATIVE INLET POINTS","determinands":{"ammonia":{"mean":0.0621,"min":0.03,"max":0.17,"latest":0.05,"n_samples":7,"unit":"mg/l","label":"Ammoniacal Nitrogen as N","status":"High","trend":"insufficient_data"},"bod":{"mean":1.1429,"min":1.0,"max":1.5,"latest":1.0,"n_samples":7,"unit":"mg/l","label":"BOD 5 Day ATU","status":"High","trend":"insufficient_data"},"do_percent":{"mean":95.4286,"min":89.0,"max":98.0,"latest":98.0,"n_samples":7,"unit":"%","label":"Dissolved Oxygen (% sat)","status":"High","trend":"insufficient_data"},"ph":{"mean":7.2857,"min":7.1,"max":7.45,"latest":7.1,"n_samples":7,"unit":"pH","label":"pH","status":"High","trend":"insufficient_data"},"ss":{"mean":4.2,"min":3.0,"max":9.0,"latest":3.0,"n_samples":7,"unit":"mg/l","label":"Suspended Solids at 105C"}},"statuses":{"ammonia":"High","bod":"High","do_percent":"High","ph":"High"},"sample_count":35,"total_samples":35,"earliest_sample":"2000-01-19","latest_sample":"2000-07-11","overall_status":"High","worst_determinand":"ammonia"},{"id":"SW-82710637","label":"JACOB STREAM AT NEWMILL BRIDGE","lat":50.76147,"lon":-4.5312,"type":"FRESHWATER - RIVERS","determinands":{"ammonia":{"mean":0.0647,"min":0.032,"max":0.121,"latest":0.043,"n_samples":15,"unit":"mg/l","label":"Ammoniacal Nitrogen as N","status":"High","trend":"insufficient_data"},"bod":{"mean":1.4667,"min":1.0,"max":2.7,"latest":1.0,"n_samples":15,"unit":"mg/l","label":"BOD 5 Day ATU","status":"High","trend":"insufficient_data"},"do_percent":{"mean":92.2143,"min":81.0,"max":101.0,"latest":98.0,"n_samples":14,"unit":"%","label":"Dissolved Oxygen (% sat)","status":"High","trend":"insufficient_data"},"nitrate":{"mean":1.8219,"min":0.719,"max":2.91,"latest":2.22,"n_samples":15,"unit":"mg/l","label":"Nitrate as N"},"ph":{"mean":7.6213,"min":7.2,"max":7.85,"latest":7.55,"n_samples":15,"unit":"pH","label":"pH","status":"High","trend":"insufficient_data"},"phosphate":{"mean":0.0384,"min":0.02,"max":0.073,"latest":0.024,"n_samples":14,"unit":"mg/l","label":"Orthophosphate, reactive as P","status":"Good","trend":"insufficient_data"},"ss":{"mean":3.0,"min":3.0,"max":3.0,"latest":3.0,"n_samples":1,"unit":"mg/l","label":"Suspended Solids at 105C"},"temperature":{"mean":10.1786,"min":5.7,"max":16.2,"latest":8.3,"n_samples":14,"unit":"\u00b0C","label":"Temperature"},"total_oxidised_n":{"mean":1.8433,"min":0.73,"max":2.94,"latest":2.24,"n_samples":15,"unit":"mg/l","label":"Nitrogen, Total Oxidised as N"}},"statuses":{"ammonia":"High","bod":"High","do_percent":"High","ph":"High","phosphate":"Good"},"sample_count":118,"total_samples":118,"earliest_sample":"2000-01-11","latest_sample":"2001-02-15","overall_status":"Good","worst_determinand":"phosphate"},{"id":"SW-81251131","label":"BLANCHDOWN SURFACE DRAINAGE PRIOR TO RIVER TAMAR CONFLUENCE","lat":50.53462,"lon":-4.21392,"type":"MISCELLANEOUS DISCHARGES - SURFACE WATER","determinands":{"do_percent":{"mean":100.0,"min":100.0,"max":100.0,"latest":100.0,"n_samples":1,"unit":"%","label":"Dissolved Oxygen (% sat)","status":"High","trend":"insufficient_data"},"ph":{"mean":4.81,"min":4.81,"max":4.81,"latest":4.81,"n_samples":1,"unit":"pH","label":"pH","status":"Poor","trend":"insufficient_data"},"temperature":{"mean":11.4,"min":11.4,"max":11.4,"latest":11.4,"n_samples":1,"unit":"\u00b0C","label":"Temperature"}},"statuses":{"do_percent":"High","ph":"Poor"},"sample_count":3,"total_samples":3,"earliest_sample":"2010-04-19","latest_sample":"2010-04-19","overall_status":"Poor","worst_determinand":"ph"},{"id":"SW-81250213","label":"LATCHLEY  S T W - EFFLUENT","lat":50.54224,"lon":-4.24816,"type":"SEWAGE DISCHARGES - FINAL/TREATED EFFLUENT - WATER COMPANY","determinands":{"ammonia":{"mean":23.0,"min":23.0,"max":23.0,"latest":23.0,"n_samples":1,"unit":"mg/l","label":"Ammoniacal Nitrogen as N","status":"Bad","trend":"insufficient_data"},"bod":{"mean":28.2,"min":28.2,"max":28.2,"latest":28.2,"n_samples":1,"unit":"mg/l","label":"BOD 5 Day ATU","status":"Bad","trend":"insufficient_data"},"ss":{"mean":16.7,"min":16.7,"max":16.7,"latest":16.7,"n_samples":1,"unit":"mg/l","label":"Suspended Solids at 105C"}},"statuses":{"ammonia":"Bad","bod":"Bad"},"sample_count":3,"total_samples":3,"earliest_sample":"2004-09-27","latest_sample":"2004-09-27","overall_status":"Bad","worst_determinand":"ammonia"},{"id":"SW-72931094","label":"HIGHAMPTON STREAM ABOVE HIGHAMPTON STW","lat":50.81419,"lon":-4.14825,"type":"FRESHWATER - RIVERS","determinands":{"ammonia":{"mean":0.5,"min":0.5,"max":0.5,"latest":0.5,"n_samples":2,"unit":"mg/l","label":"Ammoniacal Nitrogen as N","status":"Good","trend":"insufficient_data"},"bod":{"mean":2.2,"min":1.2,"max":3.2,"latest":1.2,"n_samples":2,"unit":"mg/l","label":"BOD 5 Day ATU","status":"High","trend":"insufficient_data"},"ss":{"mean":26.95,"min":5.8,"max":48.1,"latest":5.8,"n_samples":2,"unit":"mg/l","label":"Suspended Solids at 105C"}},"statuses":{"ammonia":"Good","bod":"High"},"sample_count":6,"total_samples":6,"earliest_sample":"2000-06-13","latest_sample":"2000-12-15","overall_status":"Good","worst_determinand":"ammonia"},{"id":"SW-82710620","label":"JACOB STREAM AT BURRACOTT BRIDGE","lat":50.77612,"lon":-4.51442,"type":"FRESHWATER - RIVERS","determinands":{"ammonia":{"mean":0.0799,"min":0.03,"max":0.355,"latest":0.038,"n_samples":18,"unit":"mg/l","label":"Ammoniacal Nitrogen as N","status":"High","trend":"declining"},"bod":{"mean":2.3667,"min":1.1,"max":3.9,"latest":1.7,"n_samples":9,"unit":"mg/l","label":"BOD 5 Day ATU","status":"High","trend":"insufficient_data"},"do_percent":{"mean":92.4059,"min":71.6,"max":103.6,"latest":96.9,"n_samples":17,"unit":"%","label":"Dissolved Oxygen (% sat)","status":"High","trend":"improving"},"nitrate":{"mean":1.3988,"min":0.693,"max":2.1,"latest":0.693,"n_samples":9,"unit":"mg/l","label":"Nitrate as N"},"ph":{"mean":7.5311,"min":7.05,"max":8.2,"latest":8.2,"n_samples":18,"unit":"pH","label":"pH","status":"High","trend":"stable"},"phosphate":{"mean":0.0301,"min":0.02,"max":0.065,"latest":0.024,"n_samples":9,"unit":"mg/l","label":"Orthophosphate, reactive as P","status":"High","trend":"insufficient_data"},"ss":{"mean":52.8333,"min":5.6,"max":235.0,"latest":12.6,"n_samples":9,"unit":"mg/l","label":"Suspended Solids at 105C"},"ss_alt":{"mean":276.3333,"min":212.0,"max":351.0,"latest":222.0,"n_samples":9,"unit":"mg/l","label":"Suspended Solids (alt)"},"temperature":{"mean":12.255,"min":5.29,"max":19.8,"latest":16.2,"n_samples":18,"unit":"\u00b0C","label":"Temperature"},"total_oxidised_n":{"mean":1.4078,"min":0.7,"max":2.11,"latest":0.7,"n_samples":9,"unit":"mg/l","label":"Nitrogen, Total Oxidised as N"}},"statuses":{"ammonia":"High","bod":"High","do_percent":"High","ph":"High","phosphate":"High"},"sample_count":125,"total_samples":125,"earliest_sample":"2006-06-26","latest_sample":"2013-08-22","overall_status":"High","worst_determinand":"ammonia"},{"id":"SW-81250182","label":"CHILSWORTHY  S T W - EFFLUENT","lat":50.52893,"lon":-4.23906,"type":"SEWAGE DISCHARGES - FINAL/TREATED EFFLUENT - WATER COMPANY","determinands":{"ammonia":{"mean":54.5,"min":54.5,"max":54.5,"latest":54.5,"n_samples":1,"unit":"mg/l","label":"Ammoniacal Nitrogen as N","status":"Bad","trend":"insufficient_data"},"bod":{"mean":364.0,"min":364.0,"max":364.0,"latest":364.0,"n_samples":1,"unit":"mg/l","label":"BOD 5 Day ATU","status":"Bad","trend":"insufficient_data"},"ss":{"mean":127.0,"min":127.0,"max":127.0,"latest":127.0,"n_samples":1,"unit":"mg/l","label":"Suspended Solids at 105C"}},"statuses":{"ammonia":"Bad","bod":"Bad"},"sample_count":3,"total_samples":3,"earliest_sample":"2004-09-27","latest_sample":"2004-09-27","overall_status":"Bad","worst_determinand":"ammonia"},{"id":"SW-81278801","label":"INVESTIGATION IN CATCHMENT 12G","lat":50.64517,"lon":-4.27386,"type":"POLLUTION/INVESTIGATION POINTS - ENVIRONMENT","determinands":{"ammonia":{"mean":0.5,"min":0.5,"max":0.5,"latest":0.5,"n_samples":1,"unit":"mg/l","label":"Ammoniacal Nitrogen as N","status":"Good","trend":"insufficient_data"},"bod":{"mean":3.0,"min":3.0,"max":3.0,"latest":3.0,"n_samples":1,"unit":"mg/l","label":"BOD 5 Day ATU","status":"High","trend":"insufficient_data"},"ss":{"mean":26.0,"min":26.0,"max":26.0,"latest":26.0,"n_samples":1,"unit":"mg/l","label":"Suspended Solids at 105C"}},"statuses":{"ammonia":"Good","bod":"High"},"sample_count":3,"total_samples":3,"earliest_sample":"2019-12-23","latest_sample":"2019-12-23","overall_status":"Good","worst_determinand":"ammonia"},{"id":"SW-72930409","label":"ASHMANSWORTHY BRIDGE","lat":50.93035,"lon":-4.36444,"type":"FRESHWATER - UNSPECIFIED","determinands":{"ammonia":{"mean":0.3942,"min":0.198,"max":0.5,"latest":0.379,"n_samples":4,"unit":"mg/l","label":"Ammoniacal Nitrogen as N","status":"Good","trend":"insufficient_data"},"bod":{"mean":4.925,"min":2.8,"max":8.5,"latest":8.5,"n_samples":4,"unit":"mg/l","label":"BOD 5 Day ATU","status":"Good","trend":"insufficient_data"},"ph":{"mean":6.44,"min":6.44,"max":6.44,"latest":6.44,"n_samples":1,"unit":"pH","label":"pH","status":"Good","trend":"insufficient_data"},"ss":{"mean":104.825,"min":15.9,"max":210.0,"latest":210.0,"n_samples":4,"unit":"mg/l","label":"Suspended Solids at 105C"},"temperature":{"mean":15.29,"min":15.29,"max":15.29,"latest":15.29,"n_samples":1,"unit":"\u00b0C","label":"Temperature"}},"statuses":{"ammonia":"Good","bod":"Good","ph":"Good"},"sample_count":14,"total_samples":14,"earliest_sample":"2002-10-14","latest_sample":"2003-07-25","overall_status":"Good","worst_determinand":"ammonia"},{"id":"SW-82711478","label":"LAUNCELLS (GRIMSCOTT)  S T W - EFFLUENT","lat":50.83265,"lon":-4.47221,"type":"SEWAGE DISCHARGES - FINAL/TREATED EFFLUENT - WATER COMPANY","determinands":{"ammonia":{"mean":11.718,"min":0.163,"max":65.0,"latest":5.35,"n_samples":32,"unit":"mg/l","label":"Ammoniacal Nitrogen as N","status":"Bad","trend":"improving"},"bod":{"mean":47.6638,"min":3.11,"max":383.0,"latest":24.7,"n_samples":32,"unit":"mg/l","label":"BOD 5 Day ATU","status":"Bad","trend":"improving"},"ss":{"mean":46.0312,"min":10.8,"max":169.0,"latest":67.3,"n_samples":32,"unit":"mg/l","label":"Suspended Solids at 105C"}},"statuses":{"ammonia":"Bad","bod":"Bad"},"sample_count":96,"total_samples":96,"earliest_sample":"2007-10-30","latest_sample":"2014-05-01","overall_status":"Bad","worst_determinand":"ammonia"},{"id":"SW-82511199","label":"RETALLACK PARK, WINNARDS PERCH, ST COLUMB MAJOR","lat":50.45938,"lon":-4.91042,"type":"SEWAGE DISCHARGES - FINAL/TREATED EFFLUENT - NOT WATER COMPANY","determinands":{"ammonia":{"mean":14.1964,"min":0.761,"max":51.9,"latest":51.9,"n_samples":8,"unit":"mg/l","label":"Ammoniacal Nitrogen as N","status":"Bad","trend":"declining"},"bod":{"mean":13.3825,"min":2.75,"max":63.2,"latest":63.2,"n_samples":8,"unit":"mg/l","label":"BOD 5 Day ATU","status":"Bad","trend":"declining"},"ph":{"mean":6.3133,"min":5.1,"max":6.94,"latest":6.94,"n_samples":3,"unit":"pH","label":"pH","status":"Good","trend":"insufficient_data"},"phosphate":{"mean":0.01,"min":0.01,"max":0.01,"latest":0.01,"n_samples":1,"unit":"mg/l","label":"Orthophosphate, reactive as P","status":"High","trend":"insufficient_data"},"ss":{"mean":83.5633,"min":3.0,"max":394.0,"latest":9.87,"n_samples":9,"unit":"mg/l","label":"Suspended Solids at 105C"},"total_oxidised_n":{"mean":0.23,"min":0.23,"max":0.23,"latest":0.23,"n_samples":1,"unit":"mg/l","label":"Nitrogen, Total Oxidised as N"}},"statuses":{"ammonia":"Bad","bod":"Bad","ph":"Good","phosphate":"High"},"sample_count":30,"total_samples":30,"earliest_sample":"2011-07-20","latest_sample":"2019-04-11","overall_status":"Bad","worst_determinand":"ammonia"},{"id":"SW-72930391","label":"KISMELDON BRIDGE","lat":50.92856,"lon":-4.33929,"type":"FRESHWATER - UNSPECIFIED","determinands":{"ammonia":{"mean":0.3758,"min":0.163,"max":0.5,"latest":0.34,"n_samples":4,"unit":"mg/l","label":"Ammoniacal Nitrogen as N","status":"Good","trend":"insufficient_data"},"bod":{"mean":6.25,"min":3.1,"max":12.3,"latest":12.3,"n_samples":4,"unit":"mg/l","label":"BOD 5 Day ATU","status":"Moderate","trend":"insufficient_data"},"ph":{"mean":6.44,"min":6.44,"max":6.44,"latest":6.44,"n_samples":1,"unit":"pH","label":"pH","status":"Good","trend":"insufficient_data"},"ss":{"mean":147.925,"min":18.1,"max":405.0,"latest":405.0,"n_samples":4,"unit":"mg/l","label":"Suspended Solids at 105C"},"temperature":{"mean":15.09,"min":15.09,"max":15.09,"latest":15.09,"n_samples":1,"unit":"\u00b0C","label":"Temperature"}},"statuses":{"ammonia":"Good","bod":"Moderate","ph":"Good"},"sample_count":14,"total_samples":14,"earliest_sample":"2002-10-14","latest_sample":"2003-07-25","overall_status":"Moderate","worst_determinand":"bod"},{"id":"SW-81281134","label":"TOWERHILL BRIDGE     RIVER CAREY    (TAMAR)","lat":50.6916,"lon":-4.31145,"type":"FRESHWATER - RIVERS","determinands":{"ammonia":{"mean":0.0435,"min":0.03,"max":0.14,"latest":0.03,"n_samples":10,"unit":"mg/l","label":"Ammoniacal Nitrogen as N","status":"High","trend":"insufficient_data"},"do_percent":{"mean":96.64,"min":91.1,"max":99.7,"latest":99.4,"n_samples":10,"unit":"%","label":"Dissolved Oxygen (% sat)","status":"High","trend":"insufficient_data"},"nitrate":{"mean":1.2681,"min":0.786,"max":2.0,"latest":1.4,"n_samples":10,"unit":"mg/l","label":"Nitrate as N"},"ph":{"mean":7.454,"min":7.11,"max":7.63,"latest":7.59,"n_samples":10,"unit":"pH","label":"pH","status":"High","trend":"insufficient_data"},"phosphate":{"mean":0.035,"min":0.013,"max":0.1,"latest":0.013,"n_samples":10,"unit":"mg/l","label":"Orthophosphate, reactive as P","status":"High","trend":"insufficient_data"},"temperature":{"mean":11.61,"min":5.9,"max":17.7,"latest":9.5,"n_samples":10,"unit":"\u00b0C","label":"Temperature"},"total_oxidised_n":{"mean":1.271,"min":0.79,"max":2.0,"latest":1.4,"n_samples":10,"unit":"mg/l","label":"Nitrogen, Total Oxidised as N"}},"statuses":{"ammonia":"High","do_percent":"High","ph":"High","phosphate":"High"},"sample_count":70,"total_samples":70,"earliest_sample":"2024-06-18","latest_sample":"2025-03-21","overall_status":"High","worst_determinand":"ammonia"},{"id":"SW-81220265","label":"TAMAR ESTUARY AT LIFT AROUND","lat":50.48269,"lon":-4.2176,"type":"SALINE WATER - ESTUARINE SITES - NON BATHING/SHELLFISH","determinands":{"do_percent":{"mean":98.5333,"min":94.0,"max":101.0,"latest":94.0,"n_samples":9,"unit":"%","label":"Dissolved Oxygen (% sat)","status":"High","trend":"insufficient_data"},"temperature":{"mean":6.7,"min":5.8,"max":9.1,"latest":9.0,"n_samples":9,"unit":"\u00b0C","label":"Temperature"}},"statuses":{"do_percent":"High"},"sample_count":18,"total_samples":18,"earliest_sample":"2015-02-11","latest_sample":"2015-02-26","overall_status":"High","worst_determinand":"do_percent"},{"id":"SW-81250190","label":"CLITTERS ADIT PRIOR TO RIVER TAMAR CONFLUENCE","lat":50.52984,"lon":-4.22894,"type":"MISCELLANEOUS DISCHARGES - SURFACE WATER","determinands":{"ammonia":{"mean":0.03,"min":0.03,"max":0.03,"latest":0.03,"n_samples":1,"unit":"mg/l","label":"Ammoniacal Nitrogen as N","status":"High","trend":"insufficient_data"},"do_percent":{"mean":87.1,"min":87.1,"max":87.1,"latest":87.1,"n_samples":1,"unit":"%","label":"Dissolved Oxygen (% sat)","status":"High","trend":"insufficient_data"},"ph":{"mean":5.57,"min":5.57,"max":5.57,"latest":5.57,"n_samples":1,"unit":"pH","label":"pH","status":"Poor","trend":"insufficient_data"},"temperature":{"mean":12.1,"min":12.1,"max":12.1,"latest":12.1,"n_samples":1,"unit":"\u00b0C","label":"Temperature"},"total_oxidised_n":{"mean":1.2,"min":1.2,"max":1.2,"latest":1.2,"n_samples":1,"unit":"mg/l","label":"Nitrogen, Total Oxidised as N"}},"statuses":{"ammonia":"High","do_percent":"High","ph":"Poor"},"sample_count":5,"total_samples":5,"earliest_sample":"2024-04-18","latest_sample":"2024-04-18","overall_status":"Poor","worst_determinand":"ph"},{"id":"SW-82518153","label":"CAMEL ESTUARY DOWNSTREAM BRADFORD QUAY TRAC FISH COLUMN DATA","lat":50.52474,"lon":-4.8451,"type":"SALINE WATER - ESTUARINE SITES - NON BATHING/SHELLFISH","determinands":{"do_percent":{"mean":94.5,"min":90.7,"max":102.1,"latest":90.7,"n_samples":3,"unit":"%","label":"Dissolved Oxygen (% sat)","status":"High","trend":"declining"},"temperature":{"mean":15.8667,"min":13.4,"max":20.8,"latest":13.4,"n_samples":3,"unit":"\u00b0C","label":"Temperature"}},"statuses":{"do_percent":"High"},"sample_count":6,"total_samples":45,"earliest_sample":"2007-05-11","latest_sample":"2025-10-13","overall_status":"High","worst_determinand":"do_percent"},{"id":"SW-81220270","label":"TAMAR ESTUARY AT COTEHELE","lat":50.48889,"lon":-4.2239,"type":"SALINE WATER - ESTUARINE SITES - NON BATHING/SHELLFISH","determinands":{"do_percent":{"mean":100.1375,"min":98.5,"max":103.0,"latest":100.0,"n_samples":8,"unit":"%","label":"Dissolved Oxygen (% sat)","status":"High","trend":"insufficient_data"},"temperature":{"mean":6.375,"min":5.9,"max":8.8,"latest":8.8,"n_samples":8,"unit":"\u00b0C","label":"Temperature"}},"statuses":{"do_percent":"High"},"sample_count":16,"total_samples":16,"earliest_sample":"2015-02-11","latest_sample":"2015-02-26","overall_status":"High","worst_determinand":"do_percent"},{"id":"SW-81251112","label":"BLANCHDOWN STREAM PRIOR TO RIVER TAMAR","lat":50.53491,"lon":-4.21323,"type":"FRESHWATER - RIVERS","determinands":{"ammonia":{"mean":0.03,"min":0.03,"max":0.03,"latest":0.03,"n_samples":1,"unit":"mg/l","label":"Ammoniacal Nitrogen as N","status":"High","trend":"insufficient_data"},"do_percent":{"mean":96.5,"min":96.5,"max":96.5,"latest":96.5,"n_samples":1,"unit":"%","label":"Dissolved Oxygen (% sat)","status":"High","trend":"insufficient_data"},"ph":{"mean":4.8,"min":4.8,"max":4.8,"latest":4.8,"n_samples":1,"unit":"pH","label":"pH","status":"Poor","trend":"insufficient_data"},"temperature":{"mean":12.5,"min":12.5,"max":12.5,"latest":12.5,"n_samples":1,"unit":"\u00b0C","label":"Temperature"},"total_oxidised_n":{"mean":0.54,"min":0.54,"max":0.54,"latest":0.54,"n_samples":1,"unit":"mg/l","label":"Nitrogen, Total Oxidised as N"}},"statuses":{"ammonia":"High","do_percent":"High","ph":"Poor"},"sample_count":5,"total_samples":5,"earliest_sample":"2024-07-03","latest_sample":"2024-07-03","overall_status":"Poor","worst_determinand":"ph"},{"id":"SW-81511551","label":"STONERUSH LAKES OUTLET 1","lat":50.39229,"lon":-4.57515,"type":"SEWAGE DISCHARGES - FINAL/TREATED EFFLUENT - NOT WATER COMPANY","determinands":{"ammonia":{"mean":36.0,"min":36.0,"max":36.0,"latest":36.0,"n_samples":1,"unit":"mg/l","label":"Ammoniacal Nitrogen as N","status":"Bad","trend":"insufficient_data"},"bod":{"mean":11.0,"min":11.0,"max":11.0,"latest":11.0,"n_samples":1,"unit":"mg/l","label":"BOD 5 Day ATU","status":"Bad","trend":"insufficient_data"},"ph":{"mean":7.1,"min":7.1,"max":7.1,"latest":7.1,"n_samples":1,"unit":"pH","label":"pH","status":"High","trend":"insufficient_data"},"phosphate":{"mean":7.3,"min":7.3,"max":7.3,"latest":7.3,"n_samples":1,"unit":"mg/l","label":"Orthophosphate, reactive as P","status":"Bad","trend":"insufficient_data"},"ss":{"mean":19.0,"min":19.0,"max":19.0,"latest":19.0,"n_samples":1,"unit":"mg/l","label":"Suspended Solids at 105C"},"total_oxidised_n":{"mean":1.0,"min":1.0,"max":1.0,"latest":1.0,"n_samples":1,"unit":"mg/l","label":"Nitrogen, Total Oxidised as N"}},"statuses":{"ammonia":"Bad","bod":"Bad","ph":"High","phosphate":"Bad"},"sample_count":6,"total_samples":6,"earliest_sample":"2025-04-03","latest_sample":"2025-04-03","overall_status":"Bad","worst_determinand":"ammonia"},{"id":"SW-73021487","label":"YARNSCOMBE  S T W - EFFLUENT","lat":50.99368,"lon":-4.05615,"type":"SEWAGE DISCHARGES - FINAL/TREATED EFFLUENT - WATER COMPANY","determinands":{"ammonia":{"mean":4.515,"min":2.3,"max":9.65,"latest":2.52,"n_samples":4,"unit":"mg/l","label":"Ammoniacal Nitrogen as N","status":"Bad","trend":"insufficient_data"},"bod":{"mean":8.25,"min":4.2,"max":12.7,"latest":4.6,"n_samples":4,"unit":"mg/l","label":"BOD 5 Day ATU","status":"Poor","trend":"insufficient_data"},"ss":{"mean":12.525,"min":10.6,"max":14.2,"latest":12.5,"n_samples":4,"unit":"mg/l","label":"Suspended Solids at 105C"}},"statuses":{"ammonia":"Bad","bod":"Poor"},"sample_count":12,"total_samples":12,"earliest_sample":"2000-03-09","latest_sample":"2000-10-16","overall_status":"Bad","worst_determinand":"ammonia"},{"id":"SW-81520265","label":"BODMIN ROAD BRIDGE     RIVER FOWEY","lat":50.44865,"lon":-4.66144,"type":"FRESHWATER - RIVERS","determinands":{"ammonia":{"mean":0.03,"min":0.03,"max":0.03,"latest":0.03,"n_samples":1,"unit":"mg/l","label":"Ammoniacal Nitrogen as N","status":"High","trend":"insufficient_data"},"do_percent":{"mean":102.0,"min":102.0,"max":102.0,"latest":102.0,"n_samples":1,"unit":"%","label":"Dissolved Oxygen (% sat)","status":"High","trend":"insufficient_data"},"ph":{"mean":7.43,"min":7.43,"max":7.43,"latest":7.43,"n_samples":1,"unit":"pH","label":"pH","status":"High","trend":"insufficient_data"},"ss":{"mean":3.0,"min":3.0,"max":3.0,"latest":3.0,"n_samples":1,"unit":"mg/l","label":"Suspended Solids at 105C"},"temperature":{"mean":16.1,"min":16.1,"max":16.1,"latest":16.1,"n_samples":1,"unit":"\u00b0C","label":"Temperature"},"total_oxidised_n":{"mean":0.91,"min":0.91,"max":0.91,"latest":0.91,"n_samples":1,"unit":"mg/l","label":"Nitrogen, Total Oxidised as N"}},"statuses":{"ammonia":"High","do_percent":"High","ph":"High"},"sample_count":6,"total_samples":6,"earliest_sample":"2013-09-03","latest_sample":"2013-09-03","overall_status":"High","worst_determinand":"ammonia"},{"id":"SW-72941694","label":"FOLLY GATE  S T W - EFFLUENT","lat":50.76489,"lon":-4.02483,"type":"SEWAGE DISCHARGES - FINAL/TREATED EFFLUENT - WATER COMPANY","determinands":{"ammonia":{"mean":2.026,"min":0.812,"max":3.24,"latest":0.812,"n_samples":2,"unit":"mg/l","label":"Ammoniacal Nitrogen as N","status":"Poor","trend":"insufficient_data"},"bod":{"mean":5.46,"min":4.57,"max":6.35,"latest":4.57,"n_samples":2,"unit":"mg/l","label":"BOD 5 Day ATU","status":"Moderate","trend":"insufficient_data"},"phosphate":{"mean":1.853,"min":0.776,"max":2.93,"latest":2.93,"n_samples":2,"unit":"mg/l","label":"Orthophosphate, reactive as P","status":"Bad","trend":"insufficient_data"},"ss":{"mean":16.0,"min":9.0,"max":23.0,"latest":9.0,"n_samples":2,"unit":"mg/l","label":"Suspended Solids at 105C"},"total_oxidised_n":{"mean":9.35,"min":1.0,"max":17.7,"latest":17.7,"n_samples":2,"unit":"mg/l","label":"Nitrogen, Total Oxidised as N"}},"statuses":{"ammonia":"Poor","bod":"Moderate","phosphate":"Bad"},"sample_count":10,"total_samples":10,"earliest_sample":"2007-09-11","latest_sample":"2009-02-27","overall_status":"Bad","worst_determinand":"phosphate"},{"id":"SW-72922118","label":"DEEPMOOR TIP DMTML 45L","lat":50.97146,"lon":-4.10203,"type":"WASTE SITE - LEACHATE BOREHOLE","determinands":{"ammonia":{"mean":41.6,"min":0.5,"max":89.8,"latest":41.3,"n_samples":4,"unit":"mg/l","label":"Ammoniacal Nitrogen as N","status":"Bad","trend":"insufficient_data"},"bod":{"mean":40.375,"min":17.3,"max":72.0,"latest":42.2,"n_samples":4,"unit":"mg/l","label":"BOD 5 Day ATU","status":"Bad","trend":"insufficient_data"},"ph":{"mean":6.3725,"min":5.6,"max":7.09,"latest":5.6,"n_samples":4,"unit":"pH","label":"pH","status":"Good","trend":"insufficient_data"},"ss_alt":{"mean":4170.0,"min":2510.0,"max":6840.0,"latest":6840.0,"n_samples":4,"unit":"mg/l","label":"Suspended Solids (alt)"}},"statuses":{"ammonia":"Bad","bod":"Bad","ph":"Good"},"sample_count":16,"total_samples":16,"earliest_sample":"2005-04-20","latest_sample":"2008-04-21","overall_status":"Bad","worst_determinand":"ammonia"},{"id":"SW-82518042","label":"PADSTOW LOBSTER HATCHERY","lat":50.53837,"lon":-4.9349,"type":"TRADE DISCHARGES - PROCESS EFFLUENT - NOT WATER COMPANY","determinands":{"ammonia":{"mean":0.01,"min":0.01,"max":0.01,"latest":0.01,"n_samples":1,"unit":"mg/l","label":"Ammoniacal Nitrogen as N","status":"High","trend":"insufficient_data"},"bod":{"mean":4.0,"min":4.0,"max":4.0,"latest":4.0,"n_samples":1,"unit":"mg/l","label":"BOD 5 Day ATU","status":"High","trend":"insufficient_data"},"phosphate":{"mean":0.017,"min":0.017,"max":0.017,"latest":0.017,"n_samples":1,"unit":"mg/l","label":"Orthophosphate, reactive as P","status":"High","trend":"insufficient_data"},"ss":{"mean":3.1,"min":3.1,"max":3.1,"latest":3.1,"n_samples":1,"unit":"mg/l","label":"Suspended Solids at 105C"},"total_oxidised_n":{"mean":0.28,"min":0.28,"max":0.28,"latest":0.28,"n_samples":1,"unit":"mg/l","label":"Nitrogen, Total Oxidised as N"}},"statuses":{"ammonia":"High","bod":"High","phosphate":"High"},"sample_count":5,"total_samples":10,"earliest_sample":"2010-05-06","latest_sample":"2026-02-18","overall_status":"High","worst_determinand":"ammonia"},{"id":"SW-72922736","label":"BEADORD BROOK 20M U/S TRIGGER'S HILL BRIDGE","lat":50.92564,"lon":-4.06121,"type":"FRESHWATER - RIVERS","determinands":{"nitrate":{"mean":3.0533,"min":1.44,"max":5.22,"latest":2.86,"n_samples":12,"unit":"mg/l","label":"Nitrate as N"},"phosphate":{"mean":0.1555,"min":0.028,"max":0.455,"latest":0.122,"n_samples":12,"unit":"mg/l","label":"Orthophosphate, reactive as P","status":"Moderate","trend":"insufficient_data"},"total_oxidised_n":{"mean":3.0908,"min":1.45,"max":5.23,"latest":2.87,"n_samples":12,"unit":"mg/l","label":"Nitrogen, Total Oxidised as N"}},"statuses":{"phosphate":"Moderate"},"sample_count":36,"total_samples":36,"earliest_sample":"2013-05-30","latest_sample":"2014-05-21","overall_status":"Moderate","worst_determinand":"phosphate"},{"id":"SW-82510620","label":"WHITEACRES STREAM D/S ROAD BRIDGE","lat":50.41186,"lon":-4.97156,"type":"FRESHWATER - RIVERS","determinands":{"ammonia":{"mean":0.03,"min":0.03,"max":0.03,"latest":0.03,"n_samples":2,"unit":"mg/l","label":"Ammoniacal Nitrogen as N","status":"High","trend":"insufficient_data"},"bod":{"mean":3.22,"min":2.16,"max":4.28,"latest":2.16,"n_samples":2,"unit":"mg/l","label":"BOD 5 Day ATU","status":"High","trend":"insufficient_data"},"phosphate":{"mean":0.01,"min":0.01,"max":0.01,"latest":0.01,"n_samples":2,"unit":"mg/l","label":"Orthophosphate, reactive as P","status":"High","trend":"insufficient_data"},"total_oxidised_n":{"mean":2.59,"min":1.33,"max":3.85,"latest":3.85,"n_samples":2,"unit":"mg/l","label":"Nitrogen, Total Oxidised as N"}},"statuses":{"ammonia":"High","bod":"High","phosphate":"High"},"sample_count":8,"total_samples":8,"earliest_sample":"2015-08-19","latest_sample":"2015-09-08","overall_status":"High","worst_determinand":"ammonia"},{"id":"SW-91221749","label":"CAUDWORTHY WATER AT CAUDWORTHY BRIDGE","lat":50.70681,"lon":-4.48406,"type":"FRESHWATER - RIVERS","determinands":{"ammonia":{"mean":0.0976,"min":0.03,"max":0.42,"latest":0.045,"n_samples":12,"unit":"mg/l","label":"Ammoniacal Nitrogen as N","status":"High","trend":"insufficient_data"},"do_percent":{"mean":92.375,"min":83.6,"max":97.0,"latest":96.6,"n_samples":12,"unit":"%","label":"Dissolved Oxygen (% sat)","status":"High","trend":"insufficient_data"},"nitrate":{"mean":2.19,"min":1.18,"max":3.79,"latest":2.5,"n_samples":12,"unit":"mg/l","label":"Nitrate as N"},"ph":{"mean":7.4042,"min":7.07,"max":7.85,"latest":7.07,"n_samples":12,"unit":"pH","label":"pH","status":"High","trend":"insufficient_data"},"phosphate":{"mean":0.0216,"min":0.01,"max":0.043,"latest":0.019,"n_samples":12,"unit":"mg/l","label":"Orthophosphate, reactive as P","status":"High","trend":"insufficient_data"},"ss":{"mean":24.6917,"min":3.1,"max":130.0,"latest":7.0,"n_samples":12,"unit":"mg/l","label":"Suspended Solids at 105C"},"temperature":{"mean":11.6833,"min":6.0,"max":17.8,"latest":7.3,"n_samples":12,"unit":"\u00b0C","label":"Temperature"},"total_oxidised_n":{"mean":2.2,"min":1.2,"max":3.8,"latest":2.5,"n_samples":12,"unit":"mg/l","label":"Nitrogen, Total Oxidised as N"}},"statuses":{"ammonia":"High","do_percent":"High","ph":"High","phosphate":"High"},"sample_count":96,"total_samples":96,"earliest_sample":"2023-06-14","latest_sample":"2024-03-05","overall_status":"High","worst_determinand":"ammonia"},{"id":"SW-81232407","label":"RIVER BURN AT NORTH BRENTOR","lat":50.6104,"lon":-4.1407,"type":"FRESHWATER - RIVERS","determinands":{"ammonia":{"mean":0.03,"min":0.03,"max":0.03,"latest":0.03,"n_samples":1,"unit":"mg/l","label":"Ammoniacal Nitrogen as N","status":"High","trend":"insufficient_data"},"do_percent":{"mean":107.1,"min":107.1,"max":107.1,"latest":107.1,"n_samples":1,"unit":"%","label":"Dissolved Oxygen (% sat)","status":"High","trend":"insufficient_data"},"ph":{"mean":6.8675,"min":6.75,"max":7.03,"latest":6.9,"n_samples":4,"unit":"pH","label":"pH","status":"High","trend":"insufficient_data"},"ss":{"mean":3.0,"min":3.0,"max":3.0,"latest":3.0,"n_samples":1,"unit":"mg/l","label":"Suspended Solids at 105C"},"temperature":{"mean":7.635,"min":7.02,"max":8.86,"latest":7.6,"n_samples":4,"unit":"\u00b0C","label":"Temperature"},