[{"id":"SW-82010193","label":"COBER WATERBODY BACKGROUND SITE 1","lat":50.16485,"lon":-5.26465,"type":"FRESHWATER - RIVERS","determinands":{"ammonia":{"mean":0.7696,"min":0.082,"max":2.39,"latest":0.327,"n_samples":8,"unit":"mg/l","label":"Ammoniacal Nitrogen as N","status":"Moderate","trend":"insufficient_data"},"nitrate":{"mean":4.945,"min":1.66,"max":6.29,"latest":6.29,"n_samples":8,"unit":"mg/l","label":"Nitrate as N"},"phosphate":{"mean":0.1602,"min":0.033,"max":0.485,"latest":0.055,"n_samples":8,"unit":"mg/l","label":"Orthophosphate, reactive as P","status":"Moderate","trend":"insufficient_data"},"total_oxidised_n":{"mean":4.9912,"min":1.82,"max":6.3,"latest":6.3,"n_samples":8,"unit":"mg/l","label":"Nitrogen, Total Oxidised as N"}},"statuses":{"ammonia":"Moderate","phosphate":"Moderate"},"sample_count":32,"total_samples":32,"earliest_sample":"2015-10-20","latest_sample":"2016-03-16","overall_status":"Moderate","worst_determinand":"ammonia"},{"id":"SW-82110024","label":"STP SERVING ST TERESA'S CHESHIRE HOME, FE","lat":50.13211,"lon":-5.48794,"type":"SEWAGE DISCHARGES - FINAL/TREATED EFFLUENT - NOT WATER COMPANY","determinands":{"ammonia":{"mean":18.0,"min":2.9,"max":34.0,"latest":7.1,"n_samples":6,"unit":"mg/l","label":"Ammoniacal Nitrogen as N","status":"Bad","trend":"declining"}},"statuses":{"ammonia":"Bad"},"sample_count":6,"total_samples":27,"earliest_sample":"2015-02-19","latest_sample":"2025-04-16","overall_status":"Bad","worst_determinand":"ammonia"},{"id":"SW-82112182","label":"NEWBRIDGE  S T W - EFFLUENT","lat":50.12668,"lon":-5.60414,"type":"SEWAGE DISCHARGES - FINAL/TREATED EFFLUENT - WATER COMPANY","determinands":{"ammonia":{"mean":3.5,"min":3.5,"max":3.5,"latest":3.5,"n_samples":1,"unit":"mg/l","label":"Ammoniacal Nitrogen as N","status":"Bad","trend":"insufficient_data"},"bod":{"mean":11.0,"min":11.0,"max":11.0,"latest":11.0,"n_samples":1,"unit":"mg/l","label":"BOD 5 Day ATU","status":"Bad","trend":"insufficient_data"},"do_percent":{"mean":69.0,"min":69.0,"max":69.0,"latest":69.0,"n_samples":1,"unit":"%","label":"Dissolved Oxygen (% sat)","status":"Moderate","trend":"insufficient_data"},"ph":{"mean":6.89,"min":6.89,"max":6.89,"latest":6.89,"n_samples":1,"unit":"pH","label":"pH","status":"High","trend":"insufficient_data"},"phosphate":{"mean":1.5,"min":1.5,"max":1.5,"latest":1.5,"n_samples":1,"unit":"mg/l","label":"Orthophosphate, reactive as P","status":"Bad","trend":"insufficient_data"},"ss":{"mean":25.0,"min":25.0,"max":25.0,"latest":25.0,"n_samples":1,"unit":"mg/l","label":"Suspended Solids at 105C"},"temperature":{"mean":14.8,"min":14.8,"max":14.8,"latest":14.8,"n_samples":1,"unit":"\u00b0C","label":"Temperature"},"total_oxidised_n":{"mean":10.0,"min":10.0,"max":10.0,"latest":10.0,"n_samples":1,"unit":"mg/l","label":"Nitrogen, Total Oxidised as N"}},"statuses":{"ammonia":"Bad","bod":"Bad","do_percent":"Moderate","ph":"High","phosphate":"Bad"},"sample_count":8,"total_samples":17,"earliest_sample":"2014-10-20","latest_sample":"2023-10-26","overall_status":"Bad","worst_determinand":"ammonia"},{"id":"SW-82510012","label":"WATERBEACH HOTEL, PADSTOW","lat":50.52613,"lon":-5.01951,"type":"SEWAGE DISCHARGES - FINAL/TREATED EFFLUENT - NOT WATER COMPANY","determinands":{"bod":{"mean":8.185,"min":3.84,"max":16.7,"latest":5.21,"n_samples":4,"unit":"mg/l","label":"BOD 5 Day ATU","status":"Poor","trend":"improving"},"ss":{"mean":10.2575,"min":7.1,"max":13.5,"latest":7.1,"n_samples":4,"unit":"mg/l","label":"Suspended Solids at 105C"}},"statuses":{"bod":"Poor"},"sample_count":8,"total_samples":8,"earliest_sample":"2011-07-20","latest_sample":"2015-01-09","overall_status":"Poor","worst_determinand":"bod"},{"id":"SW-81910121","label":"RIVER FAL OFF OLD MIDDLE POINT OUTFALL - 500M NORTH OF DISCHARGE","lat":50.15262,"lon":-5.04407,"type":"SALINE WATER - ESTUARINE SITES - NON BATHING/SHELLFISH","determinands":{"ammonia":{"mean":18.7,"min":17.6,"max":19.8,"latest":17.6,"n_samples":2,"unit":"mg/l","label":"Ammoniacal Nitrogen as N","status":"Bad","trend":"insufficient_data"},"bod":{"mean":4.4,"min":3.0,"max":5.8,"latest":3.0,"n_samples":2,"unit":"mg/l","label":"BOD 5 Day ATU","status":"Good","trend":"insufficient_data"},"ss":{"mean":13.25,"min":11.3,"max":15.2,"latest":11.3,"n_samples":2,"unit":"mg/l","label":"Suspended Solids at 105C"}},"statuses":{"ammonia":"Bad","bod":"Good"},"sample_count":6,"total_samples":6,"earliest_sample":"2001-08-08","latest_sample":"2001-08-09","overall_status":"Bad","worst_determinand":"ammonia"},{"id":"SW-82010186","label":"MELLANGOOSE STREAM U/S TRUTHALL WOOD TRIBUTARY","lat":50.11818,"lon":-5.2956,"type":"FRESHWATER - RIVERS","determinands":{"do_percent":{"mean":97.525,"min":96.2,"max":101.0,"latest":96.2,"n_samples":4,"unit":"%","label":"Dissolved Oxygen (% sat)","status":"High","trend":"insufficient_data"},"ph":{"mean":7.08,"min":6.98,"max":7.13,"latest":6.98,"n_samples":4,"unit":"pH","label":"pH","status":"High","trend":"insufficient_data"},"temperature":{"mean":13.475,"min":12.5,"max":14.6,"latest":14.0,"n_samples":4,"unit":"\u00b0C","label":"Temperature"}},"statuses":{"do_percent":"High","ph":"High"},"sample_count":12,"total_samples":12,"earliest_sample":"2024-06-14","latest_sample":"2024-07-24","overall_status":"High","worst_determinand":"do_percent"},{"id":"SW-81913945","label":"MAWNAN SMITH BROOK AT HIGHER PENPOLL","lat":50.11331,"lon":-5.11731,"type":"FRESHWATER - RIVERS","determinands":{"ammonia":{"mean":0.1314,"min":0.03,"max":0.502,"latest":0.054,"n_samples":9,"unit":"mg/l","label":"Ammoniacal Nitrogen as N","status":"High","trend":"insufficient_data"},"nitrate":{"mean":6.8033,"min":1.42,"max":9.67,"latest":5.32,"n_samples":9,"unit":"mg/l","label":"Nitrate as N"},"phosphate":{"mean":0.0376,"min":0.02,"max":0.085,"latest":0.02,"n_samples":9,"unit":"mg/l","label":"Orthophosphate, reactive as P","status":"Good","trend":"insufficient_data"},"ss":{"mean":171.8889,"min":3.0,"max":1380.0,"latest":4.8,"n_samples":9,"unit":"mg/l","label":"Suspended Solids at 105C"},"total_oxidised_n":{"mean":6.8367,"min":1.46,"max":9.7,"latest":5.35,"n_samples":9,"unit":"mg/l","label":"Nitrogen, Total Oxidised as N"}},"statuses":{"ammonia":"High","phosphate":"Good"},"sample_count":45,"total_samples":45,"earliest_sample":"2005-10-18","latest_sample":"2006-05-15","overall_status":"Good","worst_determinand":"phosphate"},{"id":"SW-82010190","label":"NANSLOE STREAM PRIOR TO COBER","lat":50.09102,"lon":-5.27638,"type":"FRESHWATER - RIVERS","determinands":{"ammonia":{"mean":6.2741,"min":0.03,"max":36.8,"latest":0.11,"n_samples":10,"unit":"mg/l","label":"Ammoniacal Nitrogen as N","status":"Bad","trend":"improving"},"bod":{"mean":28.1,"min":28.1,"max":28.1,"latest":28.1,"n_samples":1,"unit":"mg/l","label":"BOD 5 Day ATU","status":"Bad","trend":"insufficient_data"},"nitrate":{"mean":6.2945,"min":0.07,"max":11.3,"latest":10.1,"n_samples":8,"unit":"mg/l","label":"Nitrate as N"},"phosphate":{"mean":0.4246,"min":0.01,"max":18.4,"latest":0.026,"n_samples":129,"unit":"mg/l","label":"Orthophosphate, reactive as P","status":"Poor","trend":"improving"},"ss":{"mean":31.2,"min":31.2,"max":31.2,"latest":31.2,"n_samples":1,"unit":"mg/l","label":"Suspended Solids at 105C"},"total_oxidised_n":{"mean":7.0633,"min":0.2,"max":11.4,"latest":10.1,"n_samples":9,"unit":"mg/l","label":"Nitrogen, Total Oxidised as N"}},"statuses":{"ammonia":"Bad","bod":"Bad","phosphate":"Poor"},"sample_count":158,"total_samples":158,"earliest_sample":"2009-12-10","latest_sample":"2020-03-12","overall_status":"Bad","worst_determinand":"ammonia"},{"id":"SW-82419009","label":"NEWLYN EAST CCC SW SITE N6","lat":50.3578,"lon":-5.04316,"type":"WASTE SITE - UNSPECIFIED","determinands":{"ammonia":{"mean":0.1,"min":0.1,"max":0.1,"latest":0.1,"n_samples":1,"unit":"mg/l","label":"Ammoniacal Nitrogen as N","status":"High","trend":"insufficient_data"},"bod":{"mean":2.0,"min":2.0,"max":2.0,"latest":2.0,"n_samples":1,"unit":"mg/l","label":"BOD 5 Day ATU","status":"High","trend":"insufficient_data"},"ph":{"mean":7.8,"min":7.8,"max":7.8,"latest":7.8,"n_samples":1,"unit":"pH","label":"pH","status":"High","trend":"insufficient_data"},"ss":{"mean":4.0,"min":4.0,"max":4.0,"latest":4.0,"n_samples":1,"unit":"mg/l","label":"Suspended Solids at 105C"}},"statuses":{"ammonia":"High","bod":"High","ph":"High"},"sample_count":4,"total_samples":4,"earliest_sample":"2006-01-13","latest_sample":"2006-01-13","overall_status":"High","worst_determinand":"ammonia"},{"id":"SW-82419008","label":"NEWLYN EAST CCC SW SITE N4","lat":50.3578,"lon":-5.04316,"type":"WASTE SITE - UNSPECIFIED","determinands":{"ammonia":{"mean":0.11,"min":0.11,"max":0.11,"latest":0.11,"n_samples":1,"unit":"mg/l","label":"Ammoniacal Nitrogen as N","status":"High","trend":"insufficient_data"},"bod":{"mean":4.0,"min":4.0,"max":4.0,"latest":4.0,"n_samples":1,"unit":"mg/l","label":"BOD 5 Day ATU","status":"High","trend":"insufficient_data"},"ph":{"mean":8.0,"min":8.0,"max":8.0,"latest":8.0,"n_samples":1,"unit":"pH","label":"pH","status":"High","trend":"insufficient_data"},"ss":{"mean":9.0,"min":9.0,"max":9.0,"latest":9.0,"n_samples":1,"unit":"mg/l","label":"Suspended Solids at 105C"}},"statuses":{"ammonia":"High","bod":"High","ph":"High"},"sample_count":4,"total_samples":4,"earliest_sample":"2006-01-13","latest_sample":"2006-01-13","overall_status":"High","worst_determinand":"ammonia"},{"id":"SW-82112194","label":"DWELLINGS & COMMERCIAL PREMISES AT BOSWEDNAN FARM, TREMETHICK CROSS","lat":50.12357,"lon":-5.57942,"type":"SEWAGE DISCHARGES - FINAL/TREATED EFFLUENT - NOT WATER COMPANY","determinands":{"ammonia":{"mean":4.3,"min":4.3,"max":4.3,"latest":4.3,"n_samples":1,"unit":"mg/l","label":"Ammoniacal Nitrogen as N","status":"Bad","trend":"declining"},"bod":{"mean":9.3,"min":9.3,"max":9.3,"latest":9.3,"n_samples":1,"unit":"mg/l","label":"BOD 5 Day ATU","status":"Bad","trend":"declining"},"ph":{"mean":6.5,"min":6.5,"max":6.5,"latest":6.5,"n_samples":1,"unit":"pH","label":"pH","status":"High","trend":"stable"},"phosphate":{"mean":9.0,"min":9.0,"max":9.0,"latest":9.0,"n_samples":1,"unit":"mg/l","label":"Orthophosphate, reactive as P","status":"Bad","trend":"insufficient_data"},"ss":{"mean":15.0,"min":15.0,"max":15.0,"latest":15.0,"n_samples":1,"unit":"mg/l","label":"Suspended Solids at 105C"},"total_oxidised_n":{"mean":21.0,"min":21.0,"max":21.0,"latest":21.0,"n_samples":1,"unit":"mg/l","label":"Nitrogen, Total Oxidised as N"}},"statuses":{"ammonia":"Bad","bod":"Bad","ph":"High","phosphate":"Bad"},"sample_count":6,"total_samples":74,"earliest_sample":"2002-07-24","latest_sample":"2024-02-13","overall_status":"Bad","worst_determinand":"ammonia"},{"id":"SW-81913749","label":"GOONHILLY DOWNS EARTH STATION","lat":50.04903,"lon":-5.18336,"type":"TRADE DISCHARGES - PROCESS EFFLUENT - WATER COMPANY (WTW)","determinands":{"ammonia":{"mean":1.9986,"min":0.5,"max":7.05,"latest":2.45,"n_samples":7,"unit":"mg/l","label":"Ammoniacal Nitrogen as N","status":"Poor","trend":"insufficient_data"},"bod":{"mean":5.3571,"min":2.8,"max":8.0,"latest":8.0,"n_samples":7,"unit":"mg/l","label":"BOD 5 Day ATU","status":"Moderate","trend":"insufficient_data"},"ph":{"mean":7.8014,"min":7.23,"max":8.15,"latest":7.73,"n_samples":7,"unit":"pH","label":"pH","status":"High","trend":"insufficient_data"},"ss":{"mean":11.9143,"min":3.5,"max":19.5,"latest":14.3,"n_samples":7,"unit":"mg/l","label":"Suspended Solids at 105C"}},"statuses":{"ammonia":"Poor","bod":"Moderate","ph":"High"},"sample_count":28,"total_samples":28,"earliest_sample":"2000-04-06","latest_sample":"2002-01-14","overall_status":"Poor","worst_determinand":"ammonia"},{"id":"SW-82510014","label":"TREYARNON BAY CARAVAN PARK","lat":50.52477,"lon":-5.01985,"type":"SEWAGE DISCHARGES - FINAL/TREATED EFFLUENT - NOT WATER COMPANY","determinands":{"bod":{"mean":10.556,"min":3.48,"max":20.6,"latest":3.48,"n_samples":5,"unit":"mg/l","label":"BOD 5 Day ATU","status":"Bad","trend":"insufficient_data"},"ss":{"mean":14.446,"min":6.6,"max":28.7,"latest":6.6,"n_samples":5,"unit":"mg/l","label":"Suspended Solids at 105C"}},"statuses":{"bod":"Bad"},"sample_count":10,"total_samples":10,"earliest_sample":"2011-07-20","latest_sample":"2013-06-12","overall_status":"Bad","worst_determinand":"bod"},{"id":"SW-82112152","label":"DRIFT  S T W - EFFLUENT","lat":50.10309,"lon":-5.58138,"type":"SEWAGE DISCHARGES - FINAL/TREATED EFFLUENT - WATER COMPANY","determinands":{"ammonia":{"mean":5.9,"min":5.9,"max":5.9,"latest":5.9,"n_samples":1,"unit":"mg/l","label":"Ammoniacal Nitrogen as N","status":"Bad","trend":"insufficient_data"},"bod":{"mean":6.2,"min":6.2,"max":6.2,"latest":6.2,"n_samples":1,"unit":"mg/l","label":"BOD 5 Day ATU","status":"Moderate","trend":"insufficient_data"},"do_percent":{"mean":33.1,"min":33.1,"max":33.1,"latest":33.1,"n_samples":1,"unit":"%","label":"Dissolved Oxygen (% sat)","status":"Bad","trend":"insufficient_data"},"ph":{"mean":6.26,"min":6.26,"max":6.26,"latest":6.26,"n_samples":1,"unit":"pH","label":"pH","status":"Good","trend":"insufficient_data"},"phosphate":{"mean":4.2,"min":4.2,"max":4.2,"latest":4.2,"n_samples":1,"unit":"mg/l","label":"Orthophosphate, reactive as P","status":"Bad","trend":"insufficient_data"},"ss":{"mean":14.0,"min":14.0,"max":14.0,"latest":14.0,"n_samples":1,"unit":"mg/l","label":"Suspended Solids at 105C"},"temperature":{"mean":14.5,"min":14.5,"max":14.5,"latest":14.5,"n_samples":1,"unit":"\u00b0C","label":"Temperature"},"total_oxidised_n":{"mean":17.0,"min":17.0,"max":17.0,"latest":17.0,"n_samples":1,"unit":"mg/l","label":"Nitrogen, Total Oxidised as N"}},"statuses":{"ammonia":"Bad","bod":"Moderate","do_percent":"Bad","ph":"Good","phosphate":"Bad"},"sample_count":8,"total_samples":13,"earliest_sample":"2015-07-13","latest_sample":"2023-10-26","overall_status":"Bad","worst_determinand":"ammonia"},{"id":"SW-82510201","label":"WHIPSIDERRY STREAM AT ROADBRIDGE D/S HOLIDAY PARK","lat":50.43101,"lon":-5.045,"type":"FRESHWATER - RIVERS","determinands":{"ammonia":{"mean":0.1605,"min":0.03,"max":0.5,"latest":0.03,"n_samples":4,"unit":"mg/l","label":"Ammoniacal Nitrogen as N","status":"High","trend":"insufficient_data"},"bod":{"mean":1.1,"min":1.0,"max":1.2,"latest":1.0,"n_samples":3,"unit":"mg/l","label":"BOD 5 Day ATU","status":"High","trend":"insufficient_data"},"ph":{"mean":7.75,"min":7.75,"max":7.75,"latest":7.75,"n_samples":1,"unit":"pH","label":"pH","status":"High","trend":"insufficient_data"},"ss":{"mean":9.0667,"min":3.0,"max":16.0,"latest":3.0,"n_samples":3,"unit":"mg/l","label":"Suspended Solids at 105C"},"ss_alt":{"mean":367.3333,"min":305.0,"max":528.0,"latest":341.0,"n_samples":6,"unit":"mg/l","label":"Suspended Solids (alt)"},"temperature":{"mean":11.882,"min":10.79,"max":13.42,"latest":13.42,"n_samples":5,"unit":"\u00b0C","label":"Temperature"}},"statuses":{"ammonia":"High","bod":"High","ph":"High"},"sample_count":22,"total_samples":22,"earliest_sample":"2002-02-11","latest_sample":"2005-05-19","overall_status":"High","worst_determinand":"ammonia"},{"id":"SW-81910125","label":"PENDENNIS SHIPYARD LTD","lat":50.15267,"lon":-5.05247,"type":"TRADE DISCHARGES - UNSPECIFIED","determinands":{"ammonia":{"mean":0.5,"min":0.5,"max":0.5,"latest":0.5,"n_samples":1,"unit":"mg/l","label":"Ammoniacal Nitrogen as N","status":"Good","trend":"insufficient_data"},"bod":{"mean":1.0,"min":1.0,"max":1.0,"latest":1.0,"n_samples":1,"unit":"mg/l","label":"BOD 5 Day ATU","status":"High","trend":"insufficient_data"},"do_percent":{"mean":96.1,"min":96.1,"max":96.1,"latest":96.1,"n_samples":1,"unit":"%","label":"Dissolved Oxygen (% sat)","status":"High","trend":"insufficient_data"},"ph":{"mean":7.51,"min":7.51,"max":7.51,"latest":7.51,"n_samples":1,"unit":"pH","label":"pH","status":"High","trend":"insufficient_data"},"phosphate":{"mean":0.5,"min":0.5,"max":0.5,"latest":0.5,"n_samples":1,"unit":"mg/l","label":"Orthophosphate, reactive as P","status":"Poor","trend":"insufficient_data"},"ss":{"mean":45.0,"min":45.0,"max":45.0,"latest":45.0,"n_samples":1,"unit":"mg/l","label":"Suspended Solids at 105C"},"temperature":{"mean":13.1,"min":13.1,"max":13.1,"latest":13.1,"n_samples":1,"unit":"\u00b0C","label":"Temperature"},"total_oxidised_n":{"mean":1.5,"min":1.5,"max":1.5,"latest":1.5,"n_samples":1,"unit":"mg/l","label":"Nitrogen, Total Oxidised as N"}},"statuses":{"ammonia":"Good","bod":"High","do_percent":"High","ph":"High","phosphate":"Poor"},"sample_count":8,"total_samples":13,"earliest_sample":"2014-01-07","latest_sample":"2025-12-08","overall_status":"Poor","worst_determinand":"phosphate"},{"id":"SW-81910656","label":"PENRYN (BISSOM GORRAN) STW - FINAL EFFLUENT","lat":50.17025,"lon":-5.09197,"type":"SEWAGE DISCHARGES - FINAL/TREATED EFFLUENT - NOT WATER COMPANY","determinands":{"ammonia":{"mean":13.431,"min":1.87,"max":26.1,"latest":1.87,"n_samples":10,"unit":"mg/l","label":"Ammoniacal Nitrogen as N","status":"Bad","trend":"improving"},"bod":{"mean":23.778,"min":2.92,"max":55.6,"latest":2.92,"n_samples":10,"unit":"mg/l","label":"BOD 5 Day ATU","status":"Bad","trend":"improving"},"do_percent":{"mean":43.0,"min":43.0,"max":43.0,"latest":43.0,"n_samples":1,"unit":"%","label":"Dissolved Oxygen (% sat)","status":"Bad","trend":"insufficient_data"},"ph":{"mean":6.4986,"min":5.74,"max":6.9,"latest":5.74,"n_samples":7,"unit":"pH","label":"pH","status":"Good","trend":"decreasing"},"ss":{"mean":48.71,"min":15.0,"max":143.0,"latest":23.7,"n_samples":10,"unit":"mg/l","label":"Suspended Solids at 105C"},"temperature":{"mean":12.8,"min":10.9,"max":14.7,"latest":10.9,"n_samples":2,"unit":"\u00b0C","label":"Temperature"}},"statuses":{"ammonia":"Bad","bod":"Bad","do_percent":"Bad","ph":"Good"},"sample_count":40,"total_samples":40,"earliest_sample":"2000-01-13","latest_sample":"2005-04-18","overall_status":"Bad","worst_determinand":"ammonia"},{"id":"SW-82110020","label":"PENGERSICK ESTATE","lat":50.10819,"lon":-5.38452,"type":"SEWAGE DISCHARGES - FINAL/TREATED EFFLUENT - NOT WATER COMPANY","determinands":{"ammonia":{"mean":4.97,"min":4.97,"max":4.97,"latest":4.97,"n_samples":1,"unit":"mg/l","label":"Ammoniacal Nitrogen as N","status":"Bad","trend":"insufficient_data"},"bod":{"mean":17.0,"min":17.0,"max":17.0,"latest":17.0,"n_samples":1,"unit":"mg/l","label":"BOD 5 Day ATU","status":"Bad","trend":"insufficient_data"},"ph":{"mean":7.0,"min":7.0,"max":7.0,"latest":7.0,"n_samples":1,"unit":"pH","label":"pH","status":"High","trend":"insufficient_data"},"ss":{"mean":210.0,"min":210.0,"max":210.0,"latest":210.0,"n_samples":1,"unit":"mg/l","label":"Suspended Solids at 105C"}},"statuses":{"ammonia":"Bad","bod":"Bad","ph":"High"},"sample_count":4,"total_samples":4,"earliest_sample":"2012-10-05","latest_sample":"2012-10-05","overall_status":"Bad","worst_determinand":"ammonia"},{"id":"SW-82510306","label":"NO 2 RIALTON COTTAGES STW F/E","lat":50.41724,"lon":-5.02919,"type":"SEWAGE DISCHARGES - FINAL/TREATED EFFLUENT - NOT WATER COMPANY","determinands":{"ammonia":{"mean":11.5,"min":11.5,"max":11.5,"latest":11.5,"n_samples":1,"unit":"mg/l","label":"Ammoniacal Nitrogen as N","status":"Bad","trend":"insufficient_data"},"bod":{"mean":12.2,"min":12.2,"max":12.2,"latest":12.2,"n_samples":1,"unit":"mg/l","label":"BOD 5 Day ATU","status":"Bad","trend":"insufficient_data"},"ph":{"mean":6.47,"min":6.47,"max":6.47,"latest":6.47,"n_samples":1,"unit":"pH","label":"pH","status":"Good","trend":"insufficient_data"},"ss":{"mean":13.3,"min":13.3,"max":13.3,"latest":13.3,"n_samples":1,"unit":"mg/l","label":"Suspended Solids at 105C"}},"statuses":{"ammonia":"Bad","bod":"Bad","ph":"Good"},"sample_count":4,"total_samples":4,"earliest_sample":"2005-04-07","latest_sample":"2005-04-07","overall_status":"Bad","worst_determinand":"ammonia"},{"id":"SW-82111210","label":"EASTERN GREEN RETAIL DEVELOPMENT SEWAGE TREATMENT PLANT","lat":50.12868,"lon":-5.51535,"type":"SEWAGE DISCHARGES - FINAL/TREATED EFFLUENT - NOT WATER COMPANY","determinands":{"ammonia":{"mean":18.0,"min":18.0,"max":18.0,"latest":18.0,"n_samples":1,"unit":"mg/l","label":"Ammoniacal Nitrogen as N","status":"Bad","trend":"insufficient_data"},"bod":{"mean":4.63,"min":4.63,"max":4.63,"latest":4.63,"n_samples":1,"unit":"mg/l","label":"BOD 5 Day ATU","status":"Good","trend":"insufficient_data"},"ss":{"mean":38.8,"min":38.8,"max":38.8,"latest":38.8,"n_samples":1,"unit":"mg/l","label":"Suspended Solids at 105C"}},"statuses":{"ammonia":"Bad","bod":"Good"},"sample_count":3,"total_samples":3,"earliest_sample":"2019-01-02","latest_sample":"2019-01-02","overall_status":"Bad","worst_determinand":"ammonia"},{"id":"SW-82110938","label":"TREGILLIOWE STREAM AT TREGILLIOWE FARM","lat":50.14432,"lon":-5.44798,"type":"FRESHWATER - RIVERS","determinands":{"do_percent":{"mean":72.05,"min":67.7,"max":76.4,"latest":76.4,"n_samples":2,"unit":"%","label":"Dissolved Oxygen (% sat)","status":"Good","trend":"insufficient_data"},"ph":{"mean":7.55,"min":7.1,"max":8.0,"latest":8.0,"n_samples":2,"unit":"pH","label":"pH","status":"High","trend":"insufficient_data"},"ss":{"mean":3.65,"min":3.0,"max":4.3,"latest":4.3,"n_samples":2,"unit":"mg/l","label":"Suspended Solids at 105C"},"temperature":{"mean":12.7,"min":11.6,"max":13.8,"latest":11.6,"n_samples":2,"unit":"\u00b0C","label":"Temperature"}},"statuses":{"do_percent":"Good","ph":"High"},"sample_count":8,"total_samples":8,"earliest_sample":"2024-10-17","latest_sample":"2024-11-28","overall_status":"Good","worst_determinand":"do_percent"},{"id":"SW-82510305","label":"NO 1 RIALTON COTTAGES STW F/E","lat":50.41731,"lon":-5.02862,"type":"SEWAGE DISCHARGES - FINAL/TREATED EFFLUENT - NOT WATER COMPANY","determinands":{"ammonia":{"mean":10.0,"min":10.0,"max":10.0,"latest":10.0,"n_samples":1,"unit":"mg/l","label":"Ammoniacal Nitrogen as N","status":"Bad","trend":"insufficient_data"},"bod":{"mean":23.9,"min":23.9,"max":23.9,"latest":23.9,"n_samples":1,"unit":"mg/l","label":"BOD 5 Day ATU","status":"Bad","trend":"insufficient_data"},"ph":{"mean":7.3,"min":7.3,"max":7.3,"latest":7.3,"n_samples":1,"unit":"pH","label":"pH","status":"High","trend":"insufficient_data"},"ss":{"mean":43.0,"min":43.0,"max":43.0,"latest":43.0,"n_samples":1,"unit":"mg/l","label":"Suspended Solids at 105C"}},"statuses":{"ammonia":"Bad","bod":"Bad","ph":"High"},"sample_count":4,"total_samples":4,"earliest_sample":"2005-03-10","latest_sample":"2005-03-10","overall_status":"Bad","worst_determinand":"ammonia"},{"id":"SW-81913706","label":"HELFORD RIVER - POLGWIDDEN SEAGRASS","lat":50.10168,"lon":-5.10767,"type":"SALINE WATER - ESTUARINE SITES - NON BATHING/SHELLFISH","determinands":{"do_percent":{"mean":106.2667,"min":90.3,"max":121.7,"latest":101.2,"n_samples":6,"unit":"%","label":"Dissolved Oxygen (% sat)","status":"High","trend":"insufficient_data"},"temperature":{"mean":15.1,"min":11.4,"max":17.1,"latest":11.4,"n_samples":6,"unit":"\u00b0C","label":"Temperature"}},"statuses":{"do_percent":"High"},"sample_count":12,"total_samples":12,"earliest_sample":"2023-05-25","latest_sample":"2024-04-14","overall_status":"High","worst_determinand":"do_percent"},{"id":"SW-82510301","label":"TREWOLLACK STREAM AT RIALTON PRIOR TO PORTH STREAM","lat":50.42092,"lon":-5.0321,"type":"FRESHWATER - RIVERS","determinands":{"ammonia":{"mean":0.1867,"min":0.03,"max":0.5,"latest":0.5,"n_samples":3,"unit":"mg/l","label":"Ammoniacal Nitrogen as N","status":"High","trend":"insufficient_data"},"bod":{"mean":1.2,"min":1.0,"max":1.6,"latest":1.6,"n_samples":3,"unit":"mg/l","label":"BOD 5 Day ATU","status":"High","trend":"insufficient_data"},"ph":{"mean":7.72,"min":7.72,"max":7.72,"latest":7.72,"n_samples":1,"unit":"pH","label":"pH","status":"High","trend":"insufficient_data"},"ss":{"mean":6.0667,"min":3.0,"max":12.2,"latest":3.0,"n_samples":3,"unit":"mg/l","label":"Suspended Solids at 105C"},"ss_alt":{"mean":398.5,"min":345.0,"max":452.0,"latest":452.0,"n_samples":2,"unit":"mg/l","label":"Suspended Solids (alt)"},"temperature":{"mean":10.42,"min":10.42,"max":10.42,"latest":10.42,"n_samples":1,"unit":"\u00b0C","label":"Temperature"}},"statuses":{"ammonia":"High","bod":"High","ph":"High"},"sample_count":13,"total_samples":13,"earliest_sample":"2002-02-11","latest_sample":"2002-10-23","overall_status":"High","worst_determinand":"ammonia"},{"id":"SW-82112125","label":"TREGAVARAH DWELLINGS & TREREIFE BARN  TREREIFE FARM  PENZANCE","lat":50.11236,"lon":-5.56683,"type":"SEWAGE DISCHARGES - FINAL/TREATED EFFLUENT - NOT WATER COMPANY","determinands":{"ammonia":{"mean":2.17,"min":2.17,"max":2.17,"latest":2.17,"n_samples":1,"unit":"mg/l","label":"Ammoniacal Nitrogen as N","status":"Poor","trend":"insufficient_data"},"bod":{"mean":19.4,"min":19.4,"max":19.4,"latest":19.4,"n_samples":1,"unit":"mg/l","label":"BOD 5 Day ATU","status":"Bad","trend":"insufficient_data"},"ss":{"mean":27.5,"min":27.5,"max":27.5,"latest":27.5,"n_samples":1,"unit":"mg/l","label":"Suspended Solids at 105C"}},"statuses":{"ammonia":"Poor","bod":"Bad"},"sample_count":3,"total_samples":3,"earliest_sample":"2000-04-07","latest_sample":"2000-04-07","overall_status":"Bad","worst_determinand":"bod"},{"id":"SW-82011028","label":"HALWIN ADIT","lat":50.15285,"lon":-5.22628,"type":"GROUNDWATER - WELLS & ADITS","determinands":{"do_percent":{"mean":48.8,"min":48.8,"max":48.8,"latest":48.8,"n_samples":1,"unit":"%","label":"Dissolved Oxygen (% sat)","status":"Poor","trend":"insufficient_data"},"ph":{"mean":6.23,"min":6.23,"max":6.23,"latest":6.23,"n_samples":1,"unit":"pH","label":"pH","status":"Good","trend":"insufficient_data"},"temperature":{"mean":12.4,"min":12.4,"max":12.4,"latest":12.4,"n_samples":1,"unit":"\u00b0C","label":"Temperature"}},"statuses":{"do_percent":"Poor","ph":"Good"},"sample_count":3,"total_samples":3,"earliest_sample":"2025-09-12","latest_sample":"2025-09-12","overall_status":"Poor","worst_determinand":"do_percent"},{"id":"SW-81913895","label":"MINSTER TERRACE MANACCAN HELFORD","lat":50.08433,"lon":-5.12894,"type":"SEWAGE DISCHARGES - FINAL/TREATED EFFLUENT - NOT WATER COMPANY","determinands":{"ammonia":{"mean":14.4532,"min":0.5,"max":74.7,"latest":0.5,"n_samples":19,"unit":"mg/l","label":"Ammoniacal Nitrogen as N","status":"Bad","trend":"improving"},"bod":{"mean":43.7821,"min":1.0,"max":274.0,"latest":1.0,"n_samples":19,"unit":"mg/l","label":"BOD 5 Day ATU","status":"Bad","trend":"improving"},"ph":{"mean":7.1739,"min":6.84,"max":7.51,"latest":7.3,"n_samples":18,"unit":"pH","label":"pH","status":"High","trend":"stable"},"ss":{"mean":51.251,"min":3.0,"max":187.0,"latest":3.0,"n_samples":20,"unit":"mg/l","label":"Suspended Solids at 105C"}},"statuses":{"ammonia":"Bad","bod":"Bad","ph":"High"},"sample_count":76,"total_samples":76,"earliest_sample":"2001-12-11","latest_sample":"2012-01-16","overall_status":"Bad","worst_determinand":"ammonia"},{"id":"SW-81910146","label":"NORTHERN CARRICK ROADS - PENARROW POINT - TOP","lat":50.17528,"lon":-5.03766,"type":"SALINE WATER - ESTUARINE SITES - NON BATHING/SHELLFISH","determinands":{"do_percent":{"mean":95.1,"min":91.8,"max":96.9,"latest":96.9,"n_samples":3,"unit":"%","label":"Dissolved Oxygen (% sat)","status":"High","trend":"insufficient_data"},"temperature":{"mean":10.089,"min":8.624,"max":11.9,"latest":8.624,"n_samples":3,"unit":"\u00b0C","label":"Temperature"}},"statuses":{"do_percent":"High"},"sample_count":6,"total_samples":6,"earliest_sample":"2014-12-04","latest_sample":"2015-02-19","overall_status":"High","worst_determinand":"do_percent"},{"id":"SW-81913709","label":"SEA AT THE MANACLES","lat":50.04277,"lon":-5.05534,"type":"SALINE WATER - COASTAL SITES - NON BATHING/SHELLFISH","determinands":{"do_percent":{"mean":102.7667,"min":93.6,"max":107.3,"latest":93.6,"n_samples":6,"unit":"%","label":"Dissolved Oxygen (% sat)","status":"High","trend":"insufficient_data"},"temperature":{"mean":14.2167,"min":11.1,"max":17.5,"latest":16.1,"n_samples":6,"unit":"\u00b0C","label":"Temperature"}},"statuses":{"do_percent":"High"},"sample_count":12,"total_samples":12,"earliest_sample":"2024-04-14","latest_sample":"2024-09-11","overall_status":"High","worst_determinand":"do_percent"},{"id":"SW-82011190","label":"BALMYNHEER ADIT STREAM","lat":50.16274,"lon":-5.21605,"type":"GROUNDWATER - WELLS & ADITS","determinands":{"do_percent":{"mean":92.9,"min":92.9,"max":92.9,"latest":92.9,"n_samples":1,"unit":"%","label":"Dissolved Oxygen (% sat)","status":"High","trend":"insufficient_data"},"ph":{"mean":5.69,"min":5.69,"max":5.69,"latest":5.69,"n_samples":1,"unit":"pH","label":"pH","status":"Poor","trend":"insufficient_data"},"temperature":{"mean":12.1,"min":12.1,"max":12.1,"latest":12.1,"n_samples":1,"unit":"\u00b0C","label":"Temperature"}},"statuses":{"do_percent":"High","ph":"Poor"},"sample_count":3,"total_samples":3,"earliest_sample":"2025-09-12","latest_sample":"2025-09-12","overall_status":"Poor","worst_determinand":"ph"},{"id":"SW-81910598","label":"CARRICKNATH SEAGRASS","lat":50.15223,"lon":-5.01654,"type":"SALINE WATER - ESTUARINE SITES - NON BATHING/SHELLFISH","determinands":{"do_percent":{"mean":101.6833,"min":87.8,"max":113.2,"latest":102.4,"n_samples":6,"unit":"%","label":"Dissolved Oxygen (% sat)","status":"High","trend":"insufficient_data"},"temperature":{"mean":14.6167,"min":11.1,"max":16.6,"latest":11.1,"n_samples":6,"unit":"\u00b0C","label":"Temperature"}},"statuses":{"do_percent":"High"},"sample_count":12,"total_samples":12,"earliest_sample":"2023-05-25","latest_sample":"2024-04-03","overall_status":"High","worst_determinand":"do_percent"},{"id":"SW-81913708","label":"HELFORD RIVER - PASSAGE COVE SEAGRASS","lat":50.09891,"lon":-5.1264,"type":"SALINE WATER - ESTUARINE SITES - NON BATHING/SHELLFISH","determinands":{"do_percent":{"mean":108.36,"min":89.8,"max":130.2,"latest":89.8,"n_samples":5,"unit":"%","label":"Dissolved Oxygen (% sat)","status":"High","trend":"insufficient_data"},"temperature":{"mean":16.02,"min":14.7,"max":17.8,"latest":16.6,"n_samples":5,"unit":"\u00b0C","label":"Temperature"}},"statuses":{"do_percent":"High"},"sample_count":10,"total_samples":10,"earliest_sample":"2023-05-25","latest_sample":"2023-09-02","overall_status":"High","worst_determinand":"do_percent"},{"id":"SW-82418802","label":"INVESTIGATION IN CATCHMENT 24A","lat":50.39448,"lon":-5.06306,"type":"POLLUTION/INVESTIGATION POINTS - ENVIRONMENT","determinands":{"ammonia":{"mean":0.059,"min":0.059,"max":0.059,"latest":0.059,"n_samples":1,"unit":"mg/l","label":"Ammoniacal Nitrogen as N","status":"High","trend":"insufficient_data"},"bod":{"mean":3.44,"min":3.44,"max":3.44,"latest":3.44,"n_samples":1,"unit":"mg/l","label":"BOD 5 Day ATU","status":"High","trend":"insufficient_data"},"do_percent":{"mean":84.0,"min":84.0,"max":84.0,"latest":84.0,"n_samples":1,"unit":"%","label":"Dissolved Oxygen (% sat)","status":"High","trend":"insufficient_data"},"ph":{"mean":7.47,"min":7.47,"max":7.47,"latest":7.47,"n_samples":1,"unit":"pH","label":"pH","status":"High","trend":"insufficient_data"},"ss":{"mean":116.0,"min":116.0,"max":116.0,"latest":116.0,"n_samples":1,"unit":"mg/l","label":"Suspended Solids at 105C"},"ss_alt":{"mean":337.0,"min":337.0,"max":337.0,"latest":337.0,"n_samples":1,"unit":"mg/l","label":"Suspended Solids (alt)"},"temperature":{"mean":14.96,"min":14.96,"max":14.96,"latest":14.96,"n_samples":1,"unit":"\u00b0C","label":"Temperature"}},"statuses":{"ammonia":"High","bod":"High","do_percent":"High","ph":"High"},"sample_count":7,"total_samples":7,"earliest_sample":"2005-10-24","latest_sample":"2005-10-24","overall_status":"High","worst_determinand":"ammonia"},{"id":"SW-82011020","label":"LOWER PORKELLIS ADIT","lat":50.14825,"lon":-5.23279,"type":"GROUNDWATER - WELLS & ADITS","determinands":{"do_percent":{"mean":75.8,"min":75.8,"max":75.8,"latest":75.8,"n_samples":1,"unit":"%","label":"Dissolved Oxygen (% sat)","status":"Good","trend":"insufficient_data"},"ph":{"mean":5.04,"min":5.04,"max":5.04,"latest":5.04,"n_samples":1,"unit":"pH","label":"pH","status":"Poor","trend":"insufficient_data"},"temperature":{"mean":11.1,"min":11.1,"max":11.1,"latest":11.1,"n_samples":1,"unit":"\u00b0C","label":"Temperature"}},"statuses":{"do_percent":"Good","ph":"Poor"},"sample_count":3,"total_samples":3,"earliest_sample":"2026-01-02","latest_sample":"2026-01-02","overall_status":"Poor","worst_determinand":"ph"},{"id":"SW-82110936","label":"TRIB OF TREGILLIOWE STREAM AT TREVENEAGUE","lat":50.14049,"lon":-5.43293,"type":"FRESHWATER - RIVERS","determinands":{"ph":{"mean":7.3075,"min":7.12,"max":7.67,"latest":7.12,"n_samples":4,"unit":"pH","label":"pH","status":"High","trend":"insufficient_data"}},"statuses":{"ph":"High"},"sample_count":4,"total_samples":4,"earliest_sample":"2023-12-04","latest_sample":"2024-03-19","overall_status":"High","worst_determinand":"ph"},{"id":"SW-82510225","label":"DEPT OF THE ENVIRONMENT -  RAF ST MAWGAN","lat":50.43387,"lon":-5.0218,"type":"SEWAGE DISCHARGES - FINAL/TREATED EFFLUENT - NOT WATER COMPANY","determinands":{"ammonia":{"mean":1.229,"min":0.372,"max":9.4,"latest":0.5,"n_samples":40,"unit":"mg/l","label":"Ammoniacal Nitrogen as N","status":"Poor","trend":"declining"},"bod":{"mean":4.8685,"min":3.0,"max":24.0,"latest":3.0,"n_samples":40,"unit":"mg/l","label":"BOD 5 Day ATU","status":"Good","trend":"stable"},"ph":{"mean":6.7856,"min":3.95,"max":7.7,"latest":7.5,"n_samples":39,"unit":"pH","label":"pH","status":"High","trend":"stable"},"ss":{"mean":12.875,"min":3.1,"max":32.5,"latest":8.5,"n_samples":40,"unit":"mg/l","label":"Suspended Solids at 105C"}},"statuses":{"ammonia":"Poor","bod":"Good","ph":"High"},"sample_count":159,"total_samples":159,"earliest_sample":"2000-01-14","latest_sample":"2004-01-07","overall_status":"Poor","worst_determinand":"ammonia"},{"id":"SW-82111870","label":"BOSWARTHEN  MADRON  PENZANCE","lat":50.14352,"lon":-5.58035,"type":"SEWAGE DISCHARGES - FINAL/TREATED EFFLUENT - NOT WATER COMPANY","determinands":{"ammonia":{"mean":38.9995,"min":5.19,"max":81.3,"latest":40.3,"n_samples":21,"unit":"mg/l","label":"Ammoniacal Nitrogen as N","status":"Bad","trend":"declining"},"bod":{"mean":84.3176,"min":4.87,"max":496.0,"latest":11.4,"n_samples":21,"unit":"mg/l","label":"BOD 5 Day ATU","status":"Bad","trend":"improving"},"ph":{"mean":7.1747,"min":6.67,"max":7.67,"latest":7.5,"n_samples":19,"unit":"pH","label":"pH","status":"High","trend":"stable"},"phosphate":{"mean":9.16,"min":9.16,"max":9.16,"latest":9.16,"n_samples":1,"unit":"mg/l","label":"Orthophosphate, reactive as P","status":"Bad","trend":"insufficient_data"},"ss":{"mean":40.4714,"min":5.5,"max":112.0,"latest":11.0,"n_samples":21,"unit":"mg/l","label":"Suspended Solids at 105C"},"temperature":{"mean":17.35,"min":17.2,"max":17.5,"latest":17.2,"n_samples":2,"unit":"\u00b0C","label":"Temperature"},"total_oxidised_n":{"mean":1.96,"min":1.96,"max":1.96,"latest":1.96,"n_samples":1,"unit":"mg/l","label":"Nitrogen, Total Oxidised as N"}},"statuses":{"ammonia":"Bad","bod":"Bad","ph":"High","phosphate":"Bad"},"sample_count":86,"total_samples":86,"earliest_sample":"2000-04-17","latest_sample":"2008-09-11","overall_status":"Bad","worst_determinand":"ammonia"},{"id":"SW-82419003","label":"NEWLYN EAST CCC GW/GAS SITE G5","lat":50.3578,"lon":-5.04316,"type":"WASTE SITE - UNSPECIFIED","determinands":{"ammonia":{"mean":0.1,"min":0.1,"max":0.1,"latest":0.1,"n_samples":1,"unit":"mg/l","label":"Ammoniacal Nitrogen as N","status":"High","trend":"insufficient_data"},"bod":{"mean":4.0,"min":4.0,"max":4.0,"latest":4.0,"n_samples":1,"unit":"mg/l","label":"BOD 5 Day ATU","status":"High","trend":"insufficient_data"},"nitrate":{"mean":1.0,"min":1.0,"max":1.0,"latest":1.0,"n_samples":1,"unit":"mg/l","label":"Nitrate as N"},"ph":{"mean":4.4,"min":4.4,"max":4.4,"latest":4.4,"n_samples":1,"unit":"pH","label":"pH","status":"Poor","trend":"insufficient_data"}},"statuses":{"ammonia":"High","bod":"High","ph":"Poor"},"sample_count":4,"total_samples":4,"earliest_sample":"2006-01-13","latest_sample":"2006-01-13","overall_status":"Poor","worst_determinand":"ph"},{"id":"SW-82419002","label":"NEWLYN EAST CCC GW/GAS SITE G4","lat":50.3578,"lon":-5.04316,"type":"WASTE SITE - UNSPECIFIED","determinands":{"ammonia":{"mean":0.1,"min":0.1,"max":0.1,"latest":0.1,"n_samples":1,"unit":"mg/l","label":"Ammoniacal Nitrogen as N","status":"High","trend":"insufficient_data"},"bod":{"mean":4.0,"min":4.0,"max":4.0,"latest":4.0,"n_samples":1,"unit":"mg/l","label":"BOD 5 Day ATU","status":"High","trend":"insufficient_data"},"nitrate":{"mean":6.13,"min":6.13,"max":6.13,"latest":6.13,"n_samples":1,"unit":"mg/l","label":"Nitrate as N"},"ph":{"mean":6.9,"min":6.9,"max":6.9,"latest":6.9,"n_samples":1,"unit":"pH","label":"pH","status":"High","trend":"insufficient_data"}},"statuses":{"ammonia":"High","bod":"High","ph":"High"},"sample_count":4,"total_samples":4,"earliest_sample":"2006-01-13","latest_sample":"2006-01-13","overall_status":"High","worst_determinand":"ammonia"},{"id":"SW-82111534","label":"LITTLE ROSEMORRAN FISH FARM  GULVAL  PENZANCE","lat":50.13417,"lon":-5.53612,"type":"AGRICULTURE - FISH FARMING - NOT WATER COMPANY","determinands":{"ammonia":{"mean":0.0458,"min":0.03,"max":0.066,"latest":0.03,"n_samples":8,"unit":"mg/l","label":"Ammoniacal Nitrogen as N","status":"High","trend":"insufficient_data"},"bod":{"mean":1.275,"min":1.0,"max":3.0,"latest":1.0,"n_samples":8,"unit":"mg/l","label":"BOD 5 Day ATU","status":"High","trend":"insufficient_data"},"do_percent":{"mean":97.25,"min":91.0,"max":102.0,"latest":91.0,"n_samples":8,"unit":"%","label":"Dissolved Oxygen (% sat)","status":"High","trend":"insufficient_data"},"ph":{"mean":7.425,"min":7.35,"max":7.6,"latest":7.5,"n_samples":8,"unit":"pH","label":"pH","status":"High","trend":"insufficient_data"},"ss":{"mean":3.7625,"min":3.0,"max":6.7,"latest":3.3,"n_samples":8,"unit":"mg/l","label":"Suspended Solids at 105C"}},"statuses":{"ammonia":"High","bod":"High","do_percent":"High","ph":"High"},"sample_count":40,"total_samples":40,"earliest_sample":"2000-01-14","latest_sample":"2000-08-21","overall_status":"High","worst_determinand":"ammonia"},{"id":"SW-82318804","label":"INVESTIGATION IN CATCHMENT 23A","lat":50.28538,"lon":-5.21665,"type":"POLLUTION/INVESTIGATION POINTS - ENVIRONMENT","determinands":{"ammonia":{"mean":0.03,"min":0.03,"max":0.03,"latest":0.03,"n_samples":1,"unit":"mg/l","label":"Ammoniacal Nitrogen as N","status":"High","trend":"insufficient_data"},"ph":{"mean":7.4975,"min":7.34,"max":7.85,"latest":7.34,"n_samples":4,"unit":"pH","label":"pH","status":"High","trend":"insufficient_data"},"ss":{"mean":3.08,"min":3.08,"max":3.08,"latest":3.08,"n_samples":1,"unit":"mg/l","label":"Suspended Solids at 105C"},"ss_alt":{"mean":458.0,"min":393.0,"max":510.0,"latest":510.0,"n_samples":3,"unit":"mg/l","label":"Suspended Solids (alt)"},"temperature":{"mean":13.7,"min":13.7,"max":13.7,"latest":13.7,"n_samples":1,"unit":"\u00b0C","label":"Temperature"},"total_oxidised_n":{"mean":5.24,"min":5.24,"max":5.24,"latest":5.24,"n_samples":1,"unit":"mg/l","label":"Nitrogen, Total Oxidised as N"}},"statuses":{"ammonia":"High","ph":"High"},"sample_count":11,"total_samples":11,"earliest_sample":"2000-12-06","latest_sample":"2012-08-08","overall_status":"High","worst_determinand":"ammonia"},{"id":"SW-82419001","label":"NEWLYN EAST CCC GW/GAS SITE G1","lat":50.3578,"lon":-5.04316,"type":"WASTE SITE - UNSPECIFIED","determinands":{"ammonia":{"mean":0.12,"min":0.12,"max":0.12,"latest":0.12,"n_samples":1,"unit":"mg/l","label":"Ammoniacal Nitrogen as N","status":"High","trend":"insufficient_data"},"bod":{"mean":4.0,"min":4.0,"max":4.0,"latest":4.0,"n_samples":1,"unit":"mg/l","label":"BOD 5 Day ATU","status":"High","trend":"insufficient_data"},"nitrate":{"mean":1.0,"min":1.0,"max":1.0,"latest":1.0,"n_samples":1,"unit":"mg/l","label":"Nitrate as N"},"ph":{"mean":8.0,"min":8.0,"max":8.0,"latest":8.0,"n_samples":1,"unit":"pH","label":"pH","status":"High","trend":"insufficient_data"}},"statuses":{"ammonia":"High","bod":"High","ph":"High"},"sample_count":4,"total_samples":4,"earliest_sample":"2006-01-13","latest_sample":"2006-01-13","overall_status":"High","worst_determinand":"ammonia"},{"id":"SW-82111537","label":"TREVAYLOR STREAM ABOVE LITTLE ROSEMORRAN  GULVAL  PENZANCE","lat":50.1344,"lon":-5.53726,"type":"FRESHWATER - COMPARATIVE INLET POINTS","determinands":{"ammonia":{"mean":0.0311,"min":0.03,"max":0.038,"latest":0.038,"n_samples":8,"unit":"mg/l","label":"Ammoniacal Nitrogen as N","status":"High","trend":"insufficient_data"},"bod":{"mean":1.0125,"min":1.0,"max":1.1,"latest":1.0,"n_samples":8,"unit":"mg/l","label":"BOD 5 Day ATU","status":"High","trend":"insufficient_data"},"do_percent":{"mean":97.5,"min":90.0,"max":103.0,"latest":90.0,"n_samples":8,"unit":"%","label":"Dissolved Oxygen (% sat)","status":"High","trend":"insufficient_data"},"ph":{"mean":7.3562,"min":7.25,"max":7.5,"latest":7.25,"n_samples":8,"unit":"pH","label":"pH","status":"High","trend":"insufficient_data"},"ss":{"mean":3.1,"min":3.0,"max":3.4,"latest":3.0,"n_samples":8,"unit":"mg/l","label":"Suspended Solids at 105C"}},"statuses":{"ammonia":"High","bod":"High","do_percent":"High","ph":"High"},"sample_count":40,"total_samples":40,"earliest_sample":"2000-01-14","latest_sample":"2000-08-21","overall_status":"High","worst_determinand":"ammonia"},{"id":"SW-82511707","label":"PORTHCOTHAN STREAM - FRESHWATER INPUT","lat":50.5093,"lon":-5.02309,"type":"FRESHWATER - RIVERS","determinands":{"ss_alt":{"mean":482.1111,"min":272.0,"max":5020.0,"latest":338.0,"n_samples":36,"unit":"mg/l","label":"Suspended Solids (alt)"},"temperature":{"mean":14.8529,"min":11.4,"max":19.56,"latest":15.4,"n_samples":34,"unit":"\u00b0C","label":"Temperature"}},"statuses":{},"sample_count":70,"total_samples":70,"earliest_sample":"2000-05-07","latest_sample":"2001-08-11","overall_status":"Unknown","worst_determinand":null},{"id":"SW-82010201","label":"LITTLE CONTENT STREAM U/S LOWER GOONHUSBAND","lat":50.07486,"lon":-5.27446,"type":"FRESHWATER - RIVERS","determinands":{"ammonia":{"mean":0.1162,"min":0.03,"max":0.5,"latest":0.03,"n_samples":11,"unit":"mg/l","label":"Ammoniacal Nitrogen as N","status":"High","trend":"improving"},"bod":{"mean":1.0,"min":1.0,"max":1.0,"latest":1.0,"n_samples":1,"unit":"mg/l","label":"BOD 5 Day ATU","status":"High","trend":"insufficient_data"},"nitrate":{"mean":4.3475,"min":2.46,"max":5.93,"latest":5.42,"n_samples":8,"unit":"mg/l","label":"Nitrate as N"},"phosphate":{"mean":0.0199,"min":0.01,"max":0.078,"latest":0.01,"n_samples":31,"unit":"mg/l","label":"Orthophosphate, reactive as P","status":"High","trend":"improving"},"total_oxidised_n":{"mean":4.41,"min":2.46,"max":5.93,"latest":5.42,"n_samples":9,"unit":"mg/l","label":"Nitrogen, Total Oxidised as N"}},"statuses":{"ammonia":"High","bod":"High","phosphate":"High"},"sample_count":60,"total_samples":60,"earliest_sample":"2011-05-26","latest_sample":"2016-03-16","overall_status":"High","worst_determinand":"ammonia"},{"id":"SW-82419005","label":"NEWLYN EAST CCC GW/GAS SITE G7","lat":50.3578,"lon":-5.04316,"type":"WASTE SITE - UNSPECIFIED","determinands":{"ammonia":{"mean":4.2,"min":4.2,"max":4.2,"latest":4.2,"n_samples":1,"unit":"mg/l","label":"Ammoniacal Nitrogen as N","status":"Bad","trend":"insufficient_data"},"bod":{"mean":7.0,"min":7.0,"max":7.0,"latest":7.0,"n_samples":1,"unit":"mg/l","label":"BOD 5 Day ATU","status":"Poor","trend":"insufficient_data"},"nitrate":{"mean":1.0,"min":1.0,"max":1.0,"latest":1.0,"n_samples":1,"unit":"mg/l","label":"Nitrate as N"},"ph":{"mean":6.8,"min":6.8,"max":6.8,"latest":6.8,"n_samples":1,"unit":"pH","label":"pH","status":"High","trend":"insufficient_data"}},"statuses":{"ammonia":"Bad","bod":"Poor","ph":"High"},"sample_count":4,"total_samples":4,"earliest_sample":"2006-01-13","latest_sample":"2006-01-13","overall_status":"Bad","worst_determinand":"ammonia"},{"id":"SW-82419010","label":"NEWLYN EAST CCC LEACHATE SITE L6","lat":50.3578,"lon":-5.04316,"type":"WASTE SITE - UNSPECIFIED","determinands":{"ammonia":{"mean":63.0,"min":63.0,"max":63.0,"latest":63.0,"n_samples":1,"unit":"mg/l","label":"Ammoniacal Nitrogen as N","status":"Bad","trend":"insufficient_data"},"bod":{"mean":4.0,"min":4.0,"max":4.0,"latest":4.0,"n_samples":1,"unit":"mg/l","label":"BOD 5 Day ATU","status":"High","trend":"insufficient_data"},"nitrate":{"mean":3.28,"min":3.28,"max":3.28,"latest":3.28,"n_samples":1,"unit":"mg/l","label":"Nitrate as N"},"ph":{"mean":7.7,"min":7.7,"max":7.7,"latest":7.7,"n_samples":1,"unit":"pH","label":"pH","status":"High","trend":"insufficient_data"},"ss":{"mean":22.0,"min":22.0,"max":22.0,"latest":22.0,"n_samples":1,"unit":"mg/l","label":"Suspended Solids at 105C"}},"statuses":{"ammonia":"Bad","bod":"High","ph":"High"},"sample_count":5,"total_samples":5,"earliest_sample":"2006-01-13","latest_sample":"2006-01-13","overall_status":"Bad","worst_determinand":"ammonia"},{"id":"SW-82419004","label":"NEWLYN EAST CCC GW/GAS SITE G6","lat":50.3578,"lon":-5.04316,"type":"WASTE SITE - UNSPECIFIED","determinands":{"ammonia":{"mean":0.1,"min":0.1,"max":0.1,"latest":0.1,"n_samples":1,"unit":"mg/l","label":"Ammoniacal Nitrogen as N","status":"High","trend":"insufficient_data"},"bod":{"mean":3.0,"min":3.0,"max":3.0,"latest":3.0,"n_samples":1,"unit":"mg/l","label":"BOD 5 Day ATU","status":"High","trend":"insufficient_data"},"nitrate":{"mean":1.91,"min":1.91,"max":1.91,"latest":1.91,"n_samples":1,"unit":"mg/l","label":"Nitrate as N"},"ph":{"mean":6.6,"min":6.6,"max":6.6,"latest":6.6,"n_samples":1,"unit":"pH","label":"pH","status":"High","trend":"insufficient_data"}},"statuses":{"ammonia":"High","bod":"High","ph":"High"},"sample_count":4,"total_samples":4,"earliest_sample":"2006-01-13","latest_sample":"2006-01-13","overall_status":"High","worst_determinand":"ammonia"},{"id":"SW-82010189","label":"MELLANGOOSE STREAM PRIOR TO COBER","lat":50.11103,"lon":-5.28685,"type":"FRESHWATER - RIVERS","determinands":{"do_percent":{"mean":98.075,"min":96.9,"max":101.1,"latest":97.2,"n_samples":4,"unit":"%","label":"Dissolved Oxygen (% sat)","status":"High","trend":"insufficient_data"},"ph":{"mean":7.0625,"min":6.96,"max":7.11,"latest":6.96,"n_samples":4,"unit":"pH","label":"pH","status":"High","trend":"insufficient_data"},"temperature":{"mean":13.675,"min":12.6,"max":14.6,"latest":14.6,"n_samples":4,"unit":"\u00b0C","label":"Temperature"}},"statuses":{"do_percent":"High","ph":"High"},"sample_count":12,"total_samples":93,"earliest_sample":"2009-12-10","latest_sample":"2024-07-24","overall_status":"High","worst_determinand":"do_percent"},{"id":"SW-82111524","label":"TREVAYLOR MANOR NURSING HOME GULVAL","lat":50.13807,"lon":-5.54396,"type":"SEWAGE DISCHARGES - FINAL/TREATED EFFLUENT - NOT WATER COMPANY","determinands":{"ammonia":{"mean":0.59,"min":0.59,"max":0.59,"latest":0.59,"n_samples":1,"unit":"mg/l","label":"Ammoniacal Nitrogen as N","status":"Good","trend":"insufficient_data"},"bod":{"mean":7.0,"min":7.0,"max":7.0,"latest":7.0,"n_samples":1,"unit":"mg/l","label":"BOD 5 Day ATU","status":"Poor","trend":"insufficient_data"},"ph":{"mean":7.0,"min":7.0,"max":7.0,"latest":7.0,"n_samples":1,"unit":"pH","label":"pH","status":"High","trend":"insufficient_data"},"phosphate":{"mean":5.3,"min":5.3,"max":5.3,"latest":5.3,"n_samples":1,"unit":"mg/l","label":"Orthophosphate, reactive as P","status":"Bad","trend":"insufficient_data"},"ss":{"mean":11.0,"min":11.0,"max":11.0,"latest":11.0,"n_samples":1,"unit":"mg/l","label":"Suspended Solids at 105C"},"total_oxidised_n":{"mean":9.2,"min":9.2,"max":9.2,"latest":9.2,"n_samples":1,"unit":"mg/l","label":"Nitrogen, Total Oxidised as N"}},"statuses":{"ammonia":"Good","bod":"Poor","ph":"High","phosphate":"Bad"},"sample_count":6,"total_samples":14,"earliest_sample":"2018-05-10","latest_sample":"2024-11-12","overall_status":"Bad","worst_determinand":"phosphate"},{"id":"SW-82511704","label":"PORTHCOTHAN STREAM AT PORTHCOTHAN ROADBRIDGE","lat":50.50928,"lon":-5.02041,"type":"FRESHWATER - RIVERS","determinands":{"ammonia":{"mean":0.0428,"min":0.03,"max":0.179,"latest":0.03,"n_samples":20,"unit":"mg/l","label":"Ammoniacal Nitrogen as N","status":"High","trend":"insufficient_data"},"do_percent":{"mean":100.68,"min":94.3,"max":119.0,"latest":98.0,"n_samples":20,"unit":"%","label":"Dissolved Oxygen (% sat)","status":"High","trend":"insufficient_data"},"nitrate":{"mean":6.6426,"min":4.59,"max":8.83,"latest":4.59,"n_samples":19,"unit":"mg/l","label":"Nitrate as N"},"ph":{"mean":7.7992,"min":7.6,"max":8.0,"latest":7.61,"n_samples":25,"unit":"pH","label":"pH","status":"High","trend":"insufficient_data"},"phosphate":{"mean":0.0726,"min":0.021,"max":0.215,"latest":0.085,"n_samples":20,"unit":"mg/l","label":"Orthophosphate, reactive as P","status":"Good","trend":"insufficient_data"},"temperature":{"mean":10.4423,"min":4.9,"max":17.5,"latest":12.8,"n_samples":26,"unit":"\u00b0C","label":"Temperature"},"total_oxidised_n":{"mean":6.5425,"min":4.4,"max":8.84,"latest":4.6,"n_samples":20,"unit":"mg/l","label":"Nitrogen, Total Oxidised as N"}},"statuses":{"ammonia":"High","do_percent":"High","ph":"High","phosphate":"Good"},"sample_count":150,"total_samples":150,"earliest_sample":"2013-01-10","latest_sample":"2014-10-16","overall_status":"Good","worst_determinand":"phosphate"},{"id":"SW-82111120","label":"LUDGVAN STREAM BELOW CROWLAS AND LUDGVAN STW","lat":50.14089,"lon":-5.47473,"type":"FRESHWATER - RIVERS","determinands":{"ammonia":{"mean":0.03,"min":0.03,"max":0.03,"latest":0.03,"n_samples":5,"unit":"mg/l","label":"Ammoniacal Nitrogen as N","status":"High","trend":"insufficient_data"},"nitrate":{"mean":6.58,"min":5.87,"max":7.09,"latest":5.87,"n_samples":5,"unit":"mg/l","label":"Nitrate as N"},"ph":{"mean":7.24,"min":7.18,"max":7.3,"latest":7.3,"n_samples":5,"unit":"pH","label":"pH","status":"High","trend":"insufficient_data"},"phosphate":{"mean":0.02,"min":0.02,"max":0.02,"latest":0.02,"n_samples":5,"unit":"mg/l","label":"Orthophosphate, reactive as P","status":"High","trend":"insufficient_data"},"total_oxidised_n":{"mean":6.582,"min":5.87,"max":7.09,"latest":5.87,"n_samples":5,"unit":"mg/l","label":"Nitrogen, Total Oxidised as N"}},"statuses":{"ammonia":"High","ph":"High","phosphate":"High"},"sample_count":25,"total_samples":25,"earliest_sample":"2009-03-16","latest_sample":"2009-09-03","overall_status":"High","worst_determinand":"ammonia"},{"id":"SW-82419006","label":"NEWLYN EAST CCC SW SITE N1","lat":50.3578,"lon":-5.04316,"type":"WASTE SITE - UNSPECIFIED","determinands":{"ammonia":{"mean":0.1,"min":0.1,"max":0.1,"latest":0.1,"n_samples":1,"unit":"mg/l","label":"Ammoniacal Nitrogen as N","status":"High","trend":"insufficient_data"},"bod":{"mean":2.0,"min":2.0,"max":2.0,"latest":2.0,"n_samples":1,"unit":"mg/l","label":"BOD 5 Day ATU","status":"High","trend":"insufficient_data"},"ph":{"mean":7.4,"min":7.4,"max":7.4,"latest":7.4,"n_samples":1,"unit":"pH","label":"pH","status":"High","trend":"insufficient_data"},"ss":{"mean":6.0,"min":6.0,"max":6.0,"latest":6.0,"n_samples":1,"unit":"mg/l","label":"Suspended Solids at 105C"}},"statuses":{"ammonia":"High","bod":"High","ph":"High"},"sample_count":4,"total_samples":4,"earliest_sample":"2006-01-13","latest_sample":"2006-01-13","overall_status":"High","worst_determinand":"ammonia"},{"id":"SW-82419007","label":"NEWLYN EAST CCC SW SITE N3","lat":50.3578,"lon":-5.04316,"type":"WASTE SITE - UNSPECIFIED","determinands":{"ammonia":{"mean":0.45,"min":0.45,"max":0.45,"latest":0.45,"n_samples":1,"unit":"mg/l","label":"Ammoniacal Nitrogen as N","status":"Good","trend":"insufficient_data"},"bod":{"mean":2.0,"min":2.0,"max":2.0,"latest":2.0,"n_samples":1,"unit":"mg/l","label":"BOD 5 Day ATU","status":"High","trend":"insufficient_data"},"ph":{"mean":7.8,"min":7.8,"max":7.8,"latest":7.8,"n_samples":1,"unit":"pH","label":"pH","status":"High","trend":"insufficient_data"},"ss":{"mean":4.0,"min":4.0,"max":4.0,"latest":4.0,"n_samples":1,"unit":"mg/l","label":"Suspended Solids at 105C"}},"statuses":{"ammonia":"Good","bod":"High","ph":"High"},"sample_count":4,"total_samples":4,"earliest_sample":"2006-01-13","latest_sample":"2006-01-13","overall_status":"Good","worst_determinand":"ammonia"},{"id":"SW-81913785","label":"RNAS CULDROSE 'B' SITE S T W","lat":50.08965,"lon":-5.24338,"type":"SEWAGE DISCHARGES - FINAL/TREATED EFFLUENT - NOT WATER COMPANY","determinands":{"ammonia":{"mean":4.5173,"min":0.5,"max":12.1,"latest":2.33,"n_samples":15,"unit":"mg/l","label":"Ammoniacal Nitrogen as N","status":"Bad","trend":"declining"},"bod":{"mean":3.7793,"min":3.0,"max":7.2,"latest":3.19,"n_samples":15,"unit":"mg/l","label":"BOD 5 Day ATU","status":"High","trend":"improving"},"ph":{"mean":6.6177,"min":3.85,"max":7.5,"latest":6.6,"n_samples":13,"unit":"pH","label":"pH","status":"High","trend":"decreasing"},"ss":{"mean":13.8333,"min":3.5,"max":34.0,"latest":11.2,"n_samples":15,"unit":"mg/l","label":"Suspended Solids at 105C"}},"statuses":{"ammonia":"Bad","bod":"High","ph":"High"},"sample_count":58,"total_samples":58,"earliest_sample":"2000-01-24","latest_sample":"2006-01-05","overall_status":"Bad","worst_determinand":"ammonia"}]