[{"id":"MD-27434460","label":"EDGELEY FARM BROOK - BROWN MOSS POOL 1 (ENGLISH NATURE)","lat":52.9544,"lon":-2.65415,"type":"FRESHWATER - RIVERS","determinands":{"ammonia":{"mean":1.084,"min":0.119,"max":3.04,"latest":0.855,"n_samples":5,"unit":"mg/l","label":"Ammoniacal Nitrogen as N","status":"Moderate","trend":"insufficient_data"},"bod":{"mean":2.985,"min":2.2,"max":4.52,"latest":2.48,"n_samples":4,"unit":"mg/l","label":"BOD 5 Day ATU","status":"High","trend":"insufficient_data"},"ph":{"mean":7.302,"min":6.87,"max":7.61,"latest":7.28,"n_samples":5,"unit":"pH","label":"pH","status":"High","trend":"insufficient_data"},"phosphate":{"mean":1.1376,"min":0.748,"max":1.95,"latest":1.44,"n_samples":5,"unit":"mg/l","label":"Orthophosphate, reactive as P","status":"Bad","trend":"insufficient_data"},"ss":{"mean":7.0,"min":3.0,"max":11.0,"latest":5.0,"n_samples":5,"unit":"mg/l","label":"Suspended Solids at 105C"},"total_oxidised_n":{"mean":0.2,"min":0.2,"max":0.2,"latest":0.2,"n_samples":5,"unit":"mg/l","label":"Nitrogen, Total Oxidised as N"}},"statuses":{"ammonia":"Moderate","bod":"High","ph":"High","phosphate":"Bad"},"sample_count":29,"total_samples":29,"earliest_sample":"2001-07-25","latest_sample":"2002-08-23","overall_status":"Bad","worst_determinand":"phosphate"},{"id":"MD-26944380","label":"PRIVATE SEWAGE & TRADE EFFLUENT FROM ATTINGHAM HALL STP, ATCHAM","lat":52.68385,"lon":-2.6637,"type":"SEWAGE & TRADE COMBINED - UNSPECIFIED","determinands":{"ammonia":{"mean":20.175,"min":5.75,"max":34.6,"latest":5.75,"n_samples":2,"unit":"mg/l","label":"Ammoniacal Nitrogen as N","status":"Bad","trend":"insufficient_data"},"bod":{"mean":18.2,"min":18.2,"max":18.2,"latest":18.2,"n_samples":1,"unit":"mg/l","label":"BOD 5 Day ATU","status":"Bad","trend":"insufficient_data"},"ph":{"mean":7.5,"min":7.5,"max":7.5,"latest":7.5,"n_samples":1,"unit":"pH","label":"pH","status":"High","trend":"insufficient_data"},"phosphate":{"mean":9.36,"min":1.42,"max":17.3,"latest":17.3,"n_samples":2,"unit":"mg/l","label":"Orthophosphate, reactive as P","status":"Bad","trend":"insufficient_data"},"ss":{"mean":1267.0,"min":64.0,"max":2470.0,"latest":2470.0,"n_samples":2,"unit":"mg/l","label":"Suspended Solids at 105C"},"total_oxidised_n":{"mean":1.455,"min":1.0,"max":1.91,"latest":1.0,"n_samples":2,"unit":"mg/l","label":"Nitrogen, Total Oxidised as N"}},"statuses":{"ammonia":"Bad","bod":"Bad","ph":"High","phosphate":"Bad"},"sample_count":10,"total_samples":10,"earliest_sample":"2000-06-08","latest_sample":"2004-09-10","overall_status":"Bad","worst_determinand":"ammonia"},{"id":"MD-00052930","label":"STORM SEWAGE FROM SHREWSBURY (MONKMOOR) STW, SHREWSBURY, SHROPSHIRE","lat":52.71795,"lon":-2.71561,"type":"SEWAGE DISCHARGES - STW STORM OVERFLOW/STORM TANK - WATER COMPANY","determinands":{"ammonia":{"mean":11.0,"min":11.0,"max":11.0,"latest":11.0,"n_samples":1,"unit":"mg/l","label":"Ammoniacal Nitrogen as N","status":"Bad","trend":"insufficient_data"},"bod":{"mean":50.9,"min":50.9,"max":50.9,"latest":50.9,"n_samples":1,"unit":"mg/l","label":"BOD 5 Day ATU","status":"Bad","trend":"insufficient_data"},"ph":{"mean":7.2,"min":7.2,"max":7.2,"latest":7.2,"n_samples":1,"unit":"pH","label":"pH","status":"High","trend":"insufficient_data"},"phosphate":{"mean":1.64,"min":1.64,"max":1.64,"latest":1.64,"n_samples":1,"unit":"mg/l","label":"Orthophosphate, reactive as P","status":"Bad","trend":"insufficient_data"},"ss":{"mean":62.0,"min":62.0,"max":62.0,"latest":62.0,"n_samples":1,"unit":"mg/l","label":"Suspended Solids at 105C"},"temperature":{"mean":17.3,"min":17.3,"max":17.3,"latest":17.3,"n_samples":1,"unit":"\u00b0C","label":"Temperature"},"total_oxidised_n":{"mean":1.0,"min":1.0,"max":1.0,"latest":1.0,"n_samples":1,"unit":"mg/l","label":"Nitrogen, Total Oxidised as N"}},"statuses":{"ammonia":"Bad","bod":"Bad","ph":"High","phosphate":"Bad"},"sample_count":7,"total_samples":7,"earliest_sample":"2008-09-08","latest_sample":"2008-09-08","overall_status":"Bad","worst_determinand":"ammonia"},{"id":"MD-27822850","label":"NOOK BROOK - HAWK PLANT HIRE, LOPPINGTON, LAGOON INVESTIGATION SAMPLE","lat":52.85706,"lon":-2.78605,"type":"FRESHWATER - RIVERS","determinands":{"bod":{"mean":34.9,"min":34.9,"max":34.9,"latest":34.9,"n_samples":1,"unit":"mg/l","label":"BOD 5 Day ATU","status":"Bad","trend":"insufficient_data"},"ph":{"mean":9.3,"min":9.3,"max":9.3,"latest":9.3,"n_samples":1,"unit":"pH","label":"pH","status":"Poor","trend":"insufficient_data"},"ss":{"mean":36.0,"min":36.0,"max":36.0,"latest":36.0,"n_samples":1,"unit":"mg/l","label":"Suspended Solids at 105C"}},"statuses":{"bod":"Bad","ph":"Poor"},"sample_count":3,"total_samples":3,"earliest_sample":"2002-05-17","latest_sample":"2002-05-17","overall_status":"Bad","worst_determinand":"bod"},{"id":"MD-27180480","label":"FINAL EFFLUENT FROM ROCKHALL VILLAS STW","lat":52.82856,"lon":-2.68357,"type":"SEWAGE DISCHARGES - FINAL/TREATED EFFLUENT - WATER COMPANY","determinands":{"ammonia":{"mean":57.1,"min":57.1,"max":57.1,"latest":57.1,"n_samples":1,"unit":"mg/l","label":"Ammoniacal Nitrogen as N","status":"Bad","trend":"insufficient_data"},"bod":{"mean":236.0,"min":236.0,"max":236.0,"latest":236.0,"n_samples":1,"unit":"mg/l","label":"BOD 5 Day ATU","status":"Bad","trend":"insufficient_data"},"phosphate":{"mean":17.1,"min":17.1,"max":17.1,"latest":17.1,"n_samples":1,"unit":"mg/l","label":"Orthophosphate, reactive as P","status":"Bad","trend":"insufficient_data"},"ss":{"mean":149.0,"min":149.0,"max":149.0,"latest":149.0,"n_samples":1,"unit":"mg/l","label":"Suspended Solids at 105C"},"total_oxidised_n":{"mean":1.0,"min":1.0,"max":1.0,"latest":1.0,"n_samples":1,"unit":"mg/l","label":"Nitrogen, Total Oxidised as N"}},"statuses":{"ammonia":"Bad","bod":"Bad","phosphate":"Bad"},"sample_count":5,"total_samples":5,"earliest_sample":"2001-08-09","latest_sample":"2001-08-09","overall_status":"Bad","worst_determinand":"ammonia"},{"id":"MD-14396300","label":"SUNNYSIDE BROOK AT SUCKLEY LANE STORRIDGE","lat":52.1321,"lon":-2.38534,"type":"FRESHWATER - RIVERS","determinands":{"ammonia":{"mean":2.18,"min":2.18,"max":2.18,"latest":2.18,"n_samples":1,"unit":"mg/l","label":"Ammoniacal Nitrogen as N","status":"Poor","trend":"insufficient_data"},"bod":{"mean":15.4,"min":15.4,"max":15.4,"latest":15.4,"n_samples":1,"unit":"mg/l","label":"BOD 5 Day ATU","status":"Bad","trend":"insufficient_data"},"do_percent":{"mean":42.0,"min":42.0,"max":42.0,"latest":42.0,"n_samples":1,"unit":"%","label":"Dissolved Oxygen (% sat)","status":"Bad","trend":"insufficient_data"},"phosphate":{"mean":1.22,"min":1.22,"max":1.22,"latest":1.22,"n_samples":1,"unit":"mg/l","label":"Orthophosphate, reactive as P","status":"Bad","trend":"insufficient_data"},"ss":{"mean":24.0,"min":24.0,"max":24.0,"latest":24.0,"n_samples":1,"unit":"mg/l","label":"Suspended Solids at 105C"},"temperature":{"mean":17.7,"min":17.7,"max":17.7,"latest":17.7,"n_samples":1,"unit":"\u00b0C","label":"Temperature"},"total_oxidised_n":{"mean":1.0,"min":1.0,"max":1.0,"latest":1.0,"n_samples":1,"unit":"mg/l","label":"Nitrogen, Total Oxidised as N"}},"statuses":{"ammonia":"Poor","bod":"Bad","do_percent":"Bad","phosphate":"Bad"},"sample_count":7,"total_samples":7,"earliest_sample":"2001-08-23","latest_sample":"2001-08-23","overall_status":"Bad","worst_determinand":"bod"},{"id":"MD-00032553","label":"POOL 2B TMG RETREAT FARM, GRIMLEY","lat":52.23605,"lon":-2.24125,"type":"FRESHWATER - LAKES/PONDS/RESERVOIRS","determinands":{"do_percent":{"mean":103.2941,"min":86.5,"max":122.3,"latest":98.9,"n_samples":34,"unit":"%","label":"Dissolved Oxygen (% sat)","status":"High","trend":"insufficient_data"},"ph":{"mean":8.3821,"min":7.85,"max":8.72,"latest":8.12,"n_samples":34,"unit":"pH","label":"pH","status":"High","trend":"insufficient_data"},"temperature":{"mean":7.5912,"min":2.1,"max":17.6,"latest":17.6,"n_samples":34,"unit":"\u00b0C","label":"Temperature"}},"statuses":{"do_percent":"High","ph":"High"},"sample_count":102,"total_samples":102,"earliest_sample":"2018-11-26","latest_sample":"2019-04-23","overall_status":"High","worst_determinand":"do_percent"},{"id":"MD-27045905","label":"STORM TANK EFFLUENT FROM WEM (ASTON ROAD) STW, SHROPSHIRE","lat":52.85274,"lon":-2.71712,"type":"SEWAGE DISCHARGES - STW STORM OVERFLOW/STORM TANK - WATER COMPANY","determinands":{"ammonia":{"mean":7.6167,"min":6.67,"max":8.66,"latest":6.67,"n_samples":3,"unit":"mg/l","label":"Ammoniacal Nitrogen as N","status":"Bad","trend":"insufficient_data"},"bod":{"mean":60.1667,"min":46.2,"max":75.4,"latest":58.9,"n_samples":3,"unit":"mg/l","label":"BOD 5 Day ATU","status":"Bad","trend":"insufficient_data"},"ph":{"mean":7.4333,"min":7.4,"max":7.5,"latest":7.4,"n_samples":3,"unit":"pH","label":"pH","status":"High","trend":"insufficient_data"},"phosphate":{"mean":1.99,"min":1.86,"max":2.24,"latest":1.86,"n_samples":3,"unit":"mg/l","label":"Orthophosphate, reactive as P","status":"Bad","trend":"insufficient_data"},"ss":{"mean":76.0,"min":50.0,"max":97.0,"latest":50.0,"n_samples":3,"unit":"mg/l","label":"Suspended Solids at 105C"},"temperature":{"mean":10.6,"min":7.2,"max":16.5,"latest":7.2,"n_samples":3,"unit":"\u00b0C","label":"Temperature"},"total_oxidised_n":{"mean":3.5667,"min":1.0,"max":5.11,"latest":5.11,"n_samples":3,"unit":"mg/l","label":"Nitrogen, Total Oxidised as N"}},"statuses":{"ammonia":"Bad","bod":"Bad","ph":"High","phosphate":"Bad"},"sample_count":21,"total_samples":21,"earliest_sample":"2000-09-26","latest_sample":"2000-11-22","overall_status":"Bad","worst_determinand":"ammonia"},{"id":"MD-23124830","label":"STORM SEWAGE OVERFLOW AT ABBERLEY SEWAGE PUMING STATION","lat":52.30564,"lon":-2.37717,"type":"SEWAGE DISCHARGES - SEWER STORM OVERFLOW - WATER COMPANY","determinands":{"bod":{"mean":4.75,"min":4.75,"max":4.75,"latest":4.75,"n_samples":1,"unit":"mg/l","label":"BOD 5 Day ATU","status":"Good","trend":"insufficient_data"},"ss":{"mean":6.0,"min":6.0,"max":6.0,"latest":6.0,"n_samples":1,"unit":"mg/l","label":"Suspended Solids at 105C"},"temperature":{"mean":6.7,"min":6.7,"max":6.7,"latest":6.7,"n_samples":1,"unit":"\u00b0C","label":"Temperature"}},"statuses":{"bod":"Good"},"sample_count":3,"total_samples":3,"earliest_sample":"2001-02-13","latest_sample":"2001-02-13","overall_status":"Good","worst_determinand":"bod"},{"id":"MD-23058900","label":"SITE DRAINAGE 2 FROM SHAVERS END QUARRY ABBERLEY","lat":52.30909,"lon":-2.33628,"type":"TRADE DISCHARGES - MINERAL WORKINGS","determinands":{"ammonia":{"mean":0.5,"min":0.5,"max":0.5,"latest":0.5,"n_samples":4,"unit":"mg/l","label":"Ammoniacal Nitrogen as N","status":"Good","trend":"insufficient_data"},"bod":{"mean":1.4125,"min":1.36,"max":1.43,"latest":1.36,"n_samples":4,"unit":"mg/l","label":"BOD 5 Day ATU","status":"High","trend":"insufficient_data"},"ph":{"mean":8.125,"min":8.0,"max":8.2,"latest":8.2,"n_samples":4,"unit":"pH","label":"pH","status":"High","trend":"insufficient_data"},"phosphate":{"mean":0.5,"min":0.5,"max":0.5,"latest":0.5,"n_samples":4,"unit":"mg/l","label":"Orthophosphate, reactive as P","status":"Poor","trend":"insufficient_data"},"ss":{"mean":3.25,"min":3.0,"max":4.0,"latest":3.0,"n_samples":4,"unit":"mg/l","label":"Suspended Solids at 105C"},"temperature":{"mean":6.0333,"min":4.4,"max":7.4,"latest":6.3,"n_samples":3,"unit":"\u00b0C","label":"Temperature"},"total_oxidised_n":{"mean":1.0,"min":1.0,"max":1.0,"latest":1.0,"n_samples":4,"unit":"mg/l","label":"Nitrogen, Total Oxidised as N"}},"statuses":{"ammonia":"Good","bod":"High","ph":"High","phosphate":"Poor"},"sample_count":27,"total_samples":27,"earliest_sample":"2000-06-16","latest_sample":"2003-02-24","overall_status":"Poor","worst_determinand":"phosphate"},{"id":"MD-03233160","label":"FINAL (SEPTIC TANK) EFFLUENT FROM BROMSBERROW (BROWNSEND) STW, ALBRIGHT LANE, BROMSBERROW, LEDBURY, HEREFORDSHIRE","lat":52.00377,"lon":-2.36705,"type":"SEWAGE DISCHARGES - FINAL/TREATED EFFLUENT - WATER COMPANY","determinands":{"ammonia":{"mean":66.4,"min":66.4,"max":66.4,"latest":66.4,"n_samples":1,"unit":"mg/l","label":"Ammoniacal Nitrogen as N","status":"Bad","trend":"insufficient_data"},"bod":{"mean":22.1,"min":22.1,"max":22.1,"latest":22.1,"n_samples":1,"unit":"mg/l","label":"BOD 5 Day ATU","status":"Bad","trend":"insufficient_data"},"ph":{"mean":8.0,"min":8.0,"max":8.0,"latest":8.0,"n_samples":1,"unit":"pH","label":"pH","status":"High","trend":"insufficient_data"},"phosphate":{"mean":17.7,"min":17.7,"max":17.7,"latest":17.7,"n_samples":1,"unit":"mg/l","label":"Orthophosphate, reactive as P","status":"Bad","trend":"insufficient_data"},"ss":{"mean":28.0,"min":28.0,"max":28.0,"latest":28.0,"n_samples":1,"unit":"mg/l","label":"Suspended Solids at 105C"},"temperature":{"mean":9.8,"min":9.8,"max":9.8,"latest":9.8,"n_samples":1,"unit":"\u00b0C","label":"Temperature"},"total_oxidised_n":{"mean":21.2,"min":21.2,"max":21.2,"latest":21.2,"n_samples":1,"unit":"mg/l","label":"Nitrogen, Total Oxidised as N"}},"statuses":{"ammonia":"Bad","bod":"Bad","ph":"High","phosphate":"Bad"},"sample_count":7,"total_samples":7,"earliest_sample":"2000-01-27","latest_sample":"2011-01-28","overall_status":"Bad","worst_determinand":"ammonia"},{"id":"MD-23349080","label":"DISCHARGE TO HOO BROOK AT KIDDERMINSTER HOO FARM","lat":52.37018,"lon":-2.24509,"type":"SEWAGE DISCHARGES - SEWER STORM OVERFLOW - WATER COMPANY","determinands":{"ammonia":{"mean":0.5126,"min":0.5,"max":0.563,"latest":0.5,"n_samples":5,"unit":"mg/l","label":"Ammoniacal Nitrogen as N","status":"Good","trend":"improving"},"bod":{"mean":12.72,"min":2.92,"max":31.5,"latest":2.92,"n_samples":5,"unit":"mg/l","label":"BOD 5 Day ATU","status":"Bad","trend":"improving"},"ph":{"mean":7.6,"min":7.6,"max":7.6,"latest":7.6,"n_samples":1,"unit":"pH","label":"pH","status":"High","trend":"insufficient_data"},"phosphate":{"mean":0.5446,"min":0.5,"max":0.723,"latest":0.5,"n_samples":5,"unit":"mg/l","label":"Orthophosphate, reactive as P","status":"Poor","trend":"improving"},"ss":{"mean":32.19,"min":4.0,"max":96.8,"latest":4.0,"n_samples":5,"unit":"mg/l","label":"Suspended Solids at 105C"},"temperature":{"mean":10.78,"min":5.9,"max":15.6,"latest":7.7,"n_samples":5,"unit":"\u00b0C","label":"Temperature"},"total_oxidised_n":{"mean":2.5,"min":1.0,"max":5.0,"latest":2.4,"n_samples":5,"unit":"mg/l","label":"Nitrogen, Total Oxidised as N"}},"statuses":{"ammonia":"Good","bod":"Bad","ph":"High","phosphate":"Poor"},"sample_count":31,"total_samples":31,"earliest_sample":"2004-09-23","latest_sample":"2014-03-05","overall_status":"Bad","worst_determinand":"bod"},{"id":"MD-13617660","label":"STORM TANK EFFLUENT FROM LUDLOW STW","lat":52.35382,"lon":-2.7116,"type":"SEWAGE DISCHARGES - STW STORM OVERFLOW/STORM TANK - WATER COMPANY","determinands":{"ammonia":{"mean":31.6,"min":31.6,"max":31.6,"latest":31.6,"n_samples":1,"unit":"mg/l","label":"Ammoniacal Nitrogen as N","status":"Bad","trend":"insufficient_data"},"bod":{"mean":136.0,"min":136.0,"max":136.0,"latest":136.0,"n_samples":1,"unit":"mg/l","label":"BOD 5 Day ATU","status":"Bad","trend":"insufficient_data"},"ph":{"mean":7.6,"min":7.6,"max":7.6,"latest":7.6,"n_samples":1,"unit":"pH","label":"pH","status":"High","trend":"insufficient_data"},"phosphate":{"mean":5.07,"min":5.07,"max":5.07,"latest":5.07,"n_samples":1,"unit":"mg/l","label":"Orthophosphate, reactive as P","status":"Bad","trend":"insufficient_data"},"ss":{"mean":120.0,"min":120.0,"max":120.0,"latest":120.0,"n_samples":1,"unit":"mg/l","label":"Suspended Solids at 105C"},"temperature":{"mean":10.2,"min":10.2,"max":10.2,"latest":10.2,"n_samples":1,"unit":"\u00b0C","label":"Temperature"},"total_oxidised_n":{"mean":1.0,"min":1.0,"max":1.0,"latest":1.0,"n_samples":1,"unit":"mg/l","label":"Nitrogen, Total Oxidised as N"}},"statuses":{"ammonia":"Bad","bod":"Bad","ph":"High","phosphate":"Bad"},"sample_count":7,"total_samples":7,"earliest_sample":"2008-01-29","latest_sample":"2008-01-29","overall_status":"Bad","worst_determinand":"ammonia"},{"id":"MD-23279750","label":"SITE DRAINAGE NO 1 PUMPED AT BAGGERIDGE BRICKWORKS","lat":52.33617,"lon":-2.21335,"type":"TRADE DISCHARGES - SITE DRAINAGE","determinands":{"ammonia":{"mean":0.912,"min":0.912,"max":0.912,"latest":0.912,"n_samples":1,"unit":"mg/l","label":"Ammoniacal Nitrogen as N","status":"Moderate","trend":"insufficient_data"},"bod":{"mean":1.68,"min":1.68,"max":1.68,"latest":1.68,"n_samples":1,"unit":"mg/l","label":"BOD 5 Day ATU","status":"High","trend":"insufficient_data"},"ss":{"mean":13.0,"min":13.0,"max":13.0,"latest":13.0,"n_samples":1,"unit":"mg/l","label":"Suspended Solids at 105C"}},"statuses":{"ammonia":"Moderate","bod":"High"},"sample_count":3,"total_samples":3,"earliest_sample":"2000-11-13","latest_sample":"2000-11-13","overall_status":"Moderate","worst_determinand":"ammonia"},{"id":"MD-23249120","label":"SITE DRAINAGE AT TILCON CONCRETE PLANT STOURPORT","lat":52.32734,"lon":-2.26745,"type":"TRADE DISCHARGES - SITE DRAINAGE","determinands":{"ammonia":{"mean":0.5,"min":0.5,"max":0.5,"latest":0.5,"n_samples":2,"unit":"mg/l","label":"Ammoniacal Nitrogen as N","status":"Good","trend":"insufficient_data"},"bod":{"mean":10.11,"min":8.72,"max":11.5,"latest":11.5,"n_samples":2,"unit":"mg/l","label":"BOD 5 Day ATU","status":"Bad","trend":"insufficient_data"},"ph":{"mean":8.35,"min":6.5,"max":10.2,"latest":10.2,"n_samples":2,"unit":"pH","label":"pH","status":"High","trend":"insufficient_data"},"phosphate":{"mean":0.5,"min":0.5,"max":0.5,"latest":0.5,"n_samples":2,"unit":"mg/l","label":"Orthophosphate, reactive as P","status":"Poor","trend":"insufficient_data"},"ss":{"mean":14.0,"min":8.0,"max":20.0,"latest":20.0,"n_samples":2,"unit":"mg/l","label":"Suspended Solids at 105C"},"temperature":{"mean":13.15,"min":4.0,"max":22.3,"latest":22.3,"n_samples":2,"unit":"\u00b0C","label":"Temperature"},"total_oxidised_n":{"mean":2.49,"min":1.0,"max":3.98,"latest":3.98,"n_samples":2,"unit":"mg/l","label":"Nitrogen, Total Oxidised as N"}},"statuses":{"ammonia":"Good","bod":"Bad","ph":"High","phosphate":"Poor"},"sample_count":14,"total_samples":14,"earliest_sample":"2001-12-19","latest_sample":"2003-08-11","overall_status":"Bad","worst_determinand":"bod"},{"id":"MD-72770493","label":"VEHICLE WASH WATER & SITE DRAINAGE FROM REDLAND READY MIX FOUR ASHES","lat":52.67118,"lon":-2.11693,"type":"TRADE DISCHARGES - SITE DRAINAGE","determinands":{"do_percent":{"mean":91.0,"min":91.0,"max":91.0,"latest":91.0,"n_samples":1,"unit":"%","label":"Dissolved Oxygen (% sat)","status":"High","trend":"insufficient_data"},"ph":{"mean":11.8,"min":11.8,"max":11.8,"latest":11.8,"n_samples":1,"unit":"pH","label":"pH","status":"Poor","trend":"insufficient_data"},"ss":{"mean":325.0,"min":325.0,"max":325.0,"latest":325.0,"n_samples":1,"unit":"mg/l","label":"Suspended Solids at 105C"},"temperature":{"mean":7.0286,"min":4.8,"max":8.9,"latest":6.9,"n_samples":7,"unit":"\u00b0C","label":"Temperature"}},"statuses":{"do_percent":"High","ph":"Poor"},"sample_count":10,"total_samples":10,"earliest_sample":"2006-01-17","latest_sample":"2015-01-07","overall_status":"Poor","worst_determinand":"ph"},{"id":"MD-00032554","label":"POOL 2A TMG RETREAT FARM,  GRIMLEY","lat":52.23667,"lon":-2.2405,"type":"FRESHWATER - LAKES/PONDS/RESERVOIRS","determinands":{"do_percent":{"mean":105.7235,"min":86.2,"max":122.2,"latest":101.3,"n_samples":34,"unit":"%","label":"Dissolved Oxygen (% sat)","status":"High","trend":"insufficient_data"},"ph":{"mean":8.3935,"min":7.96,"max":8.76,"latest":8.32,"n_samples":34,"unit":"pH","label":"pH","status":"High","trend":"insufficient_data"},"temperature":{"mean":7.6853,"min":2.9,"max":18.3,"latest":18.3,"n_samples":34,"unit":"\u00b0C","label":"Temperature"}},"statuses":{"do_percent":"High","ph":"High"},"sample_count":102,"total_samples":102,"earliest_sample":"2018-11-26","latest_sample":"2019-04-23","overall_status":"High","worst_determinand":"do_percent"},{"id":"MD-00032555","label":"POOL 1B TMG RETREAT FARM, GRIMLEY","lat":52.23701,"lon":-2.23938,"type":"FRESHWATER - LAKES/PONDS/RESERVOIRS","determinands":{"do_percent":{"mean":102.3471,"min":73.1,"max":157.2,"latest":105.7,"n_samples":34,"unit":"%","label":"Dissolved Oxygen (% sat)","status":"High","trend":"insufficient_data"},"ph":{"mean":8.4924,"min":7.86,"max":9.01,"latest":8.91,"n_samples":34,"unit":"pH","label":"pH","status":"High","trend":"insufficient_data"},"temperature":{"mean":7.7118,"min":2.5,"max":18.3,"latest":18.3,"n_samples":34,"unit":"\u00b0C","label":"Temperature"}},"statuses":{"do_percent":"High","ph":"High"},"sample_count":102,"total_samples":102,"earliest_sample":"2018-11-26","latest_sample":"2019-04-23","overall_status":"High","worst_determinand":"do_percent"},{"id":"MD-23475440","label":"PRIVATE SEWAGE EFFLUENT FROM VALE HEAD FARM STP, COMPTON ROAD, KINVER, STAFFORDSHIRE","lat":52.44746,"lon":-2.26023,"type":"SEWAGE DISCHARGES - FINAL/TREATED EFFLUENT - NOT WATER COMPANY","determinands":{"ammonia":{"mean":2.6886,"min":0.5,"max":59.7,"latest":0.5,"n_samples":28,"unit":"mg/l","label":"Ammoniacal Nitrogen as N","status":"Bad","trend":"improving"},"bod":{"mean":18.265,"min":2.9,"max":339.0,"latest":8.83,"n_samples":28,"unit":"mg/l","label":"BOD 5 Day ATU","status":"Bad","trend":"improving"},"ss":{"mean":15.6996,"min":3.0,"max":77.7,"latest":12.9,"n_samples":28,"unit":"mg/l","label":"Suspended Solids at 105C"}},"statuses":{"ammonia":"Bad","bod":"Bad"},"sample_count":84,"total_samples":84,"earliest_sample":"2009-03-18","latest_sample":"2018-12-11","overall_status":"Bad","worst_determinand":"ammonia"},{"id":"MD-27047480","label":"TREATED SEWAGE EFFLUENT FROM LOPPINGTON STW, WEM, SHROPSHIRE","lat":52.85718,"lon":-2.78145,"type":"SEWAGE DISCHARGES - FINAL/TREATED EFFLUENT - WATER COMPANY","determinands":{"ammonia":{"mean":4.03,"min":4.03,"max":4.03,"latest":4.03,"n_samples":1,"unit":"mg/l","label":"Ammoniacal Nitrogen as N","status":"Bad","trend":"insufficient_data"},"bod":{"mean":11.1,"min":11.1,"max":11.1,"latest":11.1,"n_samples":1,"unit":"mg/l","label":"BOD 5 Day ATU","status":"Bad","trend":"insufficient_data"},"ph":{"mean":7.7,"min":7.7,"max":7.7,"latest":7.7,"n_samples":1,"unit":"pH","label":"pH","status":"High","trend":"insufficient_data"},"phosphate":{"mean":6.52,"min":6.52,"max":6.52,"latest":6.52,"n_samples":1,"unit":"mg/l","label":"Orthophosphate, reactive as P","status":"Bad","trend":"insufficient_data"},"ss":{"mean":20.0,"min":20.0,"max":20.0,"latest":20.0,"n_samples":1,"unit":"mg/l","label":"Suspended Solids at 105C"},"temperature":{"mean":13.5875,"min":7.8,"max":16.2,"latest":15.05,"n_samples":4,"unit":"\u00b0C","label":"Temperature"},"total_oxidised_n":{"mean":7.5,"min":7.5,"max":7.5,"latest":7.5,"n_samples":1,"unit":"mg/l","label":"Nitrogen, Total Oxidised as N"}},"statuses":{"ammonia":"Bad","bod":"Bad","ph":"High","phosphate":"Bad"},"sample_count":10,"total_samples":10,"earliest_sample":"2000-02-02","latest_sample":"2011-07-19","overall_status":"Bad","worst_determinand":"ammonia"},{"id":"MD-00029940","label":"PRIVATE SEWAGE EFFLUENT FROM ASTONS COACHES, BROOMHILL","lat":52.15707,"lon":-2.22009,"type":"SEWAGE DISCHARGES - FINAL/TREATED EFFLUENT - NOT WATER COMPANY","determinands":{"ammonia":{"mean":14.5327,"min":0.5,"max":53.9,"latest":53.9,"n_samples":10,"unit":"mg/l","label":"Ammoniacal Nitrogen as N","status":"Bad","trend":"improving"},"bod":{"mean":48.1889,"min":4.07,"max":278.0,"latest":278.0,"n_samples":9,"unit":"mg/l","label":"BOD 5 Day ATU","status":"Bad","trend":"declining"},"ph":{"mean":7.22,"min":6.4,"max":7.7,"latest":6.5,"n_samples":10,"unit":"pH","label":"pH","status":"High","trend":"stable"},"phosphate":{"mean":6.183,"min":3.26,"max":8.14,"latest":7.4,"n_samples":10,"unit":"mg/l","label":"Orthophosphate, reactive as P","status":"Bad","trend":"declining"},"ss":{"mean":21.3,"min":3.0,"max":71.0,"latest":71.0,"n_samples":10,"unit":"mg/l","label":"Suspended Solids at 105C"},"temperature":{"mean":22.9,"min":22.9,"max":22.9,"latest":22.9,"n_samples":1,"unit":"\u00b0C","label":"Temperature"},"total_oxidised_n":{"mean":26.36,"min":1.0,"max":43.1,"latest":1.0,"n_samples":10,"unit":"mg/l","label":"Nitrogen, Total Oxidised as N"}},"statuses":{"ammonia":"Bad","bod":"Bad","ph":"High","phosphate":"Bad"},"sample_count":60,"total_samples":60,"earliest_sample":"2001-07-27","latest_sample":"2006-07-24","overall_status":"Bad","worst_determinand":"ammonia"},{"id":"MD-26952620","label":"GROUNDWATER OUTFALL AT HELSHAW GRANGE","lat":52.85722,"lon":-2.54946,"type":"GROUNDWATER - COMPOSITE","determinands":{"ammonia":{"mean":0.0388,"min":0.0388,"max":0.0388,"latest":0.0388,"n_samples":1,"unit":"mg/l","label":"Ammoniacal Nitrogen as N","status":"High","trend":"insufficient_data"},"do_percent":{"mean":65.0,"min":65.0,"max":65.0,"latest":65.0,"n_samples":1,"unit":"%","label":"Dissolved Oxygen (% sat)","status":"Moderate","trend":"insufficient_data"},"nitrate":{"mean":18.7,"min":18.7,"max":18.7,"latest":18.7,"n_samples":1,"unit":"mg/l","label":"Nitrate as N"},"ph":{"mean":7.6,"min":7.6,"max":7.6,"latest":7.6,"n_samples":1,"unit":"pH","label":"pH","status":"High","trend":"insufficient_data"},"phosphate":{"mean":0.0783,"min":0.0783,"max":0.0783,"latest":0.0783,"n_samples":1,"unit":"mg/l","label":"Orthophosphate, reactive as P","status":"Good","trend":"insufficient_data"},"ss_alt":{"mean":564.0,"min":564.0,"max":564.0,"latest":564.0,"n_samples":1,"unit":"mg/l","label":"Suspended Solids (alt)"},"temperature":{"mean":10.7,"min":10.7,"max":10.7,"latest":10.7,"n_samples":1,"unit":"\u00b0C","label":"Temperature"},"total_oxidised_n":{"mean":18.7,"min":18.7,"max":18.7,"latest":18.7,"n_samples":1,"unit":"mg/l","label":"Nitrogen, Total Oxidised as N"}},"statuses":{"ammonia":"High","do_percent":"Moderate","ph":"High","phosphate":"Good"},"sample_count":8,"total_samples":8,"earliest_sample":"2006-06-21","latest_sample":"2006-06-21","overall_status":"Moderate","worst_determinand":"do_percent"},{"id":"MD-02852570","label":"RIVER LEADON AT PRIORS COURT BY LAKE","lat":52.06761,"lon":-2.44399,"type":"FRESHWATER - RIVERS","determinands":{"ammonia":{"mean":0.089,"min":0.03,"max":0.159,"latest":0.056,"n_samples":4,"unit":"mg/l","label":"Ammoniacal Nitrogen as N","status":"High","trend":"insufficient_data"},"bod":{"mean":1.85,"min":1.4,"max":2.1,"latest":1.9,"n_samples":4,"unit":"mg/l","label":"BOD 5 Day ATU","status":"High","trend":"insufficient_data"},"phosphate":{"mean":0.2305,"min":0.147,"max":0.412,"latest":0.164,"n_samples":4,"unit":"mg/l","label":"Orthophosphate, reactive as P","status":"Moderate","trend":"insufficient_data"},"ss":{"mean":46.87,"min":5.18,"max":81.0,"latest":60.7,"n_samples":4,"unit":"mg/l","label":"Suspended Solids at 105C"},"total_oxidised_n":{"mean":6.2625,"min":2.93,"max":9.68,"latest":6.52,"n_samples":4,"unit":"mg/l","label":"Nitrogen, Total Oxidised as N"}},"statuses":{"ammonia":"High","bod":"High","phosphate":"Moderate"},"sample_count":20,"total_samples":20,"earliest_sample":"2010-11-11","latest_sample":"2012-05-04","overall_status":"Moderate","worst_determinand":"phosphate"},{"id":"MD-23325260","label":"RIVER STOUR AT BAGLEY STREET","lat":52.46018,"lon":-2.128,"type":"FRESHWATER - RIVERS","determinands":{"ammonia":{"mean":0.1665,"min":0.059,"max":0.274,"latest":0.059,"n_samples":2,"unit":"mg/l","label":"Ammoniacal Nitrogen as N","status":"High","trend":"insufficient_data"},"bod":{"mean":2.175,"min":1.5,"max":2.85,"latest":1.5,"n_samples":2,"unit":"mg/l","label":"BOD 5 Day ATU","status":"High","trend":"insufficient_data"},"do_percent":{"mean":96.5,"min":92.0,"max":101.0,"latest":101.0,"n_samples":2,"unit":"%","label":"Dissolved Oxygen (% sat)","status":"High","trend":"insufficient_data"},"nitrate":{"mean":5.23,"min":5.23,"max":5.23,"latest":5.23,"n_samples":1,"unit":"mg/l","label":"Nitrate as N"},"ph":{"mean":7.6,"min":7.5,"max":7.7,"latest":7.5,"n_samples":2,"unit":"pH","label":"pH","status":"High","trend":"insufficient_data"},"phosphate":{"mean":0.0795,"min":0.078,"max":0.081,"latest":0.078,"n_samples":2,"unit":"mg/l","label":"Orthophosphate, reactive as P","status":"Good","trend":"insufficient_data"},"temperature":{"mean":8.6,"min":8.2,"max":9.0,"latest":9.0,"n_samples":2,"unit":"\u00b0C","label":"Temperature"},"total_oxidised_n":{"mean":5.715,"min":5.28,"max":6.15,"latest":5.28,"n_samples":2,"unit":"mg/l","label":"Nitrogen, Total Oxidised as N"}},"statuses":{"ammonia":"High","bod":"High","do_percent":"High","ph":"High","phosphate":"Good"},"sample_count":15,"total_samples":15,"earliest_sample":"2000-01-11","latest_sample":"2003-03-27","overall_status":"Good","worst_determinand":"phosphate"},{"id":"MD-00052951","label":"FINAL EFFLUENT (UNUSUAL WEATHER CONDITIONS) FROM SHREWSBURY (MONKMOOR) STW, SHREWSBURY","lat":52.71505,"lon":-2.71051,"type":"SEWAGE DISCHARGES - FINAL/TREATED EFFLUENT - WATER COMPANY","determinands":{"ammonia":{"mean":5.35,"min":5.35,"max":5.35,"latest":5.35,"n_samples":1,"unit":"mg/l","label":"Ammoniacal Nitrogen as N","status":"Bad","trend":"insufficient_data"},"bod":{"mean":29.5,"min":29.5,"max":29.5,"latest":29.5,"n_samples":1,"unit":"mg/l","label":"BOD 5 Day ATU","status":"Bad","trend":"insufficient_data"},"ss":{"mean":146.0,"min":146.0,"max":146.0,"latest":146.0,"n_samples":1,"unit":"mg/l","label":"Suspended Solids at 105C"}},"statuses":{"ammonia":"Bad","bod":"Bad"},"sample_count":3,"total_samples":3,"earliest_sample":"2000-11-22","latest_sample":"2000-11-22","overall_status":"Bad","worst_determinand":"ammonia"},{"id":"MD-76750560","label":"INGESTRE PARK GOLF CLUB D42/17","lat":52.81658,"lon":-2.02649,"type":"GROUNDWATER - BOREHOLE","determinands":{"ammonia":{"mean":0.45,"min":0.42,"max":0.48,"latest":0.42,"n_samples":2,"unit":"mg/l","label":"Ammoniacal Nitrogen as N","status":"Good","trend":"insufficient_data"},"do_percent":{"mean":32.2667,"min":15.0,"max":48.6,"latest":15.0,"n_samples":3,"unit":"%","label":"Dissolved Oxygen (% sat)","status":"Bad","trend":"insufficient_data"},"nitrate":{"mean":0.203,"min":0.19,"max":0.216,"latest":0.216,"n_samples":2,"unit":"mg/l","label":"Nitrate as N"},"ph":{"mean":6.8,"min":6.47,"max":7.03,"latest":7.03,"n_samples":3,"unit":"pH","label":"pH","status":"High","trend":"insufficient_data"},"phosphate":{"mean":0.017,"min":0.01,"max":0.024,"latest":0.024,"n_samples":2,"unit":"mg/l","label":"Orthophosphate, reactive as P","status":"High","trend":"insufficient_data"},"temperature":{"mean":15.7333,"min":14.4,"max":17.0,"latest":14.4,"n_samples":3,"unit":"\u00b0C","label":"Temperature"},"total_oxidised_n":{"mean":0.24,"min":0.2,"max":0.28,"latest":0.28,"n_samples":2,"unit":"mg/l","label":"Nitrogen, Total Oxidised as N"}},"statuses":{"ammonia":"Good","do_percent":"Bad","ph":"High","phosphate":"High"},"sample_count":17,"total_samples":17,"earliest_sample":"2024-06-28","latest_sample":"2025-10-03","overall_status":"Bad","worst_determinand":"do_percent"},{"id":"MD-14761870","label":"STORM SEWAGE AT ALFRICK CLAY GREEN","lat":52.17809,"lon":-2.36952,"type":"SEWAGE DISCHARGES - STW STORM OVERFLOW/STORM TANK - WATER COMPANY","determinands":{"ammonia":{"mean":19.85,"min":13.0,"max":26.7,"latest":13.0,"n_samples":2,"unit":"mg/l","label":"Ammoniacal Nitrogen as N","status":"Bad","trend":"insufficient_data"},"bod":{"mean":77.15,"min":51.3,"max":103.0,"latest":51.3,"n_samples":2,"unit":"mg/l","label":"BOD 5 Day ATU","status":"Bad","trend":"insufficient_data"},"ph":{"mean":7.6,"min":7.6,"max":7.6,"latest":7.6,"n_samples":1,"unit":"pH","label":"pH","status":"High","trend":"insufficient_data"},"phosphate":{"mean":4.085,"min":2.64,"max":5.53,"latest":2.64,"n_samples":2,"unit":"mg/l","label":"Orthophosphate, reactive as P","status":"Bad","trend":"insufficient_data"},"ss":{"mean":46.0,"min":32.0,"max":60.0,"latest":32.0,"n_samples":2,"unit":"mg/l","label":"Suspended Solids at 105C"},"temperature":{"mean":11.65,"min":8.5,"max":14.8,"latest":8.5,"n_samples":2,"unit":"\u00b0C","label":"Temperature"},"total_oxidised_n":{"mean":1.0,"min":1.0,"max":1.0,"latest":1.0,"n_samples":2,"unit":"mg/l","label":"Nitrogen, Total Oxidised as N"}},"statuses":{"ammonia":"Bad","bod":"Bad","ph":"High","phosphate":"Bad"},"sample_count":13,"total_samples":13,"earliest_sample":"2006-10-25","latest_sample":"2009-02-17","overall_status":"Bad","worst_determinand":"ammonia"},{"id":"MD-23483610","label":"CHLORINATED COOLING WATER TRADE EFFLUENT FROM CHURCHILL PUMPING STATION, ISMERE, KIDDERMINSTER","lat":52.4162,"lon":-2.20271,"type":"TRADE DISCHARGES - PROCESS EFFLUENT - WATER COMPANY (WTW)","determinands":{"temperature":{"mean":13.2,"min":12.4,"max":13.7,"latest":13.7,"n_samples":5,"unit":"\u00b0C","label":"Temperature"}},"statuses":{},"sample_count":5,"total_samples":5,"earliest_sample":"2009-09-17","latest_sample":"2018-08-13","overall_status":"Unknown","worst_determinand":null},{"id":"MD-23351069","label":"UWWTD INTAKE SELF MONITORING FROM BELBROUGHTON STW","lat":52.38718,"lon":-2.12926,"type":"SEWAGE - CRUDE TO FURTHER TREATMENT - WATER COMPANY","determinands":{"bod":{"mean":109.0,"min":109.0,"max":109.0,"latest":109.0,"n_samples":1,"unit":"mg/l","label":"BOD 5 Day ATU","status":"Bad","trend":"improving"}},"statuses":{"bod":"Bad"},"sample_count":1,"total_samples":21,"earliest_sample":"2006-01-18","latest_sample":"2026-02-23","overall_status":"Bad","worst_determinand":"bod"},{"id":"MD-77109830","label":"FINAL EFFLUENT FROM CROWN INN PUB","lat":52.87559,"lon":-2.1316,"type":"SEWAGE DISCHARGES - FINAL/TREATED EFFLUENT - NOT WATER COMPANY","determinands":{"bod":{"mean":38.3,"min":11.6,"max":65.0,"latest":11.6,"n_samples":2,"unit":"mg/l","label":"BOD 5 Day ATU","status":"Bad","trend":"insufficient_data"},"ss":{"mean":187.0,"min":52.0,"max":322.0,"latest":52.0,"n_samples":2,"unit":"mg/l","label":"Suspended Solids at 105C"}},"statuses":{"bod":"Bad"},"sample_count":4,"total_samples":4,"earliest_sample":"2005-10-04","latest_sample":"2005-11-29","overall_status":"Bad","worst_determinand":"bod"},{"id":"MD-00052980","label":"STORM OVERFLOW AT SHRESBURY MONKMOOR","lat":52.71432,"lon":-2.71198,"type":"SEWAGE DISCHARGES - SEWER STORM OVERFLOW - WATER COMPANY","determinands":{"ammonia":{"mean":8.518,"min":2.31,"max":14.6,"latest":5.52,"n_samples":5,"unit":"mg/l","label":"Ammoniacal Nitrogen as N","status":"Bad","trend":"insufficient_data"},"bod":{"mean":45.62,"min":15.6,"max":78.6,"latest":37.1,"n_samples":5,"unit":"mg/l","label":"BOD 5 Day ATU","status":"Bad","trend":"insufficient_data"},"ph":{"mean":7.475,"min":7.3,"max":7.6,"latest":7.5,"n_samples":4,"unit":"pH","label":"pH","status":"High","trend":"insufficient_data"},"phosphate":{"mean":1.6366,"min":0.663,"max":2.75,"latest":1.09,"n_samples":5,"unit":"mg/l","label":"Orthophosphate, reactive as P","status":"Bad","trend":"insufficient_data"},"ss":{"mean":68.6,"min":37.0,"max":102.0,"latest":70.0,"n_samples":5,"unit":"mg/l","label":"Suspended Solids at 105C"},"temperature":{"mean":10.2667,"min":10.0,"max":10.4,"latest":10.4,"n_samples":3,"unit":"\u00b0C","label":"Temperature"},"total_oxidised_n":{"mean":3.374,"min":1.0,"max":6.59,"latest":3.73,"n_samples":5,"unit":"mg/l","label":"Nitrogen, Total Oxidised as N"}},"statuses":{"ammonia":"Bad","bod":"Bad","ph":"High","phosphate":"Bad"},"sample_count":32,"total_samples":32,"earliest_sample":"2000-11-06","latest_sample":"2000-12-11","overall_status":"Bad","worst_determinand":"ammonia"},{"id":"MD-14860630","label":"PRIVATE SEWAGE EFFLUENT FROM JURO ANTIQUES SITE STP, BROMYARD ROAD, WHITBOURNE, WORCESTER","lat":52.20312,"lon":-2.41508,"type":"SEWAGE DISCHARGES - FINAL/TREATED EFFLUENT - NOT WATER COMPANY","determinands":{"ammonia":{"mean":7.95,"min":1.56,"max":22.9,"latest":6.28,"n_samples":6,"unit":"mg/l","label":"Ammoniacal Nitrogen as N","status":"Bad","trend":"insufficient_data"},"bod":{"mean":50.35,"min":36.5,"max":83.2,"latest":36.5,"n_samples":4,"unit":"mg/l","label":"BOD 5 Day ATU","status":"Bad","trend":"insufficient_data"},"phosphate":{"mean":6.96,"min":4.81,"max":9.67,"latest":6.4,"n_samples":3,"unit":"mg/l","label":"Orthophosphate, reactive as P","status":"Bad","trend":"insufficient_data"},"ss":{"mean":63.9,"min":13.0,"max":109.0,"latest":59.1,"n_samples":6,"unit":"mg/l","label":"Suspended Solids at 105C"},"total_oxidised_n":{"mean":18.55,"min":6.75,"max":34.2,"latest":34.2,"n_samples":3,"unit":"mg/l","label":"Nitrogen, Total Oxidised as N"}},"statuses":{"ammonia":"Bad","bod":"Bad","phosphate":"Bad"},"sample_count":22,"total_samples":22,"earliest_sample":"2007-12-04","latest_sample":"2010-10-05","overall_status":"Bad","worst_determinand":"ammonia"},{"id":"MD-14540950","label":"TREATED SEWAGE EFFLUENT FROM PARK LANE (WEST MALVERN) STW, WEST MALVERN, WORCS","lat":52.10137,"lon":-2.35282,"type":"SEWAGE DISCHARGES - FINAL/TREATED EFFLUENT - WATER COMPANY","determinands":{"temperature":{"mean":15.4333,"min":13.9,"max":17.5,"latest":14.9,"n_samples":3,"unit":"\u00b0C","label":"Temperature"}},"statuses":{},"sample_count":3,"total_samples":3,"earliest_sample":"2009-10-01","latest_sample":"2011-07-27","overall_status":"Unknown","worst_determinand":null},{"id":"MD-27248200","label":"PRIVATE SEWAGE EFFLUENT FROM 4 BARN CONVERSIONS STP, LACON HOLDINGS, WEM, SHROPSHIRE","lat":52.86942,"lon":-2.69164,"type":"SEWAGE DISCHARGES - FINAL/TREATED EFFLUENT - NOT WATER COMPANY","determinands":{"ammonia":{"mean":44.4,"min":44.4,"max":44.4,"latest":44.4,"n_samples":1,"unit":"mg/l","label":"Ammoniacal Nitrogen as N","status":"Bad","trend":"insufficient_data"},"bod":{"mean":54.7,"min":54.7,"max":54.7,"latest":54.7,"n_samples":1,"unit":"mg/l","label":"BOD 5 Day ATU","status":"Bad","trend":"insufficient_data"},"phosphate":{"mean":11.6,"min":11.6,"max":11.6,"latest":11.6,"n_samples":1,"unit":"mg/l","label":"Orthophosphate, reactive as P","status":"Bad","trend":"insufficient_data"},"ss":{"mean":83.0,"min":83.0,"max":83.0,"latest":83.0,"n_samples":1,"unit":"mg/l","label":"Suspended Solids at 105C"},"total_oxidised_n":{"mean":1.0,"min":1.0,"max":1.0,"latest":1.0,"n_samples":1,"unit":"mg/l","label":"Nitrogen, Total Oxidised as N"}},"statuses":{"ammonia":"Bad","bod":"Bad","phosphate":"Bad"},"sample_count":5,"total_samples":5,"earliest_sample":"2004-02-16","latest_sample":"2004-02-16","overall_status":"Bad","worst_determinand":"ammonia"},{"id":"MD-00052970","label":"SETTLED STORM SEWAGE FROM SHREWSBURY (MONKMOOR) STW, SHREWSBURY, SHROPSHIRE","lat":52.71796,"lon":-2.71448,"type":"SEWAGE DISCHARGES - STW STORM OVERFLOW/STORM TANK - WATER COMPANY","determinands":{"ammonia":{"mean":22.35,"min":19.3,"max":25.4,"latest":25.4,"n_samples":2,"unit":"mg/l","label":"Ammoniacal Nitrogen as N","status":"Bad","trend":"insufficient_data"},"bod":{"mean":108.0,"min":106.0,"max":110.0,"latest":110.0,"n_samples":2,"unit":"mg/l","label":"BOD 5 Day ATU","status":"Bad","trend":"insufficient_data"},"ph":{"mean":7.46,"min":7.2,"max":7.72,"latest":7.2,"n_samples":2,"unit":"pH","label":"pH","status":"High","trend":"insufficient_data"},"phosphate":{"mean":2.985,"min":2.29,"max":3.68,"latest":2.29,"n_samples":2,"unit":"mg/l","label":"Orthophosphate, reactive as P","status":"Bad","trend":"insufficient_data"},"ss":{"mean":117.0,"min":99.0,"max":135.0,"latest":135.0,"n_samples":2,"unit":"mg/l","label":"Suspended Solids at 105C"},"temperature":{"mean":9.8,"min":8.0,"max":11.6,"latest":11.6,"n_samples":2,"unit":"\u00b0C","label":"Temperature"},"total_oxidised_n":{"mean":3.46,"min":1.76,"max":5.16,"latest":5.16,"n_samples":2,"unit":"mg/l","label":"Nitrogen, Total Oxidised as N"}},"statuses":{"ammonia":"Bad","bod":"Bad","ph":"High","phosphate":"Bad"},"sample_count":14,"total_samples":14,"earliest_sample":"2002-02-14","latest_sample":"2004-02-03","overall_status":"Bad","worst_determinand":"ammonia"},{"id":"MD-00030449","label":"UWWTD INTAKE SELF MONITORING FROM WORCESTER STW","lat":52.18061,"lon":-2.22913,"type":"SEWAGE - CRUDE TO FURTHER TREATMENT - WATER COMPANY","determinands":{"bod":{"mean":244.2,"min":151.0,"max":565.0,"latest":211.0,"n_samples":30,"unit":"mg/l","label":"BOD 5 Day ATU","status":"Bad","trend":"insufficient_data"}},"statuses":{"bod":"Bad"},"sample_count":30,"total_samples":30,"earliest_sample":"2002-09-25","latest_sample":"2003-12-14","overall_status":"Bad","worst_determinand":"bod"},{"id":"MD-14805500","label":"SECONDARY TREATED SEWAGE EFFLUENT FROM LULSLEY GRESWOLDE STW, LULSLEY, NEAR WORCESTER, WORCESTERSHIRE","lat":52.1901,"lon":-2.38263,"type":"SEWAGE DISCHARGES - FINAL/TREATED EFFLUENT - WATER COMPANY","determinands":{"ammonia":{"mean":28.9,"min":14.0,"max":43.8,"latest":43.8,"n_samples":2,"unit":"mg/l","label":"Ammoniacal Nitrogen as N","status":"Bad","trend":"insufficient_data"},"bod":{"mean":67.25,"min":54.0,"max":80.5,"latest":80.5,"n_samples":2,"unit":"mg/l","label":"BOD 5 Day ATU","status":"Bad","trend":"insufficient_data"},"phosphate":{"mean":8.56,"min":6.52,"max":10.6,"latest":10.6,"n_samples":2,"unit":"mg/l","label":"Orthophosphate, reactive as P","status":"Bad","trend":"insufficient_data"},"ss":{"mean":137.6,"min":60.2,"max":215.0,"latest":215.0,"n_samples":2,"unit":"mg/l","label":"Suspended Solids at 105C"},"total_oxidised_n":{"mean":10.4,"min":1.0,"max":19.8,"latest":1.0,"n_samples":2,"unit":"mg/l","label":"Nitrogen, Total Oxidised as N"}},"statuses":{"ammonia":"Bad","bod":"Bad","phosphate":"Bad"},"sample_count":10,"total_samples":10,"earliest_sample":"2010-09-02","latest_sample":"2016-08-18","overall_status":"Bad","worst_determinand":"ammonia"},{"id":"MD-14783350","label":"PRIVATE SEWAGE EFFLUENT FROM FINCHES NEST STP, GREEN ST, LULSLEY, KNIGHTWICK, WORCESTERSHIRE","lat":52.1852,"lon":-2.36913,"type":"SEWAGE DISCHARGES - FINAL/TREATED EFFLUENT - NOT WATER COMPANY","determinands":{"ammonia":{"mean":10.2,"min":10.2,"max":10.2,"latest":10.2,"n_samples":1,"unit":"mg/l","label":"Ammoniacal Nitrogen as N","status":"Bad","trend":"insufficient_data"},"bod":{"mean":8.61,"min":8.61,"max":8.61,"latest":8.61,"n_samples":1,"unit":"mg/l","label":"BOD 5 Day ATU","status":"Poor","trend":"insufficient_data"},"phosphate":{"mean":7.31,"min":7.31,"max":7.31,"latest":7.31,"n_samples":1,"unit":"mg/l","label":"Orthophosphate, reactive as P","status":"Bad","trend":"insufficient_data"},"ss":{"mean":4.0,"min":4.0,"max":4.0,"latest":4.0,"n_samples":1,"unit":"mg/l","label":"Suspended Solids at 105C"},"total_oxidised_n":{"mean":30.6,"min":30.6,"max":30.6,"latest":30.6,"n_samples":1,"unit":"mg/l","label":"Nitrogen, Total Oxidised as N"}},"statuses":{"ammonia":"Bad","bod":"Poor","phosphate":"Bad"},"sample_count":5,"total_samples":5,"earliest_sample":"2001-12-10","latest_sample":"2001-12-10","overall_status":"Bad","worst_determinand":"ammonia"},{"id":"MD-26947180","label":"TREATED SEWAGE EFFLUENT FROM WALCOT STW, NR ALLSCOTT, TELFORD, SHROPSHIRE","lat":52.70604,"lon":-2.60025,"type":"SEWAGE DISCHARGES - FINAL/TREATED EFFLUENT - WATER COMPANY","determinands":{"temperature":{"mean":16.5333,"min":14.7,"max":18.2,"latest":18.2,"n_samples":3,"unit":"\u00b0C","label":"Temperature"}},"statuses":{},"sample_count":3,"total_samples":3,"earliest_sample":"2008-07-17","latest_sample":"2011-07-04","overall_status":"Unknown","worst_determinand":null},{"id":"MD-23325480","label":"FINAL HUMUS EFFLUENT AT CALEDONIA STW (BRIERLEY HILL)","lat":52.46216,"lon":-2.12065,"type":"SEWAGE DISCHARGES - FINAL/TREATED EFFLUENT - WATER COMPANY","determinands":{"ammonia":{"mean":0.5,"min":0.5,"max":0.5,"latest":0.5,"n_samples":1,"unit":"mg/l","label":"Ammoniacal Nitrogen as N","status":"Good","trend":"insufficient_data"},"bod":{"mean":2.75,"min":2.75,"max":2.75,"latest":2.75,"n_samples":1,"unit":"mg/l","label":"BOD 5 Day ATU","status":"High","trend":"insufficient_data"},"ph":{"mean":7.8,"min":7.8,"max":7.8,"latest":7.8,"n_samples":1,"unit":"pH","label":"pH","status":"High","trend":"insufficient_data"},"phosphate":{"mean":0.5,"min":0.5,"max":0.5,"latest":0.5,"n_samples":1,"unit":"mg/l","label":"Orthophosphate, reactive as P","status":"Poor","trend":"insufficient_data"},"ss":{"mean":7.0,"min":7.0,"max":7.0,"latest":7.0,"n_samples":1,"unit":"mg/l","label":"Suspended Solids at 105C"},"total_oxidised_n":{"mean":7.13,"min":7.13,"max":7.13,"latest":7.13,"n_samples":1,"unit":"mg/l","label":"Nitrogen, Total Oxidised as N"}},"statuses":{"ammonia":"Good","bod":"High","ph":"High","phosphate":"Poor"},"sample_count":6,"total_samples":6,"earliest_sample":"2000-01-14","latest_sample":"2000-01-14","overall_status":"Poor","worst_determinand":"phosphate"},{"id":"MD-23032390","label":"TREATED SEWAGE EFFLUENT, STP AT WOODBINE COTTAGES, SHRAWLEY","lat":52.29661,"lon":-2.2963,"type":"SEWAGE DISCHARGES - FINAL/TREATED EFFLUENT - NOT WATER COMPANY","determinands":{"ammonia":{"mean":20.3525,"min":2.6,"max":63.1,"latest":2.6,"n_samples":4,"unit":"mg/l","label":"Ammoniacal Nitrogen as N","status":"Bad","trend":"insufficient_data"},"bod":{"mean":41.0333,"min":11.5,"max":109.0,"latest":11.5,"n_samples":6,"unit":"mg/l","label":"BOD 5 Day ATU","status":"Bad","trend":"improving"},"ph":{"mean":7.6333,"min":7.5,"max":7.7,"latest":7.7,"n_samples":3,"unit":"pH","label":"pH","status":"High","trend":"insufficient_data"},"phosphate":{"mean":12.7375,"min":9.04,"max":21.7,"latest":21.7,"n_samples":4,"unit":"mg/l","label":"Orthophosphate, reactive as P","status":"Bad","trend":"insufficient_data"},"ss":{"mean":58.4,"min":12.0,"max":125.0,"latest":12.0,"n_samples":6,"unit":"mg/l","label":"Suspended Solids at 105C"},"temperature":{"mean":13.05,"min":9.1,"max":17.0,"latest":9.1,"n_samples":2,"unit":"\u00b0C","label":"Temperature"},"total_oxidised_n":{"mean":6.2,"min":1.0,"max":12.4,"latest":12.4,"n_samples":4,"unit":"mg/l","label":"Nitrogen, Total Oxidised as N"}},"statuses":{"ammonia":"Bad","bod":"Bad","ph":"High","phosphate":"Bad"},"sample_count":29,"total_samples":29,"earliest_sample":"2007-06-14","latest_sample":"2010-09-09","overall_status":"Bad","worst_determinand":"ammonia"},{"id":"MD-23468490","label":"PRIVATE SEWAGE EFFLUENT FROM WILDWOODS STP, HABBERLEY RD, TRIMPLEY, BEWDLEY, WORCS","lat":52.39954,"lon":-2.30257,"type":"SEWAGE DISCHARGES - FINAL/TREATED EFFLUENT - NOT WATER COMPANY","determinands":{"bod":{"mean":10.1333,"min":5.4,"max":15.5,"latest":15.5,"n_samples":3,"unit":"mg/l","label":"BOD 5 Day ATU","status":"Bad","trend":"insufficient_data"},"ss":{"mean":18.9067,"min":9.72,"max":27.4,"latest":27.4,"n_samples":3,"unit":"mg/l","label":"Suspended Solids at 105C"}},"statuses":{"bod":"Bad"},"sample_count":6,"total_samples":6,"earliest_sample":"2010-06-09","latest_sample":"2011-02-22","overall_status":"Bad","worst_determinand":"bod"},{"id":"MD-77772250","label":"FINAL EFFLUENT FROM HANCHURCH MANOR STP","lat":52.96606,"lon":-2.22255,"type":"SEWAGE DISCHARGES - FINAL/TREATED EFFLUENT - NOT WATER COMPANY","determinands":{"ammonia":{"mean":48.7667,"min":43.6,"max":54.6,"latest":48.1,"n_samples":3,"unit":"mg/l","label":"Ammoniacal Nitrogen as N","status":"Bad","trend":"insufficient_data"},"bod":{"mean":520.3333,"min":422.0,"max":635.0,"latest":504.0,"n_samples":3,"unit":"mg/l","label":"BOD 5 Day ATU","status":"Bad","trend":"insufficient_data"},"ph":{"mean":7.5,"min":7.5,"max":7.5,"latest":7.5,"n_samples":1,"unit":"pH","label":"pH","status":"High","trend":"insufficient_data"},"ss":{"mean":133.0,"min":112.0,"max":159.0,"latest":159.0,"n_samples":3,"unit":"mg/l","label":"Suspended Solids at 105C"},"temperature":{"mean":7.8,"min":7.8,"max":7.8,"latest":7.8,"n_samples":1,"unit":"\u00b0C","label":"Temperature"}},"statuses":{"ammonia":"Bad","bod":"Bad","ph":"High"},"sample_count":11,"total_samples":11,"earliest_sample":"2010-03-09","latest_sample":"2010-05-06","overall_status":"Bad","worst_determinand":"ammonia"},{"id":"MD-26953780","label":"RIVER TERN AT TERNHILL BRIDGE","lat":52.88334,"lon":-2.5379,"type":"FRESHWATER - RIVERS","determinands":{"ammonia":{"mean":0.31,"min":0.31,"max":0.31,"latest":0.31,"n_samples":1,"unit":"mg/l","label":"Ammoniacal Nitrogen as N","status":"Good","trend":"insufficient_data"},"bod":{"mean":2.74,"min":2.74,"max":2.74,"latest":2.74,"n_samples":1,"unit":"mg/l","label":"BOD 5 Day ATU","status":"High","trend":"insufficient_data"},"do_percent":{"mean":117.0,"min":117.0,"max":117.0,"latest":117.0,"n_samples":1,"unit":"%","label":"Dissolved Oxygen (% sat)","status":"High","trend":"insufficient_data"},"ph":{"mean":8.0,"min":8.0,"max":8.0,"latest":8.0,"n_samples":1,"unit":"pH","label":"pH","status":"High","trend":"insufficient_data"},"ss":{"mean":13.0,"min":13.0,"max":13.0,"latest":13.0,"n_samples":1,"unit":"mg/l","label":"Suspended Solids at 105C"},"ss_alt":{"mean":570.0,"min":570.0,"max":570.0,"latest":570.0,"n_samples":1,"unit":"mg/l","label":"Suspended Solids (alt)"},"temperature":{"mean":13.9,"min":13.9,"max":13.9,"latest":13.9,"n_samples":1,"unit":"\u00b0C","label":"Temperature"},"total_oxidised_n":{"mean":12.2,"min":12.2,"max":12.2,"latest":12.2,"n_samples":1,"unit":"mg/l","label":"Nitrogen, Total Oxidised as N"}},"statuses":{"ammonia":"Good","bod":"High","do_percent":"High","ph":"High"},"sample_count":8,"total_samples":8,"earliest_sample":"2001-05-08","latest_sample":"2001-05-08","overall_status":"Good","worst_determinand":"ammonia"},{"id":"MD-23236100","label":"STP FINAL EFFLUENT AT ASTLEY BURF COTTAGES STOURPORT","lat":52.30709,"lon":-2.2773,"type":"SEWAGE DISCHARGES - FINAL/TREATED EFFLUENT - NOT WATER COMPANY","determinands":{"ammonia":{"mean":12.7307,"min":0.592,"max":22.0,"latest":0.592,"n_samples":3,"unit":"mg/l","label":"Ammoniacal Nitrogen as N","status":"Bad","trend":"insufficient_data"},"bod":{"mean":12.37,"min":5.61,"max":21.1,"latest":5.61,"n_samples":3,"unit":"mg/l","label":"BOD 5 Day ATU","status":"Bad","trend":"insufficient_data"},"ph":{"mean":6.8,"min":6.8,"max":6.8,"latest":6.8,"n_samples":1,"unit":"pH","label":"pH","status":"High","trend":"insufficient_data"},"phosphate":{"mean":9.66,"min":8.98,"max":10.4,"latest":8.98,"n_samples":3,"unit":"mg/l","label":"Orthophosphate, reactive as P","status":"Bad","trend":"insufficient_data"},"ss":{"mean":28.0,"min":8.0,"max":52.0,"latest":24.0,"n_samples":3,"unit":"mg/l","label":"Suspended Solids at 105C"},"temperature":{"mean":24.7,"min":24.7,"max":24.7,"latest":24.7,"n_samples":1,"unit":"\u00b0C","label":"Temperature"},"total_oxidised_n":{"mean":12.9667,"min":12.4,"max":13.8,"latest":12.7,"n_samples":3,"unit":"mg/l","label":"Nitrogen, Total Oxidised as N"}},"statuses":{"ammonia":"Bad","bod":"Bad","ph":"High","phosphate":"Bad"},"sample_count":17,"total_samples":17,"earliest_sample":"2003-04-09","latest_sample":"2004-09-29","overall_status":"Bad","worst_determinand":"ammonia"},{"id":"MD-14562370","label":"PRIVATE SEWAGE EFFLUENT FROM DOMESTIC PROPERTY (RIVENDELL) STP, THE PERLIEU, UPPER COLWALL, MALVERN","lat":52.09536,"lon":-2.34664,"type":"SEWAGE DISCHARGES - FINAL/TREATED EFFLUENT - NOT WATER COMPANY","determinands":{"ammonia":{"mean":49.3,"min":49.3,"max":49.3,"latest":49.3,"n_samples":1,"unit":"mg/l","label":"Ammoniacal Nitrogen as N","status":"Bad","trend":"insufficient_data"},"bod":{"mean":52.0,"min":52.0,"max":52.0,"latest":52.0,"n_samples":1,"unit":"mg/l","label":"BOD 5 Day ATU","status":"Bad","trend":"insufficient_data"},"phosphate":{"mean":5.96,"min":5.96,"max":5.96,"latest":5.96,"n_samples":1,"unit":"mg/l","label":"Orthophosphate, reactive as P","status":"Bad","trend":"insufficient_data"},"ss":{"mean":42.0,"min":42.0,"max":42.0,"latest":42.0,"n_samples":1,"unit":"mg/l","label":"Suspended Solids at 105C"},"total_oxidised_n":{"mean":1.0,"min":1.0,"max":1.0,"latest":1.0,"n_samples":1,"unit":"mg/l","label":"Nitrogen, Total Oxidised as N"}},"statuses":{"ammonia":"Bad","bod":"Bad","phosphate":"Bad"},"sample_count":5,"total_samples":5,"earliest_sample":"2004-03-26","latest_sample":"2004-03-26","overall_status":"Bad","worst_determinand":"ammonia"},{"id":"MD-36781925","label":"SETTLED STORM SEWAGE FROM PIREHILL STW, BROOMS RAOD, STONE BUSINESS PARK, STONE, STAFFORDSHIRE","lat":52.88806,"lon":-2.1459,"type":"SEWAGE DISCHARGES - STW STORM OVERFLOW/STORM TANK - WATER COMPANY","determinands":{"ammonia":{"mean":12.2,"min":12.2,"max":12.2,"latest":12.2,"n_samples":1,"unit":"mg/l","label":"Ammoniacal Nitrogen as N","status":"Bad","trend":"insufficient_data"},"bod":{"mean":29.5,"min":29.5,"max":29.5,"latest":29.5,"n_samples":1,"unit":"mg/l","label":"BOD 5 Day ATU","status":"Bad","trend":"insufficient_data"},"ph":{"mean":7.7,"min":7.7,"max":7.7,"latest":7.7,"n_samples":1,"unit":"pH","label":"pH","status":"High","trend":"insufficient_data"},"phosphate":{"mean":1.99,"min":1.99,"max":1.99,"latest":1.99,"n_samples":1,"unit":"mg/l","label":"Orthophosphate, reactive as P","status":"Bad","trend":"insufficient_data"},"ss":{"mean":38.0,"min":38.0,"max":38.0,"latest":38.0,"n_samples":1,"unit":"mg/l","label":"Suspended Solids at 105C"},"total_oxidised_n":{"mean":4.36,"min":4.36,"max":4.36,"latest":4.36,"n_samples":1,"unit":"mg/l","label":"Nitrogen, Total Oxidised as N"}},"statuses":{"ammonia":"Bad","bod":"Bad","ph":"High","phosphate":"Bad"},"sample_count":6,"total_samples":6,"earliest_sample":"2000-09-26","latest_sample":"2000-09-26","overall_status":"Bad","worst_determinand":"ammonia"},{"id":"MD-00032360","label":"RIVER SEVERN - DS BEVERE WEIR (MID)","lat":52.23003,"lon":-2.24227,"type":"FRESHWATER - RIVERS","determinands":{"ammonia":{"mean":0.121,"min":0.121,"max":0.121,"latest":0.121,"n_samples":1,"unit":"mg/l","label":"Ammoniacal Nitrogen as N","status":"High","trend":"insufficient_data"},"bod":{"mean":2.01,"min":2.01,"max":2.01,"latest":2.01,"n_samples":1,"unit":"mg/l","label":"BOD 5 Day ATU","status":"High","trend":"insufficient_data"},"do_percent":{"mean":89.0,"min":89.0,"max":89.0,"latest":89.0,"n_samples":1,"unit":"%","label":"Dissolved Oxygen (% sat)","status":"High","trend":"insufficient_data"},"ph":{"mean":8.2,"min":8.2,"max":8.2,"latest":8.2,"n_samples":1,"unit":"pH","label":"pH","status":"High","trend":"insufficient_data"},"ss":{"mean":3.0,"min":3.0,"max":3.0,"latest":3.0,"n_samples":1,"unit":"mg/l","label":"Suspended Solids at 105C"},"ss_alt":{"mean":717.0,"min":717.0,"max":717.0,"latest":717.0,"n_samples":1,"unit":"mg/l","label":"Suspended Solids (alt)"},"temperature":{"mean":8.3,"min":8.3,"max":8.3,"latest":8.3,"n_samples":1,"unit":"\u00b0C","label":"Temperature"},"total_oxidised_n":{"mean":7.43,"min":7.43,"max":7.43,"latest":7.43,"n_samples":1,"unit":"mg/l","label":"Nitrogen, Total Oxidised as N"}},"statuses":{"ammonia":"High","bod":"High","do_percent":"High","ph":"High"},"sample_count":8,"total_samples":8,"earliest_sample":"2003-10-23","latest_sample":"2003-10-23","overall_status":"High","worst_determinand":"ammonia"},{"id":"MD-15282130","label":"PRIVATE SEWAGE EFFLUENT FROM 3 NEW DWELLINGS STP, NOAK FARM, CLIFTON ON TEME, WORCESTER","lat":52.24096,"lon":-2.39068,"type":"SEWAGE DISCHARGES - FINAL/TREATED EFFLUENT - NOT WATER COMPANY","determinands":{"ammonia":{"mean":2.97,"min":1.36,"max":4.58,"latest":4.58,"n_samples":2,"unit":"mg/l","label":"Ammoniacal Nitrogen as N","status":"Bad","trend":"insufficient_data"},"bod":{"mean":23.75,"min":10.9,"max":36.6,"latest":10.9,"n_samples":2,"unit":"mg/l","label":"BOD 5 Day ATU","status":"Bad","trend":"insufficient_data"},"phosphate":{"mean":11.0,"min":11.0,"max":11.0,"latest":11.0,"n_samples":2,"unit":"mg/l","label":"Orthophosphate, reactive as P","status":"Bad","trend":"insufficient_data"},"ss":{"mean":24.0,"min":14.0,"max":34.0,"latest":14.0,"n_samples":2,"unit":"mg/l","label":"Suspended Solids at 105C"},"total_oxidised_n":{"mean":20.15,"min":13.4,"max":26.9,"latest":13.4,"n_samples":2,"unit":"mg/l","label":"Nitrogen, Total Oxidised as N"}},"statuses":{"ammonia":"Bad","bod":"Bad","phosphate":"Bad"},"sample_count":10,"total_samples":10,"earliest_sample":"2007-07-09","latest_sample":"2008-04-29","overall_status":"Bad","worst_determinand":"ammonia"},{"id":"MD-01628500","label":"STSE FROM 4 & 5 HIGH PARK COTTAGES STP, WHITTINGTON, WORCESTER","lat":52.16407,"lon":-2.16273,"type":"SEWAGE DISCHARGES - FINAL/TREATED EFFLUENT - NOT WATER COMPANY","determinands":{"ammonia":{"mean":20.4,"min":20.4,"max":20.4,"latest":20.4,"n_samples":1,"unit":"mg/l","label":"Ammoniacal Nitrogen as N","status":"Bad","trend":"insufficient_data"},"bod":{"mean":8.3,"min":8.3,"max":8.3,"latest":8.3,"n_samples":1,"unit":"mg/l","label":"BOD 5 Day ATU","status":"Poor","trend":"insufficient_data"},"phosphate":{"mean":14.8,"min":14.8,"max":14.8,"latest":14.8,"n_samples":1,"unit":"mg/l","label":"Orthophosphate, reactive as P","status":"Bad","trend":"insufficient_data"},"ss":{"mean":20.3,"min":20.3,"max":20.3,"latest":20.3,"n_samples":1,"unit":"mg/l","label":"Suspended Solids at 105C"},"total_oxidised_n":{"mean":43.5,"min":43.5,"max":43.5,"latest":43.5,"n_samples":1,"unit":"mg/l","label":"Nitrogen, Total Oxidised as N"}},"statuses":{"ammonia":"Bad","bod":"Poor","phosphate":"Bad"},"sample_count":5,"total_samples":5,"earliest_sample":"2011-10-24","latest_sample":"2011-10-24","overall_status":"Bad","worst_determinand":"ammonia"},{"id":"MD-13611190","label":"PRIVATE SEWAGE EFFLUENT FROM NEWNHAM COURT BARNS STP, NEWNHAM BRIDGE, NR TENBURY WELLS, WORCESTERSHIRE","lat":52.3141,"lon":-2.51924,"type":"SEWAGE DISCHARGES - FINAL/TREATED EFFLUENT - NOT WATER COMPANY","determinands":{"ammonia":{"mean":2.4075,"min":0.5,"max":13.4,"latest":1.2,"n_samples":16,"unit":"mg/l","label":"Ammoniacal Nitrogen as N","status":"Poor","trend":"declining"},"bod":{"mean":8.085,"min":2.75,"max":31.2,"latest":5.81,"n_samples":16,"unit":"mg/l","label":"BOD 5 Day ATU","status":"Poor","trend":"improving"},"ss":{"mean":24.285,"min":3.0,"max":160.0,"latest":9.27,"n_samples":16,"unit":"mg/l","label":"Suspended Solids at 105C"}},"statuses":{"ammonia":"Poor","bod":"Poor"},"sample_count":48,"total_samples":48,"earliest_sample":"2010-11-18","latest_sample":"2018-06-05","overall_status":"Poor","worst_determinand":"ammonia"},{"id":"MD-22983290","label":"PRIVATE SEWAGE EFFLUENT FROM 4 PROPERTIES STP, WALSGROVE FARM, GREAT WITLEY, WORCESTERSHIRE","lat":52.2902,"lon":-2.37161,"type":"SEWAGE DISCHARGES - FINAL/TREATED EFFLUENT - NOT WATER COMPANY","determinands":{"ammonia":{"mean":4.592,"min":1.22,"max":7.73,"latest":1.46,"n_samples":5,"unit":"mg/l","label":"Ammoniacal Nitrogen as N","status":"Bad","trend":"improving"},"bod":{"mean":5.324,"min":3.08,"max":9.55,"latest":3.46,"n_samples":5,"unit":"mg/l","label":"BOD 5 Day ATU","status":"Moderate","trend":"improving"},"do_percent":{"mean":24.0,"min":24.0,"max":24.0,"latest":24.0,"n_samples":1,"unit":"%","label":"Dissolved Oxygen (% sat)","status":"Bad","trend":"insufficient_data"},"ph":{"mean":7.4,"min":7.1,"max":7.7,"latest":7.1,"n_samples":2,"unit":"pH","label":"pH","status":"High","trend":"insufficient_data"},"phosphate":{"mean":9.202,"min":1.1,"max":22.7,"latest":1.1,"n_samples":5,"unit":"mg/l","label":"Orthophosphate, reactive as P","status":"Bad","trend":"improving"},"ss":{"mean":11.8,"min":9.0,"max":13.0,"latest":12.0,"n_samples":5,"unit":"mg/l","label":"Suspended Solids at 105C"},"temperature":{"mean":13.95,"min":12.4,"max":15.5,"latest":12.4,"n_samples":2,"unit":"\u00b0C","label":"Temperature"},"total_oxidised_n":{"mean":20.7,"min":8.55,"max":45.6,"latest":8.55,"n_samples":5,"unit":"mg/l","label":"Nitrogen, Total Oxidised as N"}},"statuses":{"ammonia":"Bad","bod":"Moderate","do_percent":"Bad","ph":"High","phosphate":"Bad"},"sample_count":30,"total_samples":30,"earliest_sample":"2003-10-23","latest_sample":"2007-08-10","overall_status":"Bad","worst_determinand":"ammonia"},{"id":"MD-72771989","label":"UWWTD INTAKE 1 SELF MONITORING FROM CANNOCK STW","lat":52.68013,"lon":-2.03901,"type":"SEWAGE - CRUDE TO FURTHER TREATMENT - WATER COMPANY","determinands":{"bod":{"mean":259.4074,"min":134.0,"max":502.0,"latest":253.0,"n_samples":27,"unit":"mg/l","label":"BOD 5 Day ATU","status":"Bad","trend":"insufficient_data"}},"statuses":{"bod":"Bad"},"sample_count":27,"total_samples":27,"earliest_sample":"2002-10-15","latest_sample":"2003-12-05","overall_status":"Bad","worst_determinand":"bod"},{"id":"MD-13606980","label":"TREATED SEWAGE EFFLUENT FROM SHELSEY BEAUCHAMP STW, SHELSEY, BEAUCHAMP, WORCS","lat":52.26231,"lon":-2.39531,"type":"SEWAGE DISCHARGES - FINAL/TREATED EFFLUENT - WATER COMPANY","determinands":{"temperature":{"mean":9.5889,"min":7.5,"max":14.6,"latest":8.9,"n_samples":9,"unit":"\u00b0C","label":"Temperature"}},"statuses":{},"sample_count":9,"total_samples":9,"earliest_sample":"2009-06-17","latest_sample":"2019-03-18","overall_status":"Unknown","worst_determinand":null},{"id":"MD-13624300","label":"STORM SEWER OVERFLOW AT HIGH STREET LEINTWARDINE","lat":52.35984,"lon":-2.87661,"type":"SEWAGE DISCHARGES - SEWER STORM OVERFLOW - WATER COMPANY","determinands":{"ammonia":{"mean":36.3,"min":36.3,"max":36.3,"latest":36.3,"n_samples":1,"unit":"mg/l","label":"Ammoniacal Nitrogen as N","status":"Bad","trend":"insufficient_data"},"bod":{"mean":1130.0,"min":1130.0,"max":1130.0,"latest":1130.0,"n_samples":1,"unit":"mg/l","label":"BOD 5 Day ATU","status":"Bad","trend":"insufficient_data"},"phosphate":{"mean":10.7,"min":10.7,"max":10.7,"latest":10.7,"n_samples":1,"unit":"mg/l","label":"Orthophosphate, reactive as P","status":"Bad","trend":"insufficient_data"}},"statuses":{"ammonia":"Bad","bod":"Bad","phosphate":"Bad"},"sample_count":3,"total_samples":3,"earliest_sample":"2005-09-13","latest_sample":"2005-09-13","overall_status":"Bad","worst_determinand":"ammonia"},{"id":"MD-27045909","label":"UWWTD INTAKE SELF MONITORING FROM WEM (ASTON ROAD) STW, SHROPSHIRE","lat":52.85308,"lon":-2.7187,"type":"SEWAGE - CRUDE TO FURTHER TREATMENT - WATER COMPANY","determinands":{"bod":{"mean":47.0,"min":47.0,"max":47.0,"latest":47.0,"n_samples":1,"unit":"mg/l","label":"BOD 5 Day ATU","status":"Bad","trend":"improving"}},"statuses":{"bod":"Bad"},"sample_count":1,"total_samples":19,"earliest_sample":"2006-01-16","latest_sample":"2026-02-22","overall_status":"Bad","worst_determinand":"bod"},{"id":"MD-14863620","label":"FINAL EFFLUENT FROM UPPER SAPEY STW, UPPER SAPEY, WORCESTERSHIRE","lat":52.26645,"lon":-2.46268,"type":"SEWAGE DISCHARGES - FINAL/TREATED EFFLUENT - WATER COMPANY","determinands":{"ammonia":{"mean":6.72,"min":6.72,"max":6.72,"latest":6.72,"n_samples":1,"unit":"mg/l","label":"Ammoniacal Nitrogen as N","status":"Bad","trend":"insufficient_data"},"bod":{"mean":11.7,"min":11.7,"max":11.7,"latest":11.7,"n_samples":1,"unit":"mg/l","label":"BOD 5 Day ATU","status":"Bad","trend":"insufficient_data"},"ph":{"mean":7.3,"min":7.3,"max":7.3,"latest":7.3,"n_samples":1,"unit":"pH","label":"pH","status":"High","trend":"insufficient_data"},"phosphate":{"mean":9.34,"min":9.34,"max":9.34,"latest":9.34,"n_samples":1,"unit":"mg/l","label":"Orthophosphate, reactive as P","status":"Bad","trend":"insufficient_data"},"ss":{"mean":11.0,"min":11.0,"max":11.0,"latest":11.0,"n_samples":1,"unit":"mg/l","label":"Suspended Solids at 105C"},"temperature":{"mean":18.8,"min":18.8,"max":18.8,"latest":18.8,"n_samples":1,"unit":"\u00b0C","label":"Temperature"},"total_oxidised_n":{"mean":21.8,"min":21.8,"max":21.8,"latest":21.8,"n_samples":1,"unit":"mg/l","label":"Nitrogen, Total Oxidised as N"}},"statuses":{"ammonia":"Bad","bod":"Bad","ph":"High","phosphate":"Bad"},"sample_count":7,"total_samples":7,"earliest_sample":"2003-05-16","latest_sample":"2011-07-27","overall_status":"Bad","worst_determinand":"ammonia"},{"id":"MD-27180300","label":"TREATED SEWAGE EFFLUENT FROM PRESTON BROCKHURST STW, PRESTON BROCKHURST, SHROPSHIRE","lat":52.8196,"lon":-2.67883,"type":"SEWAGE DISCHARGES - FINAL/TREATED EFFLUENT - WATER COMPANY","determinands":{"ammonia":{"mean":2.01,"min":2.01,"max":2.01,"latest":2.01,"n_samples":1,"unit":"mg/l","label":"Ammoniacal Nitrogen as N","status":"Poor","trend":"insufficient_data"},"bod":{"mean":11.2,"min":11.2,"max":11.2,"latest":11.2,"n_samples":1,"unit":"mg/l","label":"BOD 5 Day ATU","status":"Bad","trend":"insufficient_data"},"ph":{"mean":7.3,"min":7.3,"max":7.3,"latest":7.3,"n_samples":1,"unit":"pH","label":"pH","status":"High","trend":"insufficient_data"},"phosphate":{"mean":14.2,"min":14.2,"max":14.2,"latest":14.2,"n_samples":1,"unit":"mg/l","label":"Orthophosphate, reactive as P","status":"Bad","trend":"insufficient_data"},"ss":{"mean":16.0,"min":16.0,"max":16.0,"latest":16.0,"n_samples":1,"unit":"mg/l","label":"Suspended Solids at 105C"},"temperature":{"mean":5.7,"min":5.7,"max":5.7,"latest":5.7,"n_samples":1,"unit":"\u00b0C","label":"Temperature"},"total_oxidised_n":{"mean":40.9,"min":40.9,"max":40.9,"latest":40.9,"n_samples":1,"unit":"mg/l","label":"Nitrogen, Total Oxidised as N"}},"statuses":{"ammonia":"Poor","bod":"Bad","ph":"High","phosphate":"Bad"},"sample_count":7,"total_samples":7,"earliest_sample":"2000-02-02","latest_sample":"2000-02-02","overall_status":"Bad","worst_determinand":"bod"},{"id":"MD-30440050","label":"TSE FROM MONTFORD BRIDGE STW, THE CRESCENT, SHREWSBURY","lat":52.73211,"lon":-2.83696,"type":"SEWAGE DISCHARGES - FINAL/TREATED EFFLUENT - WATER COMPANY","determinands":{"ammonia":{"mean":2.58,"min":2.58,"max":2.58,"latest":2.58,"n_samples":1,"unit":"mg/l","label":"Ammoniacal Nitrogen as N","status":"Bad","trend":"insufficient_data"},"bod":{"mean":13.1,"min":13.1,"max":13.1,"latest":13.1,"n_samples":1,"unit":"mg/l","label":"BOD 5 Day ATU","status":"Bad","trend":"insufficient_data"},"ph":{"mean":7.5,"min":7.5,"max":7.5,"latest":7.5,"n_samples":1,"unit":"pH","label":"pH","status":"High","trend":"insufficient_data"},"phosphate":{"mean":15.1,"min":15.1,"max":15.1,"latest":15.1,"n_samples":1,"unit":"mg/l","label":"Orthophosphate, reactive as P","status":"Bad","trend":"insufficient_data"},"ss":{"mean":18.0,"min":18.0,"max":18.0,"latest":18.0,"n_samples":1,"unit":"mg/l","label":"Suspended Solids at 105C"},"temperature":{"mean":12.2,"min":9.8,"max":14.6,"latest":14.6,"n_samples":2,"unit":"\u00b0C","label":"Temperature"},"total_oxidised_n":{"mean":17.9,"min":17.9,"max":17.9,"latest":17.9,"n_samples":1,"unit":"mg/l","label":"Nitrogen, Total Oxidised as N"}},"statuses":{"ammonia":"Bad","bod":"Bad","ph":"High","phosphate":"Bad"},"sample_count":8,"total_samples":8,"earliest_sample":"2000-02-02","latest_sample":"2008-10-10","overall_status":"Bad","worst_determinand":"ammonia"},{"id":"MD-15293980","label":"PENNYHILL LANDFILL HILLSIDE SURFACE WATER 3","lat":52.24846,"lon":-2.40671,"type":"WASTE SITE - SURFACE WATER MONITORING POINT - LANDFILL","determinands":{"ammonia":{"mean":0.5,"min":0.5,"max":0.5,"latest":0.5,"n_samples":1,"unit":"mg/l","label":"Ammoniacal Nitrogen as N","status":"Good","trend":"insufficient_data"},"nitrate":{"mean":0.996,"min":0.996,"max":0.996,"latest":0.996,"n_samples":1,"unit":"mg/l","label":"Nitrate as N"},"ph":{"mean":9.0,"min":9.0,"max":9.0,"latest":9.0,"n_samples":1,"unit":"pH","label":"pH","status":"Good","trend":"insufficient_data"},"ss_alt":{"mean":879.0,"min":879.0,"max":879.0,"latest":879.0,"n_samples":1,"unit":"mg/l","label":"Suspended Solids (alt)"},"temperature":{"mean":16.0,"min":16.0,"max":16.0,"latest":16.0,"n_samples":1,"unit":"\u00b0C","label":"Temperature"},"total_oxidised_n":{"mean":1.0,"min":1.0,"max":1.0,"latest":1.0,"n_samples":1,"unit":"mg/l","label":"Nitrogen, Total Oxidised as N"}},"statuses":{"ammonia":"Good","ph":"Good"},"sample_count":6,"total_samples":6,"earliest_sample":"2002-08-02","latest_sample":"2002-08-02","overall_status":"Good","worst_determinand":"ammonia"},{"id":"MD-02854230","label":"SEPTIC TANK EFFLUENT VIA A REED BED FROM EVESBATCH FARM, EVESBATCH","lat":52.13534,"lon":-2.4593,"type":"SEWAGE DISCHARGES - FINAL/TREATED EFFLUENT - NOT WATER COMPANY","determinands":{"ammonia":{"mean":4.41,"min":4.41,"max":4.41,"latest":4.41,"n_samples":1,"unit":"mg/l","label":"Ammoniacal Nitrogen as N","status":"Bad","trend":"insufficient_data"},"bod":{"mean":3.17,"min":3.17,"max":3.17,"latest":3.17,"n_samples":1,"unit":"mg/l","label":"BOD 5 Day ATU","status":"High","trend":"insufficient_data"},"ph":{"mean":7.1,"min":7.1,"max":7.1,"latest":7.1,"n_samples":1,"unit":"pH","label":"pH","status":"High","trend":"insufficient_data"},"phosphate":{"mean":1.6,"min":1.6,"max":1.6,"latest":1.6,"n_samples":1,"unit":"mg/l","label":"Orthophosphate, reactive as P","status":"Bad","trend":"insufficient_data"},"ss":{"mean":25.0,"min":25.0,"max":25.0,"latest":25.0,"n_samples":1,"unit":"mg/l","label":"Suspended Solids at 105C"},"total_oxidised_n":{"mean":49.8,"min":49.8,"max":49.8,"latest":49.8,"n_samples":1,"unit":"mg/l","label":"Nitrogen, Total Oxidised as N"}},"statuses":{"ammonia":"Bad","bod":"High","ph":"High","phosphate":"Bad"},"sample_count":6,"total_samples":6,"earliest_sample":"2000-04-18","latest_sample":"2000-04-18","overall_status":"Bad","worst_determinand":"ammonia"},{"id":"MD-23124745","label":"STORM SEWAGE (VIA REED BED) FROM ABBERLEY (COMMON ROAD) STW, ABBERLEY, NR STOURPORT, WORCESTERSHIRE","lat":52.30987,"lon":-2.37508,"type":"SEWAGE DISCHARGES - SEWER STORM OVERFLOW - WATER COMPANY","determinands":{"ammonia":{"mean":0.5,"min":0.5,"max":0.5,"latest":0.5,"n_samples":1,"unit":"mg/l","label":"Ammoniacal Nitrogen as N","status":"Good","trend":"insufficient_data"},"bod":{"mean":1.39,"min":1.39,"max":1.39,"latest":1.39,"n_samples":1,"unit":"mg/l","label":"BOD 5 Day ATU","status":"High","trend":"insufficient_data"},"ph":{"mean":7.1,"min":7.1,"max":7.1,"latest":7.1,"n_samples":1,"unit":"pH","label":"pH","status":"High","trend":"insufficient_data"},"phosphate":{"mean":2.09,"min":2.09,"max":2.09,"latest":2.09,"n_samples":1,"unit":"mg/l","label":"Orthophosphate, reactive as P","status":"Bad","trend":"insufficient_data"},"ss":{"mean":3.0,"min":3.0,"max":3.0,"latest":3.0,"n_samples":1,"unit":"mg/l","label":"Suspended Solids at 105C"},"temperature":{"mean":14.1,"min":14.1,"max":14.1,"latest":14.1,"n_samples":1,"unit":"\u00b0C","label":"Temperature"},"total_oxidised_n":{"mean":6.67,"min":6.67,"max":6.67,"latest":6.67,"n_samples":1,"unit":"mg/l","label":"Nitrogen, Total Oxidised as N"}},"statuses":{"ammonia":"Good","bod":"High","ph":"High","phosphate":"Bad"},"sample_count":7,"total_samples":7,"earliest_sample":"2007-06-26","latest_sample":"2007-06-26","overall_status":"Bad","worst_determinand":"phosphate"}]