[{"id":"TH-80465A01","label":"GW 1- OPERATOR REF FOR SPT ON LICENSED WASTE SITE AT AMEY LECA PH.1","lat":51.69474,"lon":0.26619,"type":"GROUNDWATER - LANDFILL SITE","determinands":{"bod":{"mean":4.0,"min":4.0,"max":4.0,"latest":4.0,"n_samples":1,"unit":"mg/l","label":"BOD 5 Day ATU","status":"High","trend":"insufficient_data"},"ph":{"mean":7.14,"min":7.14,"max":7.14,"latest":7.14,"n_samples":1,"unit":"pH","label":"pH","status":"High","trend":"insufficient_data"},"ss_alt":{"mean":2560.0,"min":2560.0,"max":2560.0,"latest":2560.0,"n_samples":1,"unit":"mg/l","label":"Suspended Solids (alt)"}},"statuses":{"bod":"High","ph":"High"},"sample_count":3,"total_samples":3,"earliest_sample":"2004-06-29","latest_sample":"2004-06-29","overall_status":"High","worst_determinand":"bod"},{"id":"TH-80443A05","label":"BH E- OPERATOR REF FOR SPT ON LICENSED WASTE SITE AT UGLEY QUARRY","lat":51.92721,"lon":0.20191,"type":"GROUNDWATER - LANDFILL SITE","determinands":{"bod":{"mean":1.1,"min":1.1,"max":1.1,"latest":1.1,"n_samples":1,"unit":"mg/l","label":"BOD 5 Day ATU","status":"High","trend":"insufficient_data"},"ph":{"mean":7.5,"min":7.5,"max":7.5,"latest":7.5,"n_samples":1,"unit":"pH","label":"pH","status":"High","trend":"insufficient_data"},"ss_alt":{"mean":489.0,"min":489.0,"max":489.0,"latest":489.0,"n_samples":1,"unit":"mg/l","label":"Suspended Solids (alt)"}},"statuses":{"bod":"High","ph":"High"},"sample_count":3,"total_samples":3,"earliest_sample":"2000-12-12","latest_sample":"2000-12-12","overall_status":"High","worst_determinand":"bod"},{"id":"AN-70261043","label":"PITSEA LANDFILL SITE RWLMP 203","lat":51.5421,"lon":0.52316,"type":"WASTE SITE - LEACHATE BOREHOLE","determinands":{"ammonia":{"mean":707.75,"min":566.0,"max":780.0,"latest":758.0,"n_samples":4,"unit":"mg/l","label":"Ammoniacal Nitrogen as N","status":"Bad","trend":"insufficient_data"},"ph":{"mean":7.4,"min":7.2,"max":7.6,"latest":7.6,"n_samples":4,"unit":"pH","label":"pH","status":"High","trend":"insufficient_data"},"ss_alt":{"mean":15022.5,"min":13700.0,"max":15830.0,"latest":15830.0,"n_samples":4,"unit":"mg/l","label":"Suspended Solids (alt)"},"total_oxidised_n":{"mean":0.25,"min":0.1,"max":0.7,"latest":0.1,"n_samples":4,"unit":"mg/l","label":"Nitrogen, Total Oxidised as N"}},"statuses":{"ammonia":"Bad","ph":"High"},"sample_count":16,"total_samples":16,"earliest_sample":"2006-10-16","latest_sample":"2008-03-18","overall_status":"Bad","worst_determinand":"ammonia"},{"id":"TH-80467A04","label":"BH 4- OPERATOR REF FOR SPT ON LICENSED WASTE SITE AT CRUMPS FARM","lat":51.86693,"lon":0.29684,"type":"WASTE SITE - GAS & GROUNDWATER","determinands":{"bod":{"mean":4.0,"min":4.0,"max":4.0,"latest":4.0,"n_samples":1,"unit":"mg/l","label":"BOD 5 Day ATU","status":"High","trend":"insufficient_data"},"ph":{"mean":7.52,"min":7.52,"max":7.52,"latest":7.52,"n_samples":1,"unit":"pH","label":"pH","status":"High","trend":"insufficient_data"},"ss_alt":{"mean":615.0,"min":615.0,"max":615.0,"latest":615.0,"n_samples":1,"unit":"mg/l","label":"Suspended Solids (alt)"}},"statuses":{"bod":"High","ph":"High"},"sample_count":3,"total_samples":3,"earliest_sample":"2005-07-12","latest_sample":"2005-07-12","overall_status":"High","worst_determinand":"bod"},{"id":"SO-5GWQ0384","label":"PT.A AT STYLE PLACE FARM, ASHDOWN SANDS, HADLOW, NR TUNBRIDGE WELLS","lat":51.21601,"lon":0.3572,"type":"GROUNDWATER - WELLS & ADITS","determinands":{"ammonia":{"mean":0.5095,"min":0.504,"max":0.515,"latest":0.504,"n_samples":2,"unit":"mg/l","label":"Ammoniacal Nitrogen as N","status":"Good","trend":"insufficient_data"},"do_percent":{"mean":36.0,"min":36.0,"max":36.0,"latest":36.0,"n_samples":1,"unit":"%","label":"Dissolved Oxygen (% sat)","status":"Bad","trend":"insufficient_data"},"nitrate":{"mean":0.194,"min":0.192,"max":0.196,"latest":0.196,"n_samples":2,"unit":"mg/l","label":"Nitrate as N"},"ph":{"mean":8.625,"min":8.6,"max":8.65,"latest":8.65,"n_samples":2,"unit":"pH","label":"pH","status":"Good","trend":"insufficient_data"},"phosphate":{"mean":0.126,"min":0.122,"max":0.13,"latest":0.13,"n_samples":2,"unit":"mg/l","label":"Orthophosphate, reactive as P","status":"Moderate","trend":"insufficient_data"},"ss_alt":{"mean":1652.0,"min":1647.0,"max":1657.0,"latest":1657.0,"n_samples":2,"unit":"mg/l","label":"Suspended Solids (alt)"},"temperature":{"mean":13.7,"min":13.3,"max":14.1,"latest":13.3,"n_samples":2,"unit":"\u00b0C","label":"Temperature"},"total_oxidised_n":{"mean":0.2,"min":0.2,"max":0.2,"latest":0.2,"n_samples":2,"unit":"mg/l","label":"Nitrogen, Total Oxidised as N"}},"statuses":{"ammonia":"Good","do_percent":"Bad","ph":"Good","phosphate":"Moderate"},"sample_count":15,"total_samples":15,"earliest_sample":"2004-03-18","latest_sample":"2004-10-04","overall_status":"Bad","worst_determinand":"do_percent"},{"id":"TH-PTSE0165","label":"GRAVESEND STW STORM","lat":51.44345,"lon":0.40061,"type":"SEWAGE DISCHARGES - UNSPECIFIED - WATER COMPANY","determinands":{"do_percent":{"mean":82.4,"min":82.4,"max":82.4,"latest":82.4,"n_samples":1,"unit":"%","label":"Dissolved Oxygen (% sat)","status":"High","trend":"insufficient_data"},"ph":{"mean":7.64,"min":7.64,"max":7.64,"latest":7.64,"n_samples":1,"unit":"pH","label":"pH","status":"High","trend":"insufficient_data"},"temperature":{"mean":7.1,"min":7.1,"max":7.1,"latest":7.1,"n_samples":1,"unit":"\u00b0C","label":"Temperature"}},"statuses":{"do_percent":"High","ph":"High"},"sample_count":3,"total_samples":3,"earliest_sample":"2012-01-19","latest_sample":"2012-01-19","overall_status":"High","worst_determinand":"do_percent"},{"id":"AN-BL0355","label":"KELVEDON OIL DEPOT 14 HIGH STREET KELVEDON","lat":51.83382,"lon":0.69988,"type":"TRADE DISCHARGES - PROCESS EFFLUENT - NOT WATER COMPANY","determinands":{"ss":{"mean":14.2222,"min":3.0,"max":65.0,"latest":4.5,"n_samples":9,"unit":"mg/l","label":"Suspended Solids at 105C"}},"statuses":{},"sample_count":9,"total_samples":9,"earliest_sample":"2003-01-22","latest_sample":"2005-12-06","overall_status":"Unknown","worst_determinand":null},{"id":"TH-80467A11","label":"L4- OPERATOR REF FOR SPT ON LICENSED WASTE SITE AT CRUMPS FARM","lat":51.86619,"lon":0.29389,"type":"WASTE SITE - GAS & LEACHATE","determinands":{"bod":{"mean":40.0,"min":40.0,"max":40.0,"latest":40.0,"n_samples":1,"unit":"mg/l","label":"BOD 5 Day ATU","status":"Bad","trend":"insufficient_data"},"ph":{"mean":7.13,"min":7.13,"max":7.13,"latest":7.13,"n_samples":1,"unit":"pH","label":"pH","status":"High","trend":"insufficient_data"},"ss_alt":{"mean":6120.0,"min":6120.0,"max":6120.0,"latest":6120.0,"n_samples":1,"unit":"mg/l","label":"Suspended Solids (alt)"}},"statuses":{"bod":"Bad","ph":"High"},"sample_count":3,"total_samples":3,"earliest_sample":"2003-10-08","latest_sample":"2003-10-08","overall_status":"Bad","worst_determinand":"bod"},{"id":"TH-80444A19","label":"BH 95- OPERATOR REF FOR SPT ON LICENSED WASTE SITE AT ELSENHAM QUARRY","lat":51.92104,"lon":0.25167,"type":"WASTE SITE - GAS & GROUNDWATER","determinands":{"bod":{"mean":4.0,"min":4.0,"max":4.0,"latest":4.0,"n_samples":2,"unit":"mg/l","label":"BOD 5 Day ATU","status":"High","trend":"insufficient_data"},"ph":{"mean":7.575,"min":7.48,"max":7.67,"latest":7.48,"n_samples":2,"unit":"pH","label":"pH","status":"High","trend":"insufficient_data"},"ss_alt":{"mean":645.0,"min":620.0,"max":670.0,"latest":620.0,"n_samples":2,"unit":"mg/l","label":"Suspended Solids (alt)"}},"statuses":{"bod":"High","ph":"High"},"sample_count":6,"total_samples":6,"earliest_sample":"2003-04-07","latest_sample":"2004-10-28","overall_status":"High","worst_determinand":"bod"},{"id":"TH-80443A04","label":"BH D- OPERATOR REF FOR SPT ON LICENSED WASTE SITE AT UGLEY QUARRY","lat":51.92721,"lon":0.20191,"type":"GROUNDWATER - LANDFILL SITE","determinands":{"bod":{"mean":1.1,"min":1.1,"max":1.1,"latest":1.1,"n_samples":1,"unit":"mg/l","label":"BOD 5 Day ATU","status":"High","trend":"insufficient_data"},"ph":{"mean":7.5,"min":7.5,"max":7.5,"latest":7.5,"n_samples":1,"unit":"pH","label":"pH","status":"High","trend":"insufficient_data"},"ss_alt":{"mean":560.0,"min":560.0,"max":560.0,"latest":560.0,"n_samples":1,"unit":"mg/l","label":"Suspended Solids (alt)"}},"statuses":{"bod":"High","ph":"High"},"sample_count":3,"total_samples":3,"earliest_sample":"2000-12-12","latest_sample":"2000-12-12","overall_status":"High","worst_determinand":"bod"},{"id":"TH-80444A25","label":"36192- OPERATOR REF FOR SPT ON LICENSED WASTE SITE AT ELSENHAM QUARRY","lat":51.92195,"lon":0.25529,"type":"WASTE SITE - GAS & GROUNDWATER","determinands":{"bod":{"mean":4.0,"min":4.0,"max":4.0,"latest":4.0,"n_samples":1,"unit":"mg/l","label":"BOD 5 Day ATU","status":"High","trend":"insufficient_data"},"ph":{"mean":7.2,"min":7.2,"max":7.2,"latest":7.2,"n_samples":1,"unit":"pH","label":"pH","status":"High","trend":"insufficient_data"},"ss_alt":{"mean":670.0,"min":670.0,"max":670.0,"latest":670.0,"n_samples":1,"unit":"mg/l","label":"Suspended Solids (alt)"}},"statuses":{"bod":"High","ph":"High"},"sample_count":3,"total_samples":3,"earliest_sample":"2004-10-28","latest_sample":"2004-10-28","overall_status":"High","worst_determinand":"bod"},{"id":"TH-80444A31","label":"36373- OPERATOR REF FOR SPT ON LICENSED WASTE SITE AT ELSENHAM QUARRY","lat":51.91955,"lon":0.26061,"type":"WASTE SITE - GAS & GROUNDWATER","determinands":{"bod":{"mean":4.0,"min":4.0,"max":4.0,"latest":4.0,"n_samples":1,"unit":"mg/l","label":"BOD 5 Day ATU","status":"High","trend":"insufficient_data"},"ph":{"mean":7.32,"min":7.32,"max":7.32,"latest":7.32,"n_samples":1,"unit":"pH","label":"pH","status":"High","trend":"insufficient_data"},"ss_alt":{"mean":805.0,"min":805.0,"max":805.0,"latest":805.0,"n_samples":1,"unit":"mg/l","label":"Suspended Solids (alt)"}},"statuses":{"bod":"High","ph":"High"},"sample_count":3,"total_samples":3,"earliest_sample":"2004-10-28","latest_sample":"2004-10-28","overall_status":"High","worst_determinand":"bod"},{"id":"TH-80124A83","label":"BH 83- OPERATOR REF FOR SPT ON LICENSED WASTE SITE AT MARDYKE FARM","lat":51.53591,"lon":0.17604,"type":"WASTE SITE - GAS & GROUNDWATER","determinands":{"bod":{"mean":8.4,"min":3.0,"max":17.0,"latest":5.2,"n_samples":3,"unit":"mg/l","label":"BOD 5 Day ATU","status":"Poor","trend":"insufficient_data"},"ph":{"mean":6.9367,"min":6.86,"max":7.0,"latest":7.0,"n_samples":3,"unit":"pH","label":"pH","status":"High","trend":"insufficient_data"},"ss_alt":{"mean":2933.3333,"min":2540.0,"max":3180.0,"latest":3080.0,"n_samples":3,"unit":"mg/l","label":"Suspended Solids (alt)"}},"statuses":{"bod":"Poor","ph":"High"},"sample_count":9,"total_samples":9,"earliest_sample":"2001-09-19","latest_sample":"2006-09-01","overall_status":"Poor","worst_determinand":"bod"},{"id":"TH-80124A54","label":"BH 54- OPERATOR REF FOR SPT ON LICENSED WASTE SITE AT MARDYKE FARM","lat":51.53591,"lon":0.17604,"type":"WASTE SITE - GAS & GROUNDWATER","determinands":{"bod":{"mean":58.0,"min":58.0,"max":58.0,"latest":58.0,"n_samples":1,"unit":"mg/l","label":"BOD 5 Day ATU","status":"Bad","trend":"insufficient_data"},"ph":{"mean":7.16,"min":7.16,"max":7.16,"latest":7.16,"n_samples":1,"unit":"pH","label":"pH","status":"High","trend":"insufficient_data"},"ss_alt":{"mean":7040.0,"min":7040.0,"max":7040.0,"latest":7040.0,"n_samples":1,"unit":"mg/l","label":"Suspended Solids (alt)"}},"statuses":{"bod":"Bad","ph":"High"},"sample_count":3,"total_samples":3,"earliest_sample":"2001-09-19","latest_sample":"2001-09-19","overall_status":"Bad","worst_determinand":"bod"},{"id":"AN-70264070","label":"MUCKING LANDFILL SITE LEACHATE MSUMP6B","lat":51.49128,"lon":0.42935,"type":"WASTE SITE - LEACHATE SUMP","determinands":{"ammonia":{"mean":763.3333,"min":660.0,"max":870.0,"latest":660.0,"n_samples":9,"unit":"mg/l","label":"Ammoniacal Nitrogen as N","status":"Bad","trend":"insufficient_data"},"nitrate":{"mean":4.5,"min":4.5,"max":4.5,"latest":4.5,"n_samples":1,"unit":"mg/l","label":"Nitrate as N"},"ph":{"mean":7.6325,"min":7.48,"max":7.92,"latest":7.6,"n_samples":4,"unit":"pH","label":"pH","status":"High","trend":"insufficient_data"},"ss_alt":{"mean":15949.25,"min":10338.0,"max":19361.0,"latest":15669.0,"n_samples":4,"unit":"mg/l","label":"Suspended Solids (alt)"},"temperature":{"mean":34.0125,"min":30.16,"max":37.26,"latest":30.16,"n_samples":4,"unit":"\u00b0C","label":"Temperature"},"total_oxidised_n":{"mean":4.5,"min":4.5,"max":4.5,"latest":4.5,"n_samples":1,"unit":"mg/l","label":"Nitrogen, Total Oxidised as N"}},"statuses":{"ammonia":"Bad","ph":"High"},"sample_count":23,"total_samples":23,"earliest_sample":"2005-07-20","latest_sample":"2008-10-27","overall_status":"Bad","worst_determinand":"ammonia"},{"id":"TH-80465A02","label":"GW 2- OPERATOR REF FOR SPT ON LICENSED WASTE SITE AT AMEY LECA PH.1","lat":51.69387,"lon":0.26144,"type":"GROUNDWATER - LANDFILL SITE","determinands":{"bod":{"mean":9.0,"min":6.0,"max":12.0,"latest":12.0,"n_samples":2,"unit":"mg/l","label":"BOD 5 Day ATU","status":"Poor","trend":"insufficient_data"},"ph":{"mean":6.59,"min":6.58,"max":6.6,"latest":6.6,"n_samples":2,"unit":"pH","label":"pH","status":"High","trend":"insufficient_data"},"ss_alt":{"mean":1665.0,"min":1590.0,"max":1740.0,"latest":1740.0,"n_samples":2,"unit":"mg/l","label":"Suspended Solids (alt)"}},"statuses":{"bod":"Poor","ph":"High"},"sample_count":6,"total_samples":6,"earliest_sample":"2002-08-08","latest_sample":"2004-06-29","overall_status":"Poor","worst_determinand":"bod"},{"id":"TH-80127A05","label":"BR24- OPERATOR REF FOR SPT ON LICENSED WASTE SITE AT REDLAND FAIRLOP QUARRY","lat":51.58512,"lon":0.11818,"type":"WASTE SITE - GAS & GROUNDWATER","determinands":{"bod":{"mean":18.0,"min":18.0,"max":18.0,"latest":18.0,"n_samples":1,"unit":"mg/l","label":"BOD 5 Day ATU","status":"Bad","trend":"insufficient_data"},"ph":{"mean":6.56,"min":6.56,"max":6.56,"latest":6.56,"n_samples":1,"unit":"pH","label":"pH","status":"High","trend":"insufficient_data"},"ss_alt":{"mean":1060.0,"min":1060.0,"max":1060.0,"latest":1060.0,"n_samples":1,"unit":"mg/l","label":"Suspended Solids (alt)"}},"statuses":{"bod":"Bad","ph":"High"},"sample_count":3,"total_samples":3,"earliest_sample":"2000-10-24","latest_sample":"2000-10-24","overall_status":"Bad","worst_determinand":"bod"},{"id":"SO-CSM00247","label":"SPELDHURST & LANGTON GREEN STW UWWTR CRUDE INFLUENT UWWTD CUSTOMER SELF MONITORING DATA","lat":51.15566,"lon":0.22318,"type":"SEWAGE - CRUDE TO FURTHER TREATMENT - WATER COMPANY","determinands":{"bod":{"mean":282.3125,"min":103.0,"max":539.0,"latest":267.0,"n_samples":16,"unit":"mg/l","label":"BOD 5 Day ATU","status":"Bad","trend":"improving"}},"statuses":{"bod":"Bad"},"sample_count":16,"total_samples":75,"earliest_sample":"2006-02-20","latest_sample":"2025-11-19","overall_status":"Bad","worst_determinand":"bod"},{"id":"AN-70261054","label":"PITSEA LANDFILL SITE RWLMP 216","lat":51.53367,"lon":0.5231,"type":"WASTE SITE - LEACHATE BOREHOLE","determinands":{"ammonia":{"mean":798.75,"min":372.0,"max":1010.0,"latest":892.0,"n_samples":4,"unit":"mg/l","label":"Ammoniacal Nitrogen as N","status":"Bad","trend":"insufficient_data"},"ph":{"mean":7.525,"min":7.3,"max":7.8,"latest":7.6,"n_samples":4,"unit":"pH","label":"pH","status":"High","trend":"insufficient_data"},"ss_alt":{"mean":17830.0,"min":16490.0,"max":19160.0,"latest":17660.0,"n_samples":4,"unit":"mg/l","label":"Suspended Solids (alt)"},"total_oxidised_n":{"mean":0.125,"min":0.1,"max":0.2,"latest":0.1,"n_samples":4,"unit":"mg/l","label":"Nitrogen, Total Oxidised as N"}},"statuses":{"ammonia":"Bad","ph":"High"},"sample_count":16,"total_samples":16,"earliest_sample":"2006-10-10","latest_sample":"2008-03-14","overall_status":"Bad","worst_determinand":"ammonia"},{"id":"AN-NE06","label":"R.COLNE OFF SOUTH GEEDON CREEK","lat":51.81054,"lon":0.99274,"type":"SALINE WATER - ESTUARINE SITES - NON BATHING/SHELLFISH","determinands":{"do_percent":{"mean":91.5176,"min":0.0,"max":102.1,"latest":0.0,"n_samples":17,"unit":"%","label":"Dissolved Oxygen (% sat)","status":"High","trend":"insufficient_data"},"temperature":{"mean":15.035,"min":5.96,"max":23.79,"latest":20.0,"n_samples":16,"unit":"\u00b0C","label":"Temperature"}},"statuses":{"do_percent":"High"},"sample_count":33,"total_samples":33,"earliest_sample":"2001-01-30","latest_sample":"2002-07-19","overall_status":"High","worst_determinand":"do_percent"},{"id":"AN-70261068","label":"PITSEA LANDFILL SITE RWLMP 232","lat":51.53778,"lon":0.53165,"type":"WASTE SITE - LEACHATE BOREHOLE","determinands":{"ammonia":{"mean":1448.75,"min":178.0,"max":2090.0,"latest":178.0,"n_samples":4,"unit":"mg/l","label":"Ammoniacal Nitrogen as N","status":"Bad","trend":"insufficient_data"},"ph":{"mean":7.725,"min":7.7,"max":7.8,"latest":7.7,"n_samples":4,"unit":"pH","label":"pH","status":"High","trend":"insufficient_data"},"ss_alt":{"mean":27372.5,"min":25940.0,"max":29070.0,"latest":28120.0,"n_samples":4,"unit":"mg/l","label":"Suspended Solids (alt)"},"total_oxidised_n":{"mean":0.15,"min":0.1,"max":0.3,"latest":0.3,"n_samples":4,"unit":"mg/l","label":"Nitrogen, Total Oxidised as N"}},"statuses":{"ammonia":"Bad","ph":"High"},"sample_count":16,"total_samples":16,"earliest_sample":"2006-11-08","latest_sample":"2008-04-03","overall_status":"Bad","worst_determinand":"ammonia"},{"id":"SO-CSM00131","label":"CRANBROOK WTW UWWTR CRUDE INFLUENT (18400) UWWTD CUSTOMER SELF MONITORING DATA","lat":51.09695,"lon":0.54431,"type":"SEWAGE - CRUDE TO FURTHER TREATMENT - WATER COMPANY","determinands":{"bod":{"mean":204.5786,"min":90.1,"max":478.0,"latest":424.0,"n_samples":14,"unit":"mg/l","label":"BOD 5 Day ATU","status":"Bad","trend":"improving"}},"statuses":{"bod":"Bad"},"sample_count":14,"total_samples":68,"earliest_sample":"2006-01-17","latest_sample":"2025-11-06","overall_status":"Bad","worst_determinand":"bod"},{"id":"SO-5GWQ0379","label":"BLACK ACRE FARM, ERIDGE, NR CROWBOROUGH","lat":51.06381,"lon":0.20304,"type":"GROUNDWATER - SPRING","determinands":{"ammonia":{"mean":0.03,"min":0.03,"max":0.03,"latest":0.03,"n_samples":1,"unit":"mg/l","label":"Ammoniacal Nitrogen as N","status":"High","trend":"insufficient_data"},"do_percent":{"mean":50.0,"min":50.0,"max":50.0,"latest":50.0,"n_samples":1,"unit":"%","label":"Dissolved Oxygen (% sat)","status":"Poor","trend":"insufficient_data"},"nitrate":{"mean":3.04,"min":3.04,"max":3.04,"latest":3.04,"n_samples":1,"unit":"mg/l","label":"Nitrate as N"},"ph":{"mean":5.25,"min":5.25,"max":5.25,"latest":5.25,"n_samples":1,"unit":"pH","label":"pH","status":"Poor","trend":"insufficient_data"},"phosphate":{"mean":0.02,"min":0.02,"max":0.02,"latest":0.02,"n_samples":1,"unit":"mg/l","label":"Orthophosphate, reactive as P","status":"High","trend":"insufficient_data"},"ss_alt":{"mean":141.0,"min":141.0,"max":141.0,"latest":141.0,"n_samples":1,"unit":"mg/l","label":"Suspended Solids (alt)"},"temperature":{"mean":10.9,"min":10.9,"max":10.9,"latest":10.9,"n_samples":1,"unit":"\u00b0C","label":"Temperature"},"total_oxidised_n":{"mean":3.05,"min":3.05,"max":3.05,"latest":3.05,"n_samples":1,"unit":"mg/l","label":"Nitrogen, Total Oxidised as N"}},"statuses":{"ammonia":"High","do_percent":"Poor","ph":"Poor","phosphate":"High"},"sample_count":8,"total_samples":8,"earliest_sample":"2004-03-18","latest_sample":"2004-03-18","overall_status":"Poor","worst_determinand":"do_percent"},{"id":"AN-70261069","label":"PITSEA LANDFILL SITE RWLMP 233","lat":51.53349,"lon":0.51474,"type":"WASTE SITE - LEACHATE BOREHOLE","determinands":{"ammonia":{"mean":1511.3333,"min":1118.0,"max":1761.0,"latest":1761.0,"n_samples":3,"unit":"mg/l","label":"Ammoniacal Nitrogen as N","status":"Bad","trend":"insufficient_data"},"ph":{"mean":7.0,"min":6.8,"max":7.3,"latest":6.8,"n_samples":3,"unit":"pH","label":"pH","status":"High","trend":"insufficient_data"},"ss_alt":{"mean":24440.0,"min":19660.0,"max":28450.0,"latest":28450.0,"n_samples":3,"unit":"mg/l","label":"Suspended Solids (alt)"},"total_oxidised_n":{"mean":0.1,"min":0.1,"max":0.1,"latest":0.1,"n_samples":3,"unit":"mg/l","label":"Nitrogen, Total Oxidised as N"}},"statuses":{"ammonia":"Bad","ph":"High"},"sample_count":12,"total_samples":12,"earliest_sample":"2007-03-12","latest_sample":"2008-03-27","overall_status":"Bad","worst_determinand":"ammonia"},{"id":"TH-80467A06","label":"BH 6- OPERATOR REF FOR SPT ON LICENSED WASTE SITE AT CRUMPS FARM","lat":51.86675,"lon":0.29243,"type":"WASTE SITE - GAS & GROUNDWATER","determinands":{"bod":{"mean":46.0,"min":46.0,"max":46.0,"latest":46.0,"n_samples":1,"unit":"mg/l","label":"BOD 5 Day ATU","status":"Bad","trend":"insufficient_data"},"ph":{"mean":6.91,"min":6.91,"max":6.91,"latest":6.91,"n_samples":1,"unit":"pH","label":"pH","status":"High","trend":"insufficient_data"},"ss_alt":{"mean":1270.0,"min":1270.0,"max":1270.0,"latest":1270.0,"n_samples":1,"unit":"mg/l","label":"Suspended Solids (alt)"}},"statuses":{"bod":"Bad","ph":"High"},"sample_count":3,"total_samples":3,"earliest_sample":"2004-10-26","latest_sample":"2004-10-26","overall_status":"Bad","worst_determinand":"bod"},{"id":"AN-70261055","label":"PITSEA LANDFILL SITE RWLMP 217","lat":51.53572,"lon":0.51284,"type":"WASTE SITE - LEACHATE BOREHOLE","determinands":{"ammonia":{"mean":1418.0,"min":1076.0,"max":1740.0,"latest":1740.0,"n_samples":4,"unit":"mg/l","label":"Ammoniacal Nitrogen as N","status":"Bad","trend":"insufficient_data"},"ph":{"mean":7.7,"min":7.6,"max":7.8,"latest":7.7,"n_samples":4,"unit":"pH","label":"pH","status":"High","trend":"insufficient_data"},"ss_alt":{"mean":21835.0,"min":20960.0,"max":22940.0,"latest":22940.0,"n_samples":4,"unit":"mg/l","label":"Suspended Solids (alt)"},"total_oxidised_n":{"mean":0.1,"min":0.1,"max":0.1,"latest":0.1,"n_samples":4,"unit":"mg/l","label":"Nitrogen, Total Oxidised as N"}},"statuses":{"ammonia":"Bad","ph":"High"},"sample_count":16,"total_samples":16,"earliest_sample":"2006-11-03","latest_sample":"2008-04-01","overall_status":"Bad","worst_determinand":"ammonia"},{"id":"AN-70261041","label":"PITSEA LANDFILL SITE RWLMP 201","lat":51.54592,"lon":0.51124,"type":"WASTE SITE - LEACHATE BOREHOLE","determinands":{"ammonia":{"mean":540.3333,"min":64.0,"max":822.0,"latest":822.0,"n_samples":3,"unit":"mg/l","label":"Ammoniacal Nitrogen as N","status":"Bad","trend":"insufficient_data"},"ph":{"mean":7.4,"min":7.3,"max":7.5,"latest":7.5,"n_samples":3,"unit":"pH","label":"pH","status":"High","trend":"insufficient_data"},"ss_alt":{"mean":13896.6667,"min":2870.0,"max":19850.0,"latest":19850.0,"n_samples":3,"unit":"mg/l","label":"Suspended Solids (alt)"},"total_oxidised_n":{"mean":27.0667,"min":0.2,"max":80.0,"latest":1.0,"n_samples":3,"unit":"mg/l","label":"Nitrogen, Total Oxidised as N"}},"statuses":{"ammonia":"Bad","ph":"High"},"sample_count":12,"total_samples":12,"earliest_sample":"2007-03-15","latest_sample":"2008-03-13","overall_status":"Bad","worst_determinand":"ammonia"},{"id":"TH-80444A32","label":"36404- OPERATOR REF FOR SPT ON LICENSED WASTE SITE AT ELSENHAM QUARRY","lat":51.9165,"lon":0.26119,"type":"WASTE SITE - GAS & GROUNDWATER","determinands":{"bod":{"mean":4.0,"min":4.0,"max":4.0,"latest":4.0,"n_samples":1,"unit":"mg/l","label":"BOD 5 Day ATU","status":"High","trend":"insufficient_data"},"ph":{"mean":7.24,"min":7.24,"max":7.24,"latest":7.24,"n_samples":1,"unit":"pH","label":"pH","status":"High","trend":"insufficient_data"},"ss_alt":{"mean":742.0,"min":742.0,"max":742.0,"latest":742.0,"n_samples":1,"unit":"mg/l","label":"Suspended Solids (alt)"}},"statuses":{"bod":"High","ph":"High"},"sample_count":3,"total_samples":3,"earliest_sample":"2004-10-28","latest_sample":"2004-10-28","overall_status":"High","worst_determinand":"bod"},{"id":"TH-80465A03","label":"GW 4- OPERATOR REF FOR SPT ON LICENSED WASTE SITE AT AMEY LECA PH.1","lat":51.69507,"lon":0.26204,"type":"GROUNDWATER - LANDFILL SITE","determinands":{"bod":{"mean":4.0,"min":4.0,"max":4.0,"latest":4.0,"n_samples":1,"unit":"mg/l","label":"BOD 5 Day ATU","status":"High","trend":"insufficient_data"},"ph":{"mean":7.12,"min":7.12,"max":7.12,"latest":7.12,"n_samples":1,"unit":"pH","label":"pH","status":"High","trend":"insufficient_data"},"ss_alt":{"mean":1340.0,"min":1340.0,"max":1340.0,"latest":1340.0,"n_samples":1,"unit":"mg/l","label":"Suspended Solids (alt)"}},"statuses":{"bod":"High","ph":"High"},"sample_count":3,"total_samples":3,"earliest_sample":"2002-08-08","latest_sample":"2002-08-08","overall_status":"High","worst_determinand":"bod"},{"id":"AN-MT2190","label":"BECKINGHAM NURSING HOME STP TOLL.MAJOR","lat":51.77793,"lon":0.74062,"type":"SEWAGE DISCHARGES - FINAL/TREATED EFFLUENT - NOT WATER COMPANY","determinands":{"ammonia":{"mean":10.116,"min":2.83,"max":14.7,"latest":8.65,"n_samples":5,"unit":"mg/l","label":"Ammoniacal Nitrogen as N","status":"Bad","trend":"declining"},"bod":{"mean":83.56,"min":9.7,"max":184.0,"latest":71.3,"n_samples":5,"unit":"mg/l","label":"BOD 5 Day ATU","status":"Bad","trend":"declining"},"phosphate":{"mean":13.8667,"min":2.3,"max":20.9,"latest":2.3,"n_samples":3,"unit":"mg/l","label":"Orthophosphate, reactive as P","status":"Bad","trend":"insufficient_data"},"ss":{"mean":54.06,"min":27.2,"max":76.0,"latest":43.9,"n_samples":5,"unit":"mg/l","label":"Suspended Solids at 105C"},"total_oxidised_n":{"mean":1.0,"min":1.0,"max":1.0,"latest":1.0,"n_samples":3,"unit":"mg/l","label":"Nitrogen, Total Oxidised as N"}},"statuses":{"ammonia":"Bad","bod":"Bad","phosphate":"Bad"},"sample_count":21,"total_samples":21,"earliest_sample":"2000-11-21","latest_sample":"2010-11-10","overall_status":"Bad","worst_determinand":"ammonia"},{"id":"TH-80124A55","label":"BH 55- OPERATOR REF FOR SPT ON LICENSED WASTE SITE AT MARDYKE FARM","lat":51.53591,"lon":0.17604,"type":"WASTE SITE - GAS & GROUNDWATER","determinands":{"bod":{"mean":47.1,"min":14.0,"max":80.2,"latest":80.2,"n_samples":2,"unit":"mg/l","label":"BOD 5 Day ATU","status":"Bad","trend":"insufficient_data"},"ph":{"mean":7.23,"min":7.21,"max":7.25,"latest":7.25,"n_samples":2,"unit":"pH","label":"pH","status":"High","trend":"insufficient_data"},"ss_alt":{"mean":4155.0,"min":3550.0,"max":4760.0,"latest":4760.0,"n_samples":2,"unit":"mg/l","label":"Suspended Solids (alt)"}},"statuses":{"bod":"Bad","ph":"High"},"sample_count":6,"total_samples":6,"earliest_sample":"2001-09-19","latest_sample":"2006-09-01","overall_status":"Bad","worst_determinand":"bod"},{"id":"SO-E0007276","label":"TEMP EASTERN QUARRY WWTW","lat":51.43301,"lon":0.29331,"type":"SEWAGE DISCHARGES - FINAL/TREATED EFFLUENT - WATER COMPANY","determinands":{"ammonia":{"mean":10.303,"min":0.109,"max":25.0,"latest":25.0,"n_samples":3,"unit":"mg/l","label":"Ammoniacal Nitrogen as N","status":"Bad","trend":"insufficient_data"},"bod":{"mean":8.4367,"min":3.1,"max":15.0,"latest":7.21,"n_samples":3,"unit":"mg/l","label":"BOD 5 Day ATU","status":"Poor","trend":"insufficient_data"},"ss":{"mean":42.1667,"min":21.0,"max":78.0,"latest":21.0,"n_samples":3,"unit":"mg/l","label":"Suspended Solids at 105C"}},"statuses":{"ammonia":"Bad","bod":"Poor"},"sample_count":9,"total_samples":9,"earliest_sample":"2019-11-22","latest_sample":"2020-03-11","overall_status":"Bad","worst_determinand":"ammonia"},{"id":"TH-80124A45","label":"BH 45- OPERATOR REF FOR SPT ON LICENSED WASTE SITE AT MARDYKE FARM","lat":51.53591,"lon":0.17604,"type":"WASTE SITE - GAS & GROUNDWATER","determinands":{"bod":{"mean":10.0,"min":10.0,"max":10.0,"latest":10.0,"n_samples":2,"unit":"mg/l","label":"BOD 5 Day ATU","status":"Bad","trend":"insufficient_data"},"ph":{"mean":7.065,"min":7.02,"max":7.11,"latest":7.11,"n_samples":2,"unit":"pH","label":"pH","status":"High","trend":"insufficient_data"},"ss_alt":{"mean":3155.0,"min":3070.0,"max":3240.0,"latest":3240.0,"n_samples":2,"unit":"mg/l","label":"Suspended Solids (alt)"}},"statuses":{"bod":"Bad","ph":"High"},"sample_count":6,"total_samples":6,"earliest_sample":"2001-09-19","latest_sample":"2004-08-23","overall_status":"Bad","worst_determinand":"bod"},{"id":"TH-80465A07","label":"1A- OPERATOR REF FOR SPT ON LICENSED WASTE SITE AT AMEY LECA PH.1","lat":51.6955,"lon":0.2617,"type":"WASTE SITE - GAS & GROUNDWATER","determinands":{"bod":{"mean":6.0,"min":6.0,"max":6.0,"latest":6.0,"n_samples":1,"unit":"mg/l","label":"BOD 5 Day ATU","status":"Moderate","trend":"insufficient_data"},"ph":{"mean":6.44,"min":6.44,"max":6.44,"latest":6.44,"n_samples":1,"unit":"pH","label":"pH","status":"Good","trend":"insufficient_data"},"ss_alt":{"mean":1990.0,"min":1990.0,"max":1990.0,"latest":1990.0,"n_samples":1,"unit":"mg/l","label":"Suspended Solids (alt)"}},"statuses":{"bod":"Moderate","ph":"Good"},"sample_count":3,"total_samples":3,"earliest_sample":"2002-08-07","latest_sample":"2002-08-07","overall_status":"Moderate","worst_determinand":"bod"},{"id":"TH-80443A03","label":"BH C- OPERATOR REF FOR SPT ON LICENSED WASTE SITE AT UGLEY QUARRY","lat":51.92721,"lon":0.20191,"type":"GROUNDWATER - LANDFILL SITE","determinands":{"bod":{"mean":2.5,"min":1.0,"max":4.0,"latest":4.0,"n_samples":2,"unit":"mg/l","label":"BOD 5 Day ATU","status":"High","trend":"insufficient_data"},"ph":{"mean":7.395,"min":7.29,"max":7.5,"latest":7.29,"n_samples":2,"unit":"pH","label":"pH","status":"High","trend":"insufficient_data"},"ss_alt":{"mean":689.0,"min":688.0,"max":690.0,"latest":688.0,"n_samples":2,"unit":"mg/l","label":"Suspended Solids (alt)"}},"statuses":{"bod":"High","ph":"High"},"sample_count":6,"total_samples":6,"earliest_sample":"2000-12-12","latest_sample":"2004-12-07","overall_status":"High","worst_determinand":"bod"},{"id":"SO-19502A62","label":"P/10/68GW20","lat":51.29573,"lon":0.36309,"type":"GROUNDWATER - LANDFILL SITE","determinands":{"ammonia":{"mean":2.8,"min":2.8,"max":2.8,"latest":2.8,"n_samples":1,"unit":"mg/l","label":"Ammoniacal Nitrogen as N","status":"Bad","trend":"insufficient_data"},"bod":{"mean":7.0,"min":7.0,"max":7.0,"latest":7.0,"n_samples":1,"unit":"mg/l","label":"BOD 5 Day ATU","status":"Poor","trend":"insufficient_data"},"ph":{"mean":6.65,"min":6.65,"max":6.65,"latest":6.65,"n_samples":1,"unit":"pH","label":"pH","status":"High","trend":"insufficient_data"},"ss_alt":{"mean":1380.0,"min":1380.0,"max":1380.0,"latest":1380.0,"n_samples":1,"unit":"mg/l","label":"Suspended Solids (alt)"}},"statuses":{"ammonia":"Bad","bod":"Poor","ph":"High"},"sample_count":4,"total_samples":4,"earliest_sample":"2002-03-19","latest_sample":"2002-03-19","overall_status":"Bad","worst_determinand":"ammonia"},{"id":"TH-PGWU1916","label":"ERITH, AGGREGATE INDUSTRIES UK LTD B/H 'A' *CLOSED*","lat":51.4787,"lon":0.19436,"type":"GROUNDWATER - BOREHOLE","determinands":{"ammonia":{"mean":0.2465,"min":0.143,"max":0.35,"latest":0.35,"n_samples":2,"unit":"mg/l","label":"Ammoniacal Nitrogen as N","status":"High","trend":"insufficient_data"},"do_percent":{"mean":52.1,"min":52.1,"max":52.1,"latest":52.1,"n_samples":1,"unit":"%","label":"Dissolved Oxygen (% sat)","status":"Poor","trend":"insufficient_data"},"nitrate":{"mean":6.26,"min":5.55,"max":6.97,"latest":6.97,"n_samples":2,"unit":"mg/l","label":"Nitrate as N"},"ph":{"mean":7.125,"min":7.1,"max":7.15,"latest":7.15,"n_samples":2,"unit":"pH","label":"pH","status":"High","trend":"insufficient_data"},"phosphate":{"mean":0.02,"min":0.02,"max":0.02,"latest":0.02,"n_samples":2,"unit":"mg/l","label":"Orthophosphate, reactive as P","status":"High","trend":"insufficient_data"},"ss_alt":{"mean":1868.5,"min":1339.0,"max":2398.0,"latest":2398.0,"n_samples":2,"unit":"mg/l","label":"Suspended Solids (alt)"},"temperature":{"mean":16.49,"min":13.63,"max":19.35,"latest":13.63,"n_samples":2,"unit":"\u00b0C","label":"Temperature"},"total_oxidised_n":{"mean":6.265,"min":5.55,"max":6.98,"latest":6.98,"n_samples":2,"unit":"mg/l","label":"Nitrogen, Total Oxidised as N"}},"statuses":{"ammonia":"High","do_percent":"Poor","ph":"High","phosphate":"High"},"sample_count":15,"total_samples":15,"earliest_sample":"2005-11-29","latest_sample":"2006-04-10","overall_status":"Poor","worst_determinand":"do_percent"},{"id":"TH-80464A47","label":"BH 17B- OPERATOR REF FOR SPT ON LICENSED WASTE SITE AT AVELEY 2","lat":51.50716,"lon":0.2387,"type":"WASTE SITE - GAS & GROUNDWATER","determinands":{"bod":{"mean":3.0,"min":3.0,"max":3.0,"latest":3.0,"n_samples":1,"unit":"mg/l","label":"BOD 5 Day ATU","status":"High","trend":"insufficient_data"},"ph":{"mean":6.88,"min":6.88,"max":6.88,"latest":6.88,"n_samples":1,"unit":"pH","label":"pH","status":"High","trend":"insufficient_data"},"ss_alt":{"mean":4670.0,"min":4670.0,"max":4670.0,"latest":4670.0,"n_samples":1,"unit":"mg/l","label":"Suspended Solids (alt)"}},"statuses":{"bod":"High","ph":"High"},"sample_count":3,"total_samples":3,"earliest_sample":"2004-09-16","latest_sample":"2004-09-16","overall_status":"High","worst_determinand":"bod"},{"id":"TH-PTSE0177","label":"TRIPCOCK POINT WETLANDS DISCHARGE T/E :THAMESMEAD","lat":51.5042,"lon":0.0986,"type":"TRADE DISCHARGES - PROCESS EFFLUENT - NOT WATER COMPANY","determinands":{"bod":{"mean":2.92,"min":2.92,"max":2.92,"latest":2.92,"n_samples":1,"unit":"mg/l","label":"BOD 5 Day ATU","status":"High","trend":"insufficient_data"},"ph":{"mean":7.7,"min":7.7,"max":7.7,"latest":7.7,"n_samples":1,"unit":"pH","label":"pH","status":"High","trend":"insufficient_data"},"ss":{"mean":21.2,"min":21.2,"max":21.2,"latest":21.2,"n_samples":1,"unit":"mg/l","label":"Suspended Solids at 105C"},"ss_alt":{"mean":3920.0,"min":3920.0,"max":3920.0,"latest":3920.0,"n_samples":1,"unit":"mg/l","label":"Suspended Solids (alt)"},"temperature":{"mean":5.0,"min":5.0,"max":5.0,"latest":5.0,"n_samples":1,"unit":"\u00b0C","label":"Temperature"},"total_oxidised_n":{"mean":0.63,"min":0.63,"max":0.63,"latest":0.63,"n_samples":1,"unit":"mg/l","label":"Nitrogen, Total Oxidised as N"}},"statuses":{"bod":"High","ph":"High"},"sample_count":6,"total_samples":6,"earliest_sample":"2005-11-28","latest_sample":"2005-11-28","overall_status":"High","worst_determinand":"bod"},{"id":"SO-CSM00135","label":"CUXTON WTW UWWTR CRUDE INFLUENT (18402) UWWTD CUSTOMER SELF MONITORING DATA","lat":51.37682,"lon":0.4651,"type":"SEWAGE - CRUDE TO FURTHER TREATMENT - WATER COMPANY","determinands":{"bod":{"mean":377.59,"min":204.51,"max":573.1,"latest":573.1,"n_samples":16,"unit":"mg/l","label":"BOD 5 Day ATU","status":"Bad","trend":"insufficient_data"}},"statuses":{"bod":"Bad"},"sample_count":16,"total_samples":16,"earliest_sample":"2006-01-25","latest_sample":"2008-01-08","overall_status":"Bad","worst_determinand":"bod"},{"id":"TH-RSN1713","label":"RSN1713 BORLEY GREEN TRIB","lat":51.95083,"lon":0.07384,"type":"FRESHWATER - RIVERS","determinands":{"ammonia":{"mean":0.034,"min":0.034,"max":0.034,"latest":0.034,"n_samples":1,"unit":"mg/l","label":"Ammoniacal Nitrogen as N","status":"High","trend":"insufficient_data"},"do_percent":{"mean":96.2,"min":96.2,"max":96.2,"latest":96.2,"n_samples":1,"unit":"%","label":"Dissolved Oxygen (% sat)","status":"High","trend":"insufficient_data"},"nitrate":{"mean":31.0,"min":31.0,"max":31.0,"latest":31.0,"n_samples":1,"unit":"mg/l","label":"Nitrate as N"},"ph":{"mean":8.26,"min":8.26,"max":8.26,"latest":8.26,"n_samples":1,"unit":"pH","label":"pH","status":"High","trend":"insufficient_data"},"phosphate":{"mean":0.016,"min":0.016,"max":0.016,"latest":0.016,"n_samples":1,"unit":"mg/l","label":"Orthophosphate, reactive as P","status":"High","trend":"insufficient_data"},"ss":{"mean":33.0,"min":33.0,"max":33.0,"latest":33.0,"n_samples":1,"unit":"mg/l","label":"Suspended Solids at 105C"},"temperature":{"mean":7.3,"min":7.3,"max":7.3,"latest":7.3,"n_samples":1,"unit":"\u00b0C","label":"Temperature"},"total_oxidised_n":{"mean":31.0,"min":31.0,"max":31.0,"latest":31.0,"n_samples":1,"unit":"mg/l","label":"Nitrogen, Total Oxidised as N"}},"statuses":{"ammonia":"High","do_percent":"High","ph":"High","phosphate":"High"},"sample_count":8,"total_samples":43,"earliest_sample":"2021-01-20","latest_sample":"2026-01-20","overall_status":"High","worst_determinand":"ammonia"},{"id":"AN-ABBOTTS","label":"ABBOTTS HALL FARM POND","lat":51.79516,"lon":0.8468,"type":"POLLUTION/INVESTIGATION POINTS - ENVIRONMENT","determinands":{"ammonia":{"mean":0.069,"min":0.069,"max":0.069,"latest":0.069,"n_samples":1,"unit":"mg/l","label":"Ammoniacal Nitrogen as N","status":"High","trend":"insufficient_data"},"bod":{"mean":1.7,"min":1.7,"max":1.7,"latest":1.7,"n_samples":1,"unit":"mg/l","label":"BOD 5 Day ATU","status":"High","trend":"insufficient_data"},"do_percent":{"mean":133.0,"min":133.0,"max":133.0,"latest":133.0,"n_samples":1,"unit":"%","label":"Dissolved Oxygen (% sat)","status":"High","trend":"insufficient_data"},"ph":{"mean":8.63,"min":8.63,"max":8.63,"latest":8.63,"n_samples":1,"unit":"pH","label":"pH","status":"Good","trend":"insufficient_data"},"phosphate":{"mean":0.107,"min":0.107,"max":0.107,"latest":0.107,"n_samples":1,"unit":"mg/l","label":"Orthophosphate, reactive as P","status":"Good","trend":"insufficient_data"},"temperature":{"mean":14.55,"min":14.55,"max":14.55,"latest":14.55,"n_samples":1,"unit":"\u00b0C","label":"Temperature"},"total_oxidised_n":{"mean":0.2,"min":0.2,"max":0.2,"latest":0.2,"n_samples":1,"unit":"mg/l","label":"Nitrogen, Total Oxidised as N"}},"statuses":{"ammonia":"High","bod":"High","do_percent":"High","ph":"Good","phosphate":"Good"},"sample_count":7,"total_samples":7,"earliest_sample":"2010-11-05","latest_sample":"2010-11-05","overall_status":"Good","worst_determinand":"ph"},{"id":"TH-80443A02","label":"BH B- OPERATOR REF FOR SPT ON LICENSED WASTE SITE AT UGLEY QUARRY","lat":51.92721,"lon":0.20191,"type":"GROUNDWATER - LANDFILL SITE","determinands":{"bod":{"mean":2.5,"min":1.0,"max":4.0,"latest":4.0,"n_samples":2,"unit":"mg/l","label":"BOD 5 Day ATU","status":"High","trend":"insufficient_data"},"ph":{"mean":7.28,"min":7.26,"max":7.3,"latest":7.26,"n_samples":2,"unit":"pH","label":"pH","status":"High","trend":"insufficient_data"},"ss_alt":{"mean":675.5,"min":672.0,"max":679.0,"latest":679.0,"n_samples":2,"unit":"mg/l","label":"Suspended Solids (alt)"}},"statuses":{"bod":"High","ph":"High"},"sample_count":6,"total_samples":6,"earliest_sample":"2000-12-12","latest_sample":"2004-12-07","overall_status":"High","worst_determinand":"bod"},{"id":"TH-80124A52","label":"BH 52- OPERATOR REF FOR SPT ON LICENSED WASTE SITE AT MARDYKE FARM","lat":51.53591,"lon":0.17604,"type":"WASTE SITE - GAS & GROUNDWATER","determinands":{"bod":{"mean":34.0,"min":34.0,"max":34.0,"latest":34.0,"n_samples":1,"unit":"mg/l","label":"BOD 5 Day ATU","status":"Bad","trend":"insufficient_data"},"ph":{"mean":7.06,"min":7.06,"max":7.06,"latest":7.06,"n_samples":1,"unit":"pH","label":"pH","status":"High","trend":"insufficient_data"},"ss_alt":{"mean":3800.0,"min":3800.0,"max":3800.0,"latest":3800.0,"n_samples":1,"unit":"mg/l","label":"Suspended Solids (alt)"}},"statuses":{"bod":"Bad","ph":"High"},"sample_count":3,"total_samples":3,"earliest_sample":"2004-08-23","latest_sample":"2004-08-23","overall_status":"Bad","worst_determinand":"bod"},{"id":"TH-80465A04","label":"GW 5- OPERATOR REF FOR SPT ON LICENSED WASTE SITE AT AMEY LECA PH.1","lat":51.69826,"lon":0.26531,"type":"GROUNDWATER - LANDFILL SITE","determinands":{"bod":{"mean":3.5,"min":3.0,"max":4.0,"latest":4.0,"n_samples":2,"unit":"mg/l","label":"BOD 5 Day ATU","status":"High","trend":"insufficient_data"},"ph":{"mean":7.925,"min":7.71,"max":8.14,"latest":7.71,"n_samples":2,"unit":"pH","label":"pH","status":"High","trend":"insufficient_data"},"ss_alt":{"mean":1112.0,"min":954.0,"max":1270.0,"latest":954.0,"n_samples":2,"unit":"mg/l","label":"Suspended Solids (alt)"}},"statuses":{"bod":"High","ph":"High"},"sample_count":6,"total_samples":6,"earliest_sample":"2000-11-21","latest_sample":"2002-08-08","overall_status":"High","worst_determinand":"bod"},{"id":"TH-80467A01","label":"BH 1- OPERATOR REF FOR SPT ON LICENSED WASTE SITE AT CRUMPS FARM","lat":51.86655,"lon":0.29254,"type":"WASTE SITE - GAS & GROUNDWATER","determinands":{"bod":{"mean":6.0,"min":6.0,"max":6.0,"latest":6.0,"n_samples":1,"unit":"mg/l","label":"BOD 5 Day ATU","status":"Moderate","trend":"insufficient_data"},"ph":{"mean":7.21,"min":7.21,"max":7.21,"latest":7.21,"n_samples":1,"unit":"pH","label":"pH","status":"High","trend":"insufficient_data"},"ss_alt":{"mean":869.0,"min":869.0,"max":869.0,"latest":869.0,"n_samples":1,"unit":"mg/l","label":"Suspended Solids (alt)"}},"statuses":{"bod":"Moderate","ph":"High"},"sample_count":3,"total_samples":3,"earliest_sample":"2001-09-11","latest_sample":"2001-09-11","overall_status":"Moderate","worst_determinand":"bod"},{"id":"TH-80464A45","label":"BH 16A- OPERATOR REF FOR SPT ON LICENSED WASTE SITE AT AVELEY 2","lat":51.50703,"lon":0.23715,"type":"WASTE SITE - GAS & GROUNDWATER","determinands":{"bod":{"mean":3.0,"min":3.0,"max":3.0,"latest":3.0,"n_samples":1,"unit":"mg/l","label":"BOD 5 Day ATU","status":"High","trend":"insufficient_data"},"ph":{"mean":7.35,"min":7.35,"max":7.35,"latest":7.35,"n_samples":1,"unit":"pH","label":"pH","status":"High","trend":"insufficient_data"},"ss_alt":{"mean":3510.0,"min":3510.0,"max":3510.0,"latest":3510.0,"n_samples":1,"unit":"mg/l","label":"Suspended Solids (alt)"}},"statuses":{"bod":"High","ph":"High"},"sample_count":3,"total_samples":3,"earliest_sample":"2004-09-16","latest_sample":"2004-09-16","overall_status":"High","worst_determinand":"bod"},{"id":"AN-70261053","label":"PITSEA LANDFILL SITE RWLMP 215","lat":51.53829,"lon":0.51007,"type":"WASTE SITE - LEACHATE BOREHOLE","determinands":{"ammonia":{"mean":655.5,"min":595.0,"max":731.0,"latest":650.0,"n_samples":4,"unit":"mg/l","label":"Ammoniacal Nitrogen as N","status":"Bad","trend":"insufficient_data"},"ph":{"mean":7.65,"min":7.5,"max":7.8,"latest":7.7,"n_samples":4,"unit":"pH","label":"pH","status":"High","trend":"insufficient_data"},"ss_alt":{"mean":19237.5,"min":17740.0,"max":20060.0,"latest":19900.0,"n_samples":4,"unit":"mg/l","label":"Suspended Solids (alt)"},"total_oxidised_n":{"mean":0.6,"min":0.1,"max":2.1,"latest":0.1,"n_samples":4,"unit":"mg/l","label":"Nitrogen, Total Oxidised as N"}},"statuses":{"ammonia":"Bad","ph":"High"},"sample_count":16,"total_samples":16,"earliest_sample":"2006-09-26","latest_sample":"2008-03-14","overall_status":"Bad","worst_determinand":"ammonia"},{"id":"TH-PTSE0202","label":"THE HOLLIES STW","lat":51.44669,"lon":0.58501,"type":"SEWAGE DISCHARGES - FINAL/TREATED EFFLUENT - NOT WATER COMPANY","determinands":{"ammonia":{"mean":20.0,"min":20.0,"max":20.0,"latest":20.0,"n_samples":1,"unit":"mg/l","label":"Ammoniacal Nitrogen as N","status":"Bad","trend":"insufficient_data"},"bod":{"mean":19.0,"min":19.0,"max":19.0,"latest":19.0,"n_samples":1,"unit":"mg/l","label":"BOD 5 Day ATU","status":"Bad","trend":"insufficient_data"},"ss":{"mean":53.0,"min":53.0,"max":53.0,"latest":53.0,"n_samples":1,"unit":"mg/l","label":"Suspended Solids at 105C"}},"statuses":{"ammonia":"Bad","bod":"Bad"},"sample_count":3,"total_samples":3,"earliest_sample":"2025-11-18","latest_sample":"2025-11-18","overall_status":"Bad","worst_determinand":"ammonia"},{"id":"SO-19502A60","label":"P/10/68GW18","lat":51.29442,"lon":0.36038,"type":"GROUNDWATER - LANDFILL SITE","determinands":{"ammonia":{"mean":0.12,"min":0.12,"max":0.12,"latest":0.12,"n_samples":1,"unit":"mg/l","label":"Ammoniacal Nitrogen as N","status":"High","trend":"insufficient_data"},"bod":{"mean":4.0,"min":4.0,"max":4.0,"latest":4.0,"n_samples":1,"unit":"mg/l","label":"BOD 5 Day ATU","status":"High","trend":"insufficient_data"},"ph":{"mean":6.64,"min":6.64,"max":6.64,"latest":6.64,"n_samples":1,"unit":"pH","label":"pH","status":"High","trend":"insufficient_data"},"ss_alt":{"mean":1050.0,"min":1050.0,"max":1050.0,"latest":1050.0,"n_samples":1,"unit":"mg/l","label":"Suspended Solids (alt)"}},"statuses":{"ammonia":"High","bod":"High","ph":"High"},"sample_count":4,"total_samples":4,"earliest_sample":"2002-03-19","latest_sample":"2002-03-19","overall_status":"High","worst_determinand":"ammonia"},{"id":"SO-19502A48","label":"P/10/68GW06","lat":51.29402,"lon":0.36224,"type":"GROUNDWATER - LANDFILL SITE","determinands":{"ammonia":{"mean":24.0,"min":24.0,"max":24.0,"latest":24.0,"n_samples":1,"unit":"mg/l","label":"Ammoniacal Nitrogen as N","status":"Bad","trend":"insufficient_data"},"bod":{"mean":15.0,"min":15.0,"max":15.0,"latest":15.0,"n_samples":1,"unit":"mg/l","label":"BOD 5 Day ATU","status":"Bad","trend":"insufficient_data"},"ph":{"mean":6.64,"min":6.64,"max":6.64,"latest":6.64,"n_samples":1,"unit":"pH","label":"pH","status":"High","trend":"insufficient_data"},"ss_alt":{"mean":2050.0,"min":2050.0,"max":2050.0,"latest":2050.0,"n_samples":1,"unit":"mg/l","label":"Suspended Solids (alt)"}},"statuses":{"ammonia":"Bad","bod":"Bad","ph":"High"},"sample_count":4,"total_samples":4,"earliest_sample":"2002-03-19","latest_sample":"2002-03-19","overall_status":"Bad","worst_determinand":"ammonia"},{"id":"TH-80443A01","label":"BH A- OPERATOR REF FOR SPT ON LICENSED WASTE SITE AT UGLEY QUARRY","lat":51.92721,"lon":0.20191,"type":"GROUNDWATER - LANDFILL SITE","determinands":{"bod":{"mean":4.0,"min":4.0,"max":4.0,"latest":4.0,"n_samples":1,"unit":"mg/l","label":"BOD 5 Day ATU","status":"High","trend":"insufficient_data"},"ph":{"mean":7.25,"min":7.25,"max":7.25,"latest":7.25,"n_samples":1,"unit":"pH","label":"pH","status":"High","trend":"insufficient_data"},"ss_alt":{"mean":633.0,"min":633.0,"max":633.0,"latest":633.0,"n_samples":1,"unit":"mg/l","label":"Suspended Solids (alt)"}},"statuses":{"bod":"High","ph":"High"},"sample_count":3,"total_samples":3,"earliest_sample":"2004-12-07","latest_sample":"2004-12-07","overall_status":"High","worst_determinand":"bod"},{"id":"TH-80465A39","label":"LM 4- OPERATOR REF FOR SPT ON LICENSED WASTE SITE AT AMEY LECA PH.1","lat":51.69556,"lon":0.26308,"type":"WASTE SITE - LEACHATE SUMP","determinands":{"bod":{"mean":12.0,"min":12.0,"max":12.0,"latest":12.0,"n_samples":1,"unit":"mg/l","label":"BOD 5 Day ATU","status":"Bad","trend":"insufficient_data"},"ph":{"mean":7.55,"min":7.55,"max":7.55,"latest":7.55,"n_samples":1,"unit":"pH","label":"pH","status":"High","trend":"insufficient_data"},"ss_alt":{"mean":3530.0,"min":3530.0,"max":3530.0,"latest":3530.0,"n_samples":1,"unit":"mg/l","label":"Suspended Solids (alt)"}},"statuses":{"bod":"Bad","ph":"High"},"sample_count":3,"total_samples":3,"earliest_sample":"2000-11-21","latest_sample":"2000-11-21","overall_status":"Bad","worst_determinand":"bod"},{"id":"TH-PTSR0065","label":"GREAT BREACH DYKE WEST ARM BELOW EASTERN WAY, BELVEDERE","lat":51.50061,"lon":0.14743,"type":"SALINE WATER - ESTUARINE SITES - NON BATHING/SHELLFISH","determinands":{"ammonia":{"mean":0.54,"min":0.54,"max":0.54,"latest":0.54,"n_samples":1,"unit":"mg/l","label":"Ammoniacal Nitrogen as N","status":"Good","trend":"insufficient_data"},"bod":{"mean":2580.0,"min":2580.0,"max":2580.0,"latest":2580.0,"n_samples":1,"unit":"mg/l","label":"BOD 5 Day ATU","status":"Bad","trend":"insufficient_data"},"do_percent":{"mean":16.6,"min":16.6,"max":16.6,"latest":16.6,"n_samples":1,"unit":"%","label":"Dissolved Oxygen (% sat)","status":"Bad","trend":"insufficient_data"},"phosphate":{"mean":1.81,"min":1.81,"max":1.81,"latest":1.81,"n_samples":1,"unit":"mg/l","label":"Orthophosphate, reactive as P","status":"Bad","trend":"insufficient_data"},"ss":{"mean":1380.0,"min":1380.0,"max":1380.0,"latest":1380.0,"n_samples":1,"unit":"mg/l","label":"Suspended Solids at 105C"},"temperature":{"mean":13.2,"min":13.2,"max":13.2,"latest":13.2,"n_samples":1,"unit":"\u00b0C","label":"Temperature"},"total_oxidised_n":{"mean":1.0,"min":1.0,"max":1.0,"latest":1.0,"n_samples":1,"unit":"mg/l","label":"Nitrogen, Total Oxidised as N"}},"statuses":{"ammonia":"Good","bod":"Bad","do_percent":"Bad","phosphate":"Bad"},"sample_count":7,"total_samples":7,"earliest_sample":"2005-04-15","latest_sample":"2005-04-15","overall_status":"Bad","worst_determinand":"bod"},{"id":"AN-WGREEN","label":"WILLOWS GREEN STW FINAL EFFLUENT.","lat":51.85253,"lon":0.49388,"type":"SEWAGE DISCHARGES - FINAL/TREATED EFFLUENT - WATER COMPANY","determinands":{"temperature":{"mean":14.43,"min":7.45,"max":20.0,"latest":7.45,"n_samples":6,"unit":"\u00b0C","label":"Temperature"}},"statuses":{},"sample_count":6,"total_samples":6,"earliest_sample":"2000-11-21","latest_sample":"2010-01-27","overall_status":"Unknown","worst_determinand":null},{"id":"TH-PTSE0067","label":"HANSON (PIONEER CONCRETE) VEHICLE WASH: ERITH","lat":51.49711,"lon":0.17175,"type":"TRADE DISCHARGES - PROCESS EFFLUENT - NOT WATER COMPANY","determinands":{"ammonia":{"mean":0.183,"min":0.183,"max":0.183,"latest":0.183,"n_samples":1,"unit":"mg/l","label":"Ammoniacal Nitrogen as N","status":"High","trend":"insufficient_data"},"bod":{"mean":9.2,"min":9.2,"max":9.2,"latest":9.2,"n_samples":1,"unit":"mg/l","label":"BOD 5 Day ATU","status":"Bad","trend":"insufficient_data"},"ph":{"mean":9.965,"min":8.33,"max":11.6,"latest":8.33,"n_samples":2,"unit":"pH","label":"pH","status":"Poor","trend":"insufficient_data"},"phosphate":{"mean":0.02,"min":0.02,"max":0.02,"latest":0.02,"n_samples":1,"unit":"mg/l","label":"Orthophosphate, reactive as P","status":"High","trend":"insufficient_data"},"ss":{"mean":502.0,"min":69.0,"max":935.0,"latest":935.0,"n_samples":2,"unit":"mg/l","label":"Suspended Solids at 105C"},"temperature":{"mean":7.56,"min":7.56,"max":7.56,"latest":7.56,"n_samples":1,"unit":"\u00b0C","label":"Temperature"},"total_oxidised_n":{"mean":6.4,"min":6.4,"max":6.4,"latest":6.4,"n_samples":1,"unit":"mg/l","label":"Nitrogen, Total Oxidised as N"}},"statuses":{"ammonia":"High","bod":"Bad","ph":"Poor","phosphate":"High"},"sample_count":9,"total_samples":9,"earliest_sample":"2004-12-02","latest_sample":"2011-12-14","overall_status":"Bad","worst_determinand":"bod"},{"id":"TH-80124A34","label":"BH 34- OPERATOR REF FOR SPT ON LICENSED WASTE SITE AT MARDYKE FARM","lat":51.53591,"lon":0.17604,"type":"WASTE SITE - GAS & GROUNDWATER","determinands":{"bod":{"mean":23.0,"min":23.0,"max":23.0,"latest":23.0,"n_samples":1,"unit":"mg/l","label":"BOD 5 Day ATU","status":"Bad","trend":"insufficient_data"},"ph":{"mean":7.11,"min":7.11,"max":7.11,"latest":7.11,"n_samples":1,"unit":"pH","label":"pH","status":"High","trend":"insufficient_data"},"ss_alt":{"mean":3180.0,"min":3180.0,"max":3180.0,"latest":3180.0,"n_samples":1,"unit":"mg/l","label":"Suspended Solids (alt)"}},"statuses":{"bod":"Bad","ph":"High"},"sample_count":3,"total_samples":3,"earliest_sample":"2001-09-19","latest_sample":"2001-09-19","overall_status":"Bad","worst_determinand":"bod"},{"id":"SO-E0007213","label":"ST MARGARET'S PRIMARY SCHOOL STW","lat":51.18854,"lon":0.45456,"type":"SEWAGE DISCHARGES - FINAL/TREATED EFFLUENT - NOT WATER COMPANY","determinands":{"ammonia":{"mean":0.0645,"min":0.063,"max":0.066,"latest":0.063,"n_samples":2,"unit":"mg/l","label":"Ammoniacal Nitrogen as N","status":"High","trend":"improving"},"bod":{"mean":4.0,"min":4.0,"max":4.0,"latest":4.0,"n_samples":2,"unit":"mg/l","label":"BOD 5 Day ATU","status":"High","trend":"declining"},"ss":{"mean":7.7,"min":7.6,"max":7.8,"latest":7.6,"n_samples":2,"unit":"mg/l","label":"Suspended Solids at 105C"}},"statuses":{"ammonia":"High","bod":"High"},"sample_count":6,"total_samples":12,"earliest_sample":"2018-01-12","latest_sample":"2026-03-23","overall_status":"High","worst_determinand":"ammonia"},{"id":"TH-80127A59","label":"L13- OPERATOR REF FOR SPT ON LICENSED WASTE SITE AT REDLAND FAIRLOP QUARRY","lat":51.58994,"lon":0.10616,"type":"WASTE SITE - UNSPECIFIED","determinands":{"bod":{"mean":66.0,"min":66.0,"max":66.0,"latest":66.0,"n_samples":1,"unit":"mg/l","label":"BOD 5 Day ATU","status":"Bad","trend":"insufficient_data"},"ph":{"mean":7.3,"min":7.3,"max":7.3,"latest":7.3,"n_samples":1,"unit":"pH","label":"pH","status":"High","trend":"insufficient_data"},"ss_alt":{"mean":770.0,"min":770.0,"max":770.0,"latest":770.0,"n_samples":1,"unit":"mg/l","label":"Suspended Solids (alt)"}},"statuses":{"bod":"Bad","ph":"High"},"sample_count":3,"total_samples":3,"earliest_sample":"2000-10-24","latest_sample":"2000-10-24","overall_status":"Bad","worst_determinand":"bod"},{"id":"TH-80465A89","label":"BH 29C- OPERATOR REF FOR SPT ON LICENSED WASTE SITE AT AMEY LECA PH.1","lat":51.69508,"lon":0.25574,"type":"WASTE SITE - UNSPECIFIED","determinands":{"bod":{"mean":7.0,"min":7.0,"max":7.0,"latest":7.0,"n_samples":1,"unit":"mg/l","label":"BOD 5 Day ATU","status":"Poor","trend":"insufficient_data"},"ph":{"mean":7.48,"min":7.48,"max":7.48,"latest":7.48,"n_samples":1,"unit":"pH","label":"pH","status":"High","trend":"insufficient_data"},"ss_alt":{"mean":1450.0,"min":1450.0,"max":1450.0,"latest":1450.0,"n_samples":1,"unit":"mg/l","label":"Suspended Solids (alt)"}},"statuses":{"bod":"Poor","ph":"High"},"sample_count":3,"total_samples":3,"earliest_sample":"2000-11-21","latest_sample":"2000-11-21","overall_status":"Poor","worst_determinand":"bod"},{"id":"TH-80127A65","label":"WM3- OPERATOR REF FOR SPT ON LICENSED WASTE SITE AT REDLAND FAIRLOP QUARRY","lat":51.58994,"lon":0.10616,"type":"WASTE SITE - UNSPECIFIED","determinands":{"bod":{"mean":3.0,"min":3.0,"max":3.0,"latest":3.0,"n_samples":1,"unit":"mg/l","label":"BOD 5 Day ATU","status":"High","trend":"insufficient_data"},"ph":{"mean":6.74,"min":6.74,"max":6.74,"latest":6.74,"n_samples":1,"unit":"pH","label":"pH","status":"High","trend":"insufficient_data"},"ss_alt":{"mean":541.0,"min":541.0,"max":541.0,"latest":541.0,"n_samples":1,"unit":"mg/l","label":"Suspended Solids (alt)"}},"statuses":{"bod":"High","ph":"High"},"sample_count":3,"total_samples":3,"earliest_sample":"2000-10-24","latest_sample":"2000-10-24","overall_status":"High","worst_determinand":"bod"},{"id":"SO-E0004860","label":"MAYFIELD GRANGE SEWAGE TREATMENT PLANT","lat":51.0389,"lon":0.27151,"type":"SEWAGE DISCHARGES - FINAL/TREATED EFFLUENT - NOT WATER COMPANY","determinands":{"ammonia":{"mean":0.4674,"min":0.058,"max":3.0,"latest":3.0,"n_samples":10,"unit":"mg/l","label":"Ammoniacal Nitrogen as N","status":"Good","trend":"declining"},"bod":{"mean":3.4,"min":1.0,"max":6.0,"latest":3.0,"n_samples":10,"unit":"mg/l","label":"BOD 5 Day ATU","status":"High","trend":"declining"},"ss":{"mean":4.05,"min":3.0,"max":7.5,"latest":3.3,"n_samples":10,"unit":"mg/l","label":"Suspended Solids at 105C"}},"statuses":{"ammonia":"Good","bod":"High"},"sample_count":30,"total_samples":102,"earliest_sample":"2011-01-25","latest_sample":"2026-01-20","overall_status":"Good","worst_determinand":"ammonia"},{"id":"TH-80127A64","label":"WM2- OPERATOR REF FOR SPT ON LICENSED WASTE SITE AT REDLAND FAIRLOP QUARRY","lat":51.58994,"lon":0.10616,"type":"WASTE SITE - UNSPECIFIED","determinands":{"bod":{"mean":4.0,"min":4.0,"max":4.0,"latest":4.0,"n_samples":1,"unit":"mg/l","label":"BOD 5 Day ATU","status":"High","trend":"insufficient_data"},"ph":{"mean":7.24,"min":7.24,"max":7.24,"latest":7.24,"n_samples":1,"unit":"pH","label":"pH","status":"High","trend":"insufficient_data"},"ss_alt":{"mean":554.0,"min":554.0,"max":554.0,"latest":554.0,"n_samples":1,"unit":"mg/l","label":"Suspended Solids (alt)"}},"statuses":{"bod":"High","ph":"High"},"sample_count":3,"total_samples":3,"earliest_sample":"2000-10-24","latest_sample":"2000-10-24","overall_status":"High","worst_determinand":"bod"},{"id":"TH-80127A58","label":"L12- OPERATOR REF FOR SPT ON LICENSED WASTE SITE AT REDLAND FAIRLOP QUARRY","lat":51.58994,"lon":0.10616,"type":"WASTE SITE - UNSPECIFIED","determinands":{"bod":{"mean":3.0,"min":3.0,"max":3.0,"latest":3.0,"n_samples":1,"unit":"mg/l","label":"BOD 5 Day ATU","status":"High","trend":"insufficient_data"},"ph":{"mean":7.13,"min":7.13,"max":7.13,"latest":7.13,"n_samples":1,"unit":"pH","label":"pH","status":"High","trend":"insufficient_data"},"ss_alt":{"mean":600.0,"min":600.0,"max":600.0,"latest":600.0,"n_samples":1,"unit":"mg/l","label":"Suspended Solids (alt)"}},"statuses":{"bod":"High","ph":"High"},"sample_count":3,"total_samples":3,"earliest_sample":"2000-10-24","latest_sample":"2000-10-24","overall_status":"High","worst_determinand":"bod"},{"id":"TH-80464B41","label":"GW8A - OPERATOR REF FOR SPT ON LICENSED WASTE SITE AT AVELEY 2","lat":51.49769,"lon":0.23158,"type":"WASTE SITE - UNSPECIFIED","determinands":{"bod":{"mean":5.45,"min":2.9,"max":8.0,"latest":2.9,"n_samples":2,"unit":"mg/l","label":"BOD 5 Day ATU","status":"Moderate","trend":"insufficient_data"},"ph":{"mean":7.435,"min":7.35,"max":7.52,"latest":7.35,"n_samples":2,"unit":"pH","label":"pH","status":"High","trend":"insufficient_data"},"ss_alt":{"mean":1980.0,"min":1890.0,"max":2070.0,"latest":1890.0,"n_samples":2,"unit":"mg/l","label":"Suspended Solids (alt)"}},"statuses":{"bod":"Moderate","ph":"High"},"sample_count":6,"total_samples":6,"earliest_sample":"2004-09-16","latest_sample":"2006-09-04","overall_status":"Moderate","worst_determinand":"bod"},{"id":"TH-80124A35","label":"BH 35- OPERATOR REF FOR SPT ON LICENSED WASTE SITE AT MARDYKE FARM","lat":51.53591,"lon":0.17604,"type":"WASTE SITE - GAS & GROUNDWATER","determinands":{"bod":{"mean":13.1,"min":5.0,"max":21.2,"latest":21.2,"n_samples":2,"unit":"mg/l","label":"BOD 5 Day ATU","status":"Bad","trend":"insufficient_data"},"ph":{"mean":7.21,"min":7.15,"max":7.27,"latest":7.15,"n_samples":2,"unit":"pH","label":"pH","status":"High","trend":"insufficient_data"},"ss_alt":{"mean":2880.0,"min":2820.0,"max":2940.0,"latest":2940.0,"n_samples":2,"unit":"mg/l","label":"Suspended Solids (alt)"}},"statuses":{"bod":"Bad","ph":"High"},"sample_count":6,"total_samples":6,"earliest_sample":"2004-08-23","latest_sample":"2006-09-01","overall_status":"Bad","worst_determinand":"bod"},{"id":"AN-WD0874","label":"R.WID U/S DODDINGHURST STW","lat":51.66674,"lon":0.321,"type":"FRESHWATER - RIVERS","determinands":{"ammonia":{"mean":0.4163,"min":0.036,"max":1.12,"latest":0.036,"n_samples":3,"unit":"mg/l","label":"Ammoniacal Nitrogen as N","status":"Good","trend":"insufficient_data"},"bod":{"mean":4.8367,"min":3.55,"max":5.55,"latest":5.41,"n_samples":3,"unit":"mg/l","label":"BOD 5 Day ATU","status":"Good","trend":"insufficient_data"},"do_percent":{"mean":84.7667,"min":70.2,"max":93.9,"latest":93.9,"n_samples":3,"unit":"%","label":"Dissolved Oxygen (% sat)","status":"High","trend":"insufficient_data"},"nitrate":{"mean":0.333,"min":0.193,"max":0.61,"latest":0.196,"n_samples":3,"unit":"mg/l","label":"Nitrate as N"},"ph":{"mean":8.0,"min":8.0,"max":8.0,"latest":8.0,"n_samples":1,"unit":"pH","label":"pH","status":"High","trend":"insufficient_data"},"phosphate":{"mean":0.283,"min":0.095,"max":0.497,"latest":0.095,"n_samples":3,"unit":"mg/l","label":"Orthophosphate, reactive as P","status":"Poor","trend":"insufficient_data"},"ss":{"mean":23.6667,"min":3.3,"max":45.4,"latest":22.3,"n_samples":3,"unit":"mg/l","label":"Suspended Solids at 105C"},"ss_alt":{"mean":681.3333,"min":619.0,"max":726.0,"latest":699.0,"n_samples":3,"unit":"mg/l","label":"Suspended Solids (alt)"},"temperature":{"mean":16.48,"min":12.94,"max":20.77,"latest":15.73,"n_samples":3,"unit":"\u00b0C","label":"Temperature"},"total_oxidised_n":{"mean":0.35,"min":0.2,"max":0.65,"latest":0.2,"n_samples":3,"unit":"mg/l","label":"Nitrogen, Total Oxidised as N"}},"statuses":{"ammonia":"Good","bod":"Good","do_percent":"High","ph":"High","phosphate":"Poor"},"sample_count":28,"total_samples":28,"earliest_sample":"2005-06-01","latest_sample":"2005-08-01","overall_status":"Poor","worst_determinand":"phosphate"},{"id":"TH-80127A66","label":"WM5- OPERATOR REF FOR SPT ON LICENSED WASTE SITE AT REDLAND FAIRLOP QUARRY","lat":51.58994,"lon":0.10616,"type":"WASTE SITE - UNSPECIFIED","determinands":{"bod":{"mean":3.0,"min":3.0,"max":3.0,"latest":3.0,"n_samples":1,"unit":"mg/l","label":"BOD 5 Day ATU","status":"High","trend":"insufficient_data"},"ph":{"mean":6.53,"min":6.53,"max":6.53,"latest":6.53,"n_samples":1,"unit":"pH","label":"pH","status":"High","trend":"insufficient_data"},"ss_alt":{"mean":777.0,"min":777.0,"max":777.0,"latest":777.0,"n_samples":1,"unit":"mg/l","label":"Suspended Solids (alt)"}},"statuses":{"bod":"High","ph":"High"},"sample_count":3,"total_samples":3,"earliest_sample":"2000-10-24","latest_sample":"2000-10-24","overall_status":"High","worst_determinand":"bod"},{"id":"AN-BILLERI1","label":"BILLERICAY STW FINAL EFFLUENT FLOW >=39.9 L/S","lat":51.62101,"lon":0.45144,"type":"SEWAGE DISCHARGES - FINAL/TREATED EFFLUENT - WATER COMPANY","determinands":{"ammonia":{"mean":1.6983,"min":0.65,"max":5.5,"latest":0.66,"n_samples":6,"unit":"mg/l","label":"Ammoniacal Nitrogen as N","status":"Poor","trend":"insufficient_data"},"bod":{"mean":5.3167,"min":3.0,"max":10.4,"latest":4.0,"n_samples":6,"unit":"mg/l","label":"BOD 5 Day ATU","status":"Moderate","trend":"insufficient_data"},"ph":{"mean":8.0436,"min":7.22,"max":12.4,"latest":7.54,"n_samples":11,"unit":"pH","label":"pH","status":"High","trend":"decreasing"},"phosphate":{"mean":7.51,"min":4.08,"max":10.6,"latest":7.87,"n_samples":6,"unit":"mg/l","label":"Orthophosphate, reactive as P","status":"Bad","trend":"insufficient_data"},"ss":{"mean":8.7667,"min":3.1,"max":19.3,"latest":3.1,"n_samples":6,"unit":"mg/l","label":"Suspended Solids at 105C"},"temperature":{"mean":11.24,"min":0.0,"max":20.17,"latest":12.5,"n_samples":10,"unit":"\u00b0C","label":"Temperature"},"total_oxidised_n":{"mean":22.3667,"min":7.0,"max":37.7,"latest":22.0,"n_samples":6,"unit":"mg/l","label":"Nitrogen, Total Oxidised as N"}},"statuses":{"ammonia":"Poor","bod":"Moderate","ph":"High","phosphate":"Bad"},"sample_count":51,"total_samples":51,"earliest_sample":"2000-11-06","latest_sample":"2007-11-26","overall_status":"Bad","worst_determinand":"phosphate"},{"id":"SO-E0007173","label":"FLANDERS FARM SEWAGE AND TRADE TREATMENT WORKS","lat":51.43671,"lon":0.56382,"type":"SEWAGE & TRADE COMBINED - UNSPECIFIED","determinands":{"ammonia":{"mean":13.0889,"min":3.1,"max":20.0,"latest":12.0,"n_samples":9,"unit":"mg/l","label":"Ammoniacal Nitrogen as N","status":"Bad","trend":"improving"},"bod":{"mean":16.6667,"min":3.0,"max":58.0,"latest":15.0,"n_samples":9,"unit":"mg/l","label":"BOD 5 Day ATU","status":"Bad","trend":"improving"},"ss":{"mean":17.6889,"min":3.0,"max":49.0,"latest":26.0,"n_samples":9,"unit":"mg/l","label":"Suspended Solids at 105C"}},"statuses":{"ammonia":"Bad","bod":"Bad"},"sample_count":27,"total_samples":76,"earliest_sample":"2015-10-22","latest_sample":"2026-01-06","overall_status":"Bad","worst_determinand":"ammonia"},{"id":"TH-80127A67","label":"WM7- OPERATOR REF FOR SPT ON LICENSED WASTE SITE AT REDLAND FAIRLOP QUARRY","lat":51.58994,"lon":0.10616,"type":"WASTE SITE - UNSPECIFIED","determinands":{"bod":{"mean":15.0,"min":15.0,"max":15.0,"latest":15.0,"n_samples":1,"unit":"mg/l","label":"BOD 5 Day ATU","status":"Bad","trend":"insufficient_data"},"ph":{"mean":7.08,"min":7.08,"max":7.08,"latest":7.08,"n_samples":1,"unit":"pH","label":"pH","status":"High","trend":"insufficient_data"},"ss_alt":{"mean":1430.0,"min":1430.0,"max":1430.0,"latest":1430.0,"n_samples":1,"unit":"mg/l","label":"Suspended Solids (alt)"}},"statuses":{"bod":"Bad","ph":"High"},"sample_count":3,"total_samples":3,"earliest_sample":"2000-10-24","latest_sample":"2000-10-24","overall_status":"Bad","worst_determinand":"bod"},{"id":"AN-MD013050","label":"PREMIER LODGE HOTEL STONEHOUSE LANE A14 JUNCTION THURROCK","lat":51.48566,"lon":0.26369,"type":"SEWAGE DISCHARGES - FINAL/TREATED EFFLUENT - NOT WATER COMPANY","determinands":{"ammonia":{"mean":49.95,"min":49.6,"max":50.3,"latest":49.6,"n_samples":2,"unit":"mg/l","label":"Ammoniacal Nitrogen as N","status":"Bad","trend":"insufficient_data"},"bod":{"mean":160.0,"min":153.0,"max":167.0,"latest":153.0,"n_samples":2,"unit":"mg/l","label":"BOD 5 Day ATU","status":"Bad","trend":"insufficient_data"},"phosphate":{"mean":6.205,"min":6.03,"max":6.38,"latest":6.03,"n_samples":2,"unit":"mg/l","label":"Orthophosphate, reactive as P","status":"Bad","trend":"insufficient_data"},"ss":{"mean":47.0,"min":20.0,"max":74.0,"latest":20.0,"n_samples":2,"unit":"mg/l","label":"Suspended Solids at 105C"},"total_oxidised_n":{"mean":1.0,"min":1.0,"max":1.0,"latest":1.0,"n_samples":2,"unit":"mg/l","label":"Nitrogen, Total Oxidised as N"}},"statuses":{"ammonia":"Bad","bod":"Bad","phosphate":"Bad"},"sample_count":10,"total_samples":10,"earliest_sample":"2004-05-07","latest_sample":"2004-07-28","overall_status":"Bad","worst_determinand":"ammonia"},{"id":"SO-E0007215","label":"SWANTON FARM STW","lat":51.29347,"lon":0.66877,"type":"SEWAGE DISCHARGES - FINAL/TREATED EFFLUENT - NOT WATER COMPANY","determinands":{"ammonia":{"mean":78.7,"min":78.7,"max":78.7,"latest":78.7,"n_samples":1,"unit":"mg/l","label":"Ammoniacal Nitrogen as N","status":"Bad","trend":"insufficient_data"},"bod":{"mean":254.0,"min":254.0,"max":254.0,"latest":254.0,"n_samples":1,"unit":"mg/l","label":"BOD 5 Day ATU","status":"Bad","trend":"insufficient_data"},"ss":{"mean":279.0,"min":279.0,"max":279.0,"latest":279.0,"n_samples":1,"unit":"mg/l","label":"Suspended Solids at 105C"}},"statuses":{"ammonia":"Bad","bod":"Bad"},"sample_count":3,"total_samples":3,"earliest_sample":"2017-06-09","latest_sample":"2017-06-09","overall_status":"Bad","worst_determinand":"ammonia"},{"id":"TH-80127A63","label":"WM1- OPERATOR REF FOR SPT ON LICENSED WASTE SITE AT REDLAND FAIRLOP QUARRY","lat":51.58994,"lon":0.10616,"type":"WASTE SITE - UNSPECIFIED","determinands":{"bod":{"mean":5.0,"min":5.0,"max":5.0,"latest":5.0,"n_samples":1,"unit":"mg/l","label":"BOD 5 Day ATU","status":"Good","trend":"insufficient_data"},"ph":{"mean":7.43,"min":7.43,"max":7.43,"latest":7.43,"n_samples":1,"unit":"pH","label":"pH","status":"High","trend":"insufficient_data"},"ss_alt":{"mean":496.0,"min":496.0,"max":496.0,"latest":496.0,"n_samples":1,"unit":"mg/l","label":"Suspended Solids (alt)"}},"statuses":{"bod":"Good","ph":"High"},"sample_count":3,"total_samples":3,"earliest_sample":"2000-10-24","latest_sample":"2000-10-24","overall_status":"Good","worst_determinand":"bod"},{"id":"AN-NE0585","label":"PYEFLEET CHANNEL OFF MAYDAYS MARSH","lat":51.80913,"lon":0.94897,"type":"SALINE WATER - ESTUARINE SITES - NON BATHING/SHELLFISH","determinands":{"do_percent":{"mean":93.3333,"min":90.9,"max":96.1,"latest":93.0,"n_samples":3,"unit":"%","label":"Dissolved Oxygen (% sat)","status":"High","trend":"insufficient_data"},"temperature":{"mean":4.2543,"min":2.73,"max":5.018,"latest":2.73,"n_samples":3,"unit":"\u00b0C","label":"Temperature"}},"statuses":{"do_percent":"High"},"sample_count":6,"total_samples":6,"earliest_sample":"2014-12-09","latest_sample":"2015-02-07","overall_status":"High","worst_determinand":"do_percent"},{"id":"TH-80405A09","label":"CL3 - OPERATOR REF FOR SPT ON LICENSED WASTE SITE AT TWIGDEN HOMES LTD","lat":51.67052,"lon":0.00165,"type":"WASTE SITE - UNSPECIFIED","determinands":{"bod":{"mean":3.0,"min":3.0,"max":3.0,"latest":3.0,"n_samples":1,"unit":"mg/l","label":"BOD 5 Day ATU","status":"High","trend":"insufficient_data"},"ph":{"mean":7.09,"min":7.09,"max":7.09,"latest":7.09,"n_samples":1,"unit":"pH","label":"pH","status":"High","trend":"insufficient_data"},"ss_alt":{"mean":6830.0,"min":6830.0,"max":6830.0,"latest":6830.0,"n_samples":1,"unit":"mg/l","label":"Suspended Solids (alt)"}},"statuses":{"bod":"High","ph":"High"},"sample_count":3,"total_samples":3,"earliest_sample":"2002-12-05","latest_sample":"2002-12-05","overall_status":"High","worst_determinand":"bod"},{"id":"TH-PTTR0101","label":"WFD FISH TRAC - THAMES AT WEST THURROCK","lat":51.47378,"lon":0.31356,"type":"SALINE WATER - ESTUARINE SITES - NON BATHING/SHELLFISH","determinands":{"do_percent":{"mean":85.6,"min":85.6,"max":85.6,"latest":85.6,"n_samples":4,"unit":"%","label":"Dissolved Oxygen (% sat)","status":"High","trend":"improving"},"temperature":{"mean":18.8,"min":18.8,"max":18.8,"latest":18.8,"n_samples":4,"unit":"\u00b0C","label":"Temperature"}},"statuses":{"do_percent":"High"},"sample_count":8,"total_samples":30,"earliest_sample":"2008-06-11","latest_sample":"2025-09-10","overall_status":"High","worst_determinand":"do_percent"},{"id":"SO-E0001062","label":"COLDHARBOUR SLUICE,KEMSLEY PAPER MILL,KENT","lat":51.37177,"lon":0.75997,"type":"WASTE SITE - DOMESTIC & INDUSTRIAL LANDFILL","determinands":{"ammonia":{"mean":0.043,"min":0.03,"max":0.056,"latest":0.03,"n_samples":2,"unit":"mg/l","label":"Ammoniacal Nitrogen as N","status":"High","trend":"insufficient_data"},"bod":{"mean":1.05,"min":1.0,"max":1.1,"latest":1.0,"n_samples":2,"unit":"mg/l","label":"BOD 5 Day ATU","status":"High","trend":"insufficient_data"},"do_percent":{"mean":84.75,"min":71.1,"max":98.4,"latest":98.4,"n_samples":2,"unit":"%","label":"Dissolved Oxygen (% sat)","status":"High","trend":"insufficient_data"},"nitrate":{"mean":2.34,"min":1.97,"max":2.71,"latest":2.71,"n_samples":2,"unit":"mg/l","label":"Nitrate as N"},"ph":{"mean":7.675,"min":7.65,"max":7.7,"latest":7.7,"n_samples":2,"unit":"pH","label":"pH","status":"High","trend":"insufficient_data"},"phosphate":{"mean":0.01,"min":0.01,"max":0.01,"latest":0.01,"n_samples":2,"unit":"mg/l","label":"Orthophosphate, reactive as P","status":"High","trend":"insufficient_data"},"ss_alt":{"mean":3105.0,"min":2770.0,"max":3440.0,"latest":2770.0,"n_samples":2,"unit":"mg/l","label":"Suspended Solids (alt)"},"temperature":{"mean":10.995,"min":10.3,"max":11.69,"latest":11.69,"n_samples":2,"unit":"\u00b0C","label":"Temperature"},"total_oxidised_n":{"mean":2.35,"min":1.98,"max":2.72,"latest":2.72,"n_samples":2,"unit":"mg/l","label":"Nitrogen, Total Oxidised as N"}},"statuses":{"ammonia":"High","bod":"High","do_percent":"High","ph":"High","phosphate":"High"},"sample_count":18,"total_samples":18,"earliest_sample":"2000-04-14","latest_sample":"2001-04-03","overall_status":"High","worst_determinand":"ammonia"},{"id":"TH-80464A25","label":"BH 5B- OPERATOR REF FOR SPT ON LICENSED WASTE SITE AT AVELEY 2","lat":51.504,"lon":0.2405,"type":"WASTE SITE - GAS & GROUNDWATER","determinands":{"bod":{"mean":3.0,"min":3.0,"max":3.0,"latest":3.0,"n_samples":1,"unit":"mg/l","label":"BOD 5 Day ATU","status":"High","trend":"insufficient_data"},"ph":{"mean":6.97,"min":6.97,"max":6.97,"latest":6.97,"n_samples":1,"unit":"pH","label":"pH","status":"High","trend":"insufficient_data"},"ss_alt":{"mean":2920.0,"min":2920.0,"max":2920.0,"latest":2920.0,"n_samples":1,"unit":"mg/l","label":"Suspended Solids (alt)"}},"statuses":{"bod":"High","ph":"High"},"sample_count":3,"total_samples":3,"earliest_sample":"2004-09-16","latest_sample":"2004-09-16","overall_status":"High","worst_determinand":"bod"},{"id":"SO-E0004866","label":"BILSINGTON PRIORY ESTATE, PRIORY ROAD, BILSINGTON, KENT","lat":51.08223,"lon":0.91828,"type":"SEWAGE DISCHARGES - FINAL/TREATED EFFLUENT - NOT WATER COMPANY","determinands":{"ammonia":{"mean":0.5,"min":0.5,"max":0.5,"latest":0.5,"n_samples":3,"unit":"mg/l","label":"Ammoniacal Nitrogen as N","status":"Good","trend":"insufficient_data"},"bod":{"mean":9.5667,"min":6.5,"max":13.5,"latest":13.5,"n_samples":3,"unit":"mg/l","label":"BOD 5 Day ATU","status":"Bad","trend":"insufficient_data"},"nitrate":{"mean":20.8667,"min":8.6,"max":40.6,"latest":8.6,"n_samples":3,"unit":"mg/l","label":"Nitrate as N"},"ph":{"mean":7.9833,"min":7.62,"max":8.27,"latest":8.27,"n_samples":3,"unit":"pH","label":"pH","status":"High","trend":"insufficient_data"},"phosphate":{"mean":5.2533,"min":1.57,"max":8.18,"latest":6.01,"n_samples":3,"unit":"mg/l","label":"Orthophosphate, reactive as P","status":"Bad","trend":"insufficient_data"},"ss":{"mean":27.8667,"min":21.2,"max":32.8,"latest":29.6,"n_samples":3,"unit":"mg/l","label":"Suspended Solids at 105C"},"temperature":{"mean":14.11,"min":6.75,"max":19.0,"latest":19.0,"n_samples":3,"unit":"\u00b0C","label":"Temperature"},"total_oxidised_n":{"mean":20.9667,"min":8.7,"max":40.7,"latest":8.7,"n_samples":3,"unit":"mg/l","label":"Nitrogen, Total Oxidised as N"}},"statuses":{"ammonia":"Good","bod":"Bad","ph":"High","phosphate":"Bad"},"sample_count":24,"total_samples":24,"earliest_sample":"2010-03-05","latest_sample":"2010-08-12","overall_status":"Bad","worst_determinand":"bod"},{"id":"AN-MD0115","label":"MAR DYKE ADJ TBM ABSTRACTION POINT","lat":51.48901,"lon":0.24815,"type":"FRESHWATER - RIVERS","determinands":{"ammonia":{"mean":6.64,"min":6.64,"max":6.64,"latest":6.64,"n_samples":1,"unit":"mg/l","label":"Ammoniacal Nitrogen as N","status":"Bad","trend":"insufficient_data"},"bod":{"mean":38.5,"min":38.5,"max":38.5,"latest":38.5,"n_samples":1,"unit":"mg/l","label":"BOD 5 Day ATU","status":"Bad","trend":"insufficient_data"},"do_percent":{"mean":51.0,"min":51.0,"max":51.0,"latest":51.0,"n_samples":1,"unit":"%","label":"Dissolved Oxygen (% sat)","status":"Poor","trend":"insufficient_data"},"ph":{"mean":7.6,"min":7.6,"max":7.6,"latest":7.6,"n_samples":1,"unit":"pH","label":"pH","status":"High","trend":"insufficient_data"},"phosphate":{"mean":1.87,"min":1.87,"max":1.87,"latest":1.87,"n_samples":1,"unit":"mg/l","label":"Orthophosphate, reactive as P","status":"Bad","trend":"insufficient_data"},"total_oxidised_n":{"mean":7.38,"min":7.38,"max":7.38,"latest":7.38,"n_samples":1,"unit":"mg/l","label":"Nitrogen, Total Oxidised as N"}},"statuses":{"ammonia":"Bad","bod":"Bad","do_percent":"Poor","ph":"High","phosphate":"Bad"},"sample_count":6,"total_samples":6,"earliest_sample":"2001-12-17","latest_sample":"2001-12-17","overall_status":"Bad","worst_determinand":"ammonia"},{"id":"AN-27073","label":"ESSEX C.C. HIGHWAYS DEPOT VEHICLE WASH","lat":51.98552,"lon":0.20914,"type":"TRADE DISCHARGES - PROCESS EFFLUENT - NOT WATER COMPANY","determinands":{"ammonia":{"mean":1.9375,"min":0.5,"max":6.05,"latest":0.5,"n_samples":4,"unit":"mg/l","label":"Ammoniacal Nitrogen as N","status":"Poor","trend":"insufficient_data"},"bod":{"mean":128.515,"min":3.46,"max":285.0,"latest":3.46,"n_samples":4,"unit":"mg/l","label":"BOD 5 Day ATU","status":"Bad","trend":"insufficient_data"},"ph":{"mean":7.8975,"min":7.29,"max":8.46,"latest":8.46,"n_samples":4,"unit":"pH","label":"pH","status":"High","trend":"insufficient_data"},"phosphate":{"mean":0.5,"min":0.5,"max":0.5,"latest":0.5,"n_samples":4,"unit":"mg/l","label":"Orthophosphate, reactive as P","status":"Poor","trend":"insufficient_data"},"ss":{"mean":160.525,"min":47.1,"max":373.0,"latest":103.0,"n_samples":4,"unit":"mg/l","label":"Suspended Solids at 105C"},"total_oxidised_n":{"mean":1.49,"min":1.0,"max":2.95,"latest":2.95,"n_samples":4,"unit":"mg/l","label":"Nitrogen, Total Oxidised as N"}},"statuses":{"ammonia":"Poor","bod":"Bad","ph":"High","phosphate":"Poor"},"sample_count":24,"total_samples":24,"earliest_sample":"2005-01-27","latest_sample":"2008-01-23","overall_status":"Bad","worst_determinand":"bod"},{"id":"SO-E0007216","label":"MERESBOROUGH FARM STW","lat":51.34635,"lon":0.61177,"type":"SEWAGE DISCHARGES - FINAL/TREATED EFFLUENT - NOT WATER COMPANY","determinands":{"ammonia":{"mean":4.319,"min":0.076,"max":8.5,"latest":0.076,"n_samples":4,"unit":"mg/l","label":"Ammoniacal Nitrogen as N","status":"Bad","trend":"improving"}},"statuses":{"ammonia":"Bad"},"sample_count":4,"total_samples":9,"earliest_sample":"2017-06-07","latest_sample":"2026-01-06","overall_status":"Bad","worst_determinand":"ammonia"},{"id":"AN-71116048","label":"BELLHOUSE LANDFILL SITE LEACHATE LMB1","lat":51.86966,"lon":0.8278,"type":"WASTE SITE - LEACHATE BOREHOLE","determinands":{"ammonia":{"mean":1040.0,"min":980.0,"max":1100.0,"latest":980.0,"n_samples":2,"unit":"mg/l","label":"Ammoniacal Nitrogen as N","status":"Bad","trend":"insufficient_data"},"ph":{"mean":7.55,"min":7.55,"max":7.55,"latest":7.55,"n_samples":1,"unit":"pH","label":"pH","status":"High","trend":"insufficient_data"},"temperature":{"mean":29.25,"min":29.25,"max":29.25,"latest":29.25,"n_samples":1,"unit":"\u00b0C","label":"Temperature"},"total_oxidised_n":{"mean":1.05,"min":1.0,"max":1.1,"latest":1.1,"n_samples":2,"unit":"mg/l","label":"Nitrogen, Total Oxidised as N"}},"statuses":{"ammonia":"Bad","ph":"High"},"sample_count":6,"total_samples":6,"earliest_sample":"2007-09-17","latest_sample":"2008-04-21","overall_status":"Bad","worst_determinand":"ammonia"},{"id":"SO-E0004870","label":"1-8 ST. MARGARETS VILLAS, COLLIER STREET, MARDEN, KENT","lat":51.18316,"lon":0.45549,"type":"SEWAGE DISCHARGES - FINAL/TREATED EFFLUENT - NOT WATER COMPANY","determinands":{"ammonia":{"mean":2.4,"min":2.4,"max":2.4,"latest":2.4,"n_samples":1,"unit":"mg/l","label":"Ammoniacal Nitrogen as N","status":"Poor","trend":"improving"},"bod":{"mean":9.7,"min":9.7,"max":9.7,"latest":9.7,"n_samples":1,"unit":"mg/l","label":"BOD 5 Day ATU","status":"Bad","trend":"improving"},"ss":{"mean":32.0,"min":32.0,"max":32.0,"latest":32.0,"n_samples":1,"unit":"mg/l","label":"Suspended Solids at 105C"}},"statuses":{"ammonia":"Poor","bod":"Bad"},"sample_count":3,"total_samples":22,"earliest_sample":"2010-09-30","latest_sample":"2022-01-11","overall_status":"Bad","worst_determinand":"bod"},{"id":"AN-BL031099","label":"HOLIDAY INN EXPRESS FOWLERS FM.CRESSING","lat":51.86535,"lon":0.58149,"type":"SEWAGE DISCHARGES - FINAL/TREATED EFFLUENT - NOT WATER COMPANY","determinands":{"ammonia":{"mean":55.0,"min":55.0,"max":55.0,"latest":55.0,"n_samples":1,"unit":"mg/l","label":"Ammoniacal Nitrogen as N","status":"Bad","trend":"insufficient_data"},"bod":{"mean":52.9,"min":52.9,"max":52.9,"latest":52.9,"n_samples":1,"unit":"mg/l","label":"BOD 5 Day ATU","status":"Bad","trend":"insufficient_data"},"ph":{"mean":7.9,"min":7.9,"max":7.9,"latest":7.9,"n_samples":1,"unit":"pH","label":"pH","status":"High","trend":"insufficient_data"},"ss":{"mean":143.0,"min":143.0,"max":143.0,"latest":143.0,"n_samples":1,"unit":"mg/l","label":"Suspended Solids at 105C"},"total_oxidised_n":{"mean":1.0,"min":1.0,"max":1.0,"latest":1.0,"n_samples":1,"unit":"mg/l","label":"Nitrogen, Total Oxidised as N"}},"statuses":{"ammonia":"Bad","bod":"Bad","ph":"High"},"sample_count":5,"total_samples":5,"earliest_sample":"2000-02-18","latest_sample":"2000-02-18","overall_status":"Bad","worst_determinand":"ammonia"},{"id":"TH-80464A27","label":"BH 6A- OPERATOR REF FOR SPT ON LICENSED WASTE SITE AT AVELEY 2","lat":51.50385,"lon":0.23901,"type":"WASTE SITE - GAS MULTILEVEL","determinands":{"bod":{"mean":3.0,"min":3.0,"max":3.0,"latest":3.0,"n_samples":1,"unit":"mg/l","label":"BOD 5 Day ATU","status":"High","trend":"insufficient_data"},"ph":{"mean":7.27,"min":7.27,"max":7.27,"latest":7.27,"n_samples":1,"unit":"pH","label":"pH","status":"High","trend":"insufficient_data"},"ss_alt":{"mean":3310.0,"min":3310.0,"max":3310.0,"latest":3310.0,"n_samples":1,"unit":"mg/l","label":"Suspended Solids (alt)"}},"statuses":{"bod":"High","ph":"High"},"sample_count":3,"total_samples":3,"earliest_sample":"2004-09-16","latest_sample":"2004-09-16","overall_status":"High","worst_determinand":"bod"},{"id":"TH-80127A61","label":"L9- OPERATOR REF FOR SPT ON LICENSED WASTE SITE AT REDLAND FAIRLOP QUARRY","lat":51.58994,"lon":0.10616,"type":"WASTE SITE - UNSPECIFIED","determinands":{"bod":{"mean":3.0,"min":3.0,"max":3.0,"latest":3.0,"n_samples":1,"unit":"mg/l","label":"BOD 5 Day ATU","status":"High","trend":"insufficient_data"},"ph":{"mean":5.9,"min":5.9,"max":5.9,"latest":5.9,"n_samples":1,"unit":"pH","label":"pH","status":"Poor","trend":"insufficient_data"},"ss_alt":{"mean":574.0,"min":574.0,"max":574.0,"latest":574.0,"n_samples":1,"unit":"mg/l","label":"Suspended Solids (alt)"}},"statuses":{"bod":"High","ph":"Poor"},"sample_count":3,"total_samples":3,"earliest_sample":"2000-10-24","latest_sample":"2000-10-24","overall_status":"Poor","worst_determinand":"ph"},{"id":"AN-71116049","label":"BELLHOUSE LANDFILL SITE LEACHATE LMB2","lat":51.8699,"lon":0.82532,"type":"WASTE SITE - LEACHATE BOREHOLE","determinands":{"ammonia":{"mean":1060.0,"min":320.0,"max":1800.0,"latest":320.0,"n_samples":2,"unit":"mg/l","label":"Ammoniacal Nitrogen as N","status":"Bad","trend":"insufficient_data"},"ph":{"mean":7.24,"min":7.24,"max":7.24,"latest":7.24,"n_samples":1,"unit":"pH","label":"pH","status":"High","trend":"insufficient_data"},"temperature":{"mean":32.77,"min":32.77,"max":32.77,"latest":32.77,"n_samples":1,"unit":"\u00b0C","label":"Temperature"},"total_oxidised_n":{"mean":1.4,"min":1.0,"max":1.8,"latest":1.8,"n_samples":2,"unit":"mg/l","label":"Nitrogen, Total Oxidised as N"}},"statuses":{"ammonia":"Bad","ph":"High"},"sample_count":6,"total_samples":6,"earliest_sample":"2007-09-17","latest_sample":"2008-04-21","overall_status":"Bad","worst_determinand":"ammonia"},{"id":"TH-80124A24","label":"BH 24- OPERATOR REF FOR SPT ON LICENSED WASTE SITE AT MARDYKE FARM","lat":51.53591,"lon":0.17604,"type":"WASTE SITE - GAS & GROUNDWATER","determinands":{"bod":{"mean":19.0,"min":19.0,"max":19.0,"latest":19.0,"n_samples":1,"unit":"mg/l","label":"BOD 5 Day ATU","status":"Bad","trend":"insufficient_data"},"ph":{"mean":7.05,"min":7.05,"max":7.05,"latest":7.05,"n_samples":1,"unit":"pH","label":"pH","status":"High","trend":"insufficient_data"},"ss_alt":{"mean":3140.0,"min":3140.0,"max":3140.0,"latest":3140.0,"n_samples":1,"unit":"mg/l","label":"Suspended Solids (alt)"}},"statuses":{"bod":"Bad","ph":"High"},"sample_count":3,"total_samples":3,"earliest_sample":"2004-08-23","latest_sample":"2004-08-23","overall_status":"Bad","worst_determinand":"bod"},{"id":"SO-E0007217","label":"HAWKHURST SOUTH UWWTR CRUDE INFLUENT","lat":51.03663,"lon":0.52203,"type":"SEWAGE - CRUDE TO FURTHER TREATMENT - WATER COMPANY","determinands":{"bod":{"mean":196.8583,"min":55.6,"max":351.0,"latest":55.6,"n_samples":12,"unit":"mg/l","label":"BOD 5 Day ATU","status":"Bad","trend":"improving"}},"statuses":{"bod":"Bad"},"sample_count":12,"total_samples":41,"earliest_sample":"2017-01-06","latest_sample":"2026-01-30","overall_status":"Bad","worst_determinand":"bod"},{"id":"TH-80466A06","label":"GW 11 /GM 38B- OPERATOR REF FOR SPT ON LICENSED WASTE SITE AT AMEY LECA PH.2","lat":51.6973,"lon":0.25716,"type":"WASTE SITE - GAS & GROUNDWATER","determinands":{"bod":{"mean":6.0,"min":6.0,"max":6.0,"latest":6.0,"n_samples":1,"unit":"mg/l","label":"BOD 5 Day ATU","status":"Moderate","trend":"insufficient_data"},"ph":{"mean":7.21,"min":7.21,"max":7.21,"latest":7.21,"n_samples":1,"unit":"pH","label":"pH","status":"High","trend":"insufficient_data"},"ss_alt":{"mean":1380.0,"min":1380.0,"max":1380.0,"latest":1380.0,"n_samples":1,"unit":"mg/l","label":"Suspended Solids (alt)"}},"statuses":{"bod":"Moderate","ph":"High"},"sample_count":3,"total_samples":3,"earliest_sample":"2002-08-07","latest_sample":"2002-08-07","overall_status":"Moderate","worst_determinand":"bod"},{"id":"TH-PTSE0046","label":"BICC O/F A :ERITH (CEASED 06/2003)","lat":51.49293,"lon":0.16435,"type":"TRADE DISCHARGES - PROCESS EFFLUENT - NOT WATER COMPANY","determinands":{"ammonia":{"mean":0.6,"min":0.6,"max":0.6,"latest":0.6,"n_samples":1,"unit":"mg/l","label":"Ammoniacal Nitrogen as N","status":"Good","trend":"insufficient_data"},"bod":{"mean":50.3,"min":50.3,"max":50.3,"latest":50.3,"n_samples":1,"unit":"mg/l","label":"BOD 5 Day ATU","status":"Bad","trend":"insufficient_data"},"phosphate":{"mean":0.5,"min":0.5,"max":0.5,"latest":0.5,"n_samples":1,"unit":"mg/l","label":"Orthophosphate, reactive as P","status":"Poor","trend":"insufficient_data"},"total_oxidised_n":{"mean":3.1,"min":3.1,"max":3.1,"latest":3.1,"n_samples":1,"unit":"mg/l","label":"Nitrogen, Total Oxidised as N"}},"statuses":{"ammonia":"Good","bod":"Bad","phosphate":"Poor"},"sample_count":4,"total_samples":4,"earliest_sample":"2002-03-01","latest_sample":"2002-03-01","overall_status":"Bad","worst_determinand":"bod"},{"id":"TH-80465A43","label":"LM 8- OPERATOR REF FOR SPT ON LICENSED WASTE SITE AT AMEY LECA PH.1","lat":51.69776,"lon":0.26261,"type":"WASTE SITE - LEACHATE SUMP","determinands":{"bod":{"mean":178.0,"min":178.0,"max":178.0,"latest":178.0,"n_samples":1,"unit":"mg/l","label":"BOD 5 Day ATU","status":"Bad","trend":"insufficient_data"},"ph":{"mean":7.95,"min":7.95,"max":7.95,"latest":7.95,"n_samples":1,"unit":"pH","label":"pH","status":"High","trend":"insufficient_data"},"ss_alt":{"mean":1740.0,"min":1740.0,"max":1740.0,"latest":1740.0,"n_samples":1,"unit":"mg/l","label":"Suspended Solids (alt)"}},"statuses":{"bod":"Bad","ph":"High"},"sample_count":3,"total_samples":3,"earliest_sample":"2000-11-21","latest_sample":"2000-11-21","overall_status":"Bad","worst_determinand":"bod"},{"id":"AN-71116050","label":"BELLHOUSE LANDFILL SITE LEACHATE LMB3","lat":51.87127,"lon":0.82386,"type":"WASTE SITE - LEACHATE BOREHOLE","determinands":{"ammonia":{"mean":1165.0,"min":730.0,"max":1600.0,"latest":730.0,"n_samples":2,"unit":"mg/l","label":"Ammoniacal Nitrogen as N","status":"Bad","trend":"insufficient_data"},"ph":{"mean":7.3,"min":7.3,"max":7.3,"latest":7.3,"n_samples":1,"unit":"pH","label":"pH","status":"High","trend":"insufficient_data"},"temperature":{"mean":26.16,"min":26.16,"max":26.16,"latest":26.16,"n_samples":1,"unit":"\u00b0C","label":"Temperature"},"total_oxidised_n":{"mean":1.0,"min":1.0,"max":1.0,"latest":1.0,"n_samples":2,"unit":"mg/l","label":"Nitrogen, Total Oxidised as N"}},"statuses":{"ammonia":"Bad","ph":"High"},"sample_count":6,"total_samples":6,"earliest_sample":"2007-09-12","latest_sample":"2008-04-21","overall_status":"Bad","worst_determinand":"ammonia"},{"id":"TH-80405A12","label":"LMP2/CL6A - OPERATOR REF FOR SPT ON LICENSED WASTE SITE AT TWIGDEN HOMES LTD","lat":51.67159,"lon":0.00081,"type":"WASTE SITE - UNSPECIFIED","determinands":{"bod":{"mean":42.0,"min":42.0,"max":42.0,"latest":42.0,"n_samples":1,"unit":"mg/l","label":"BOD 5 Day ATU","status":"Bad","trend":"insufficient_data"},"ph":{"mean":7.07,"min":7.07,"max":7.07,"latest":7.07,"n_samples":1,"unit":"pH","label":"pH","status":"High","trend":"insufficient_data"},"ss_alt":{"mean":642.0,"min":642.0,"max":642.0,"latest":642.0,"n_samples":1,"unit":"mg/l","label":"Suspended Solids (alt)"}},"statuses":{"bod":"Bad","ph":"High"},"sample_count":3,"total_samples":3,"earliest_sample":"2002-12-05","latest_sample":"2002-12-05","overall_status":"Bad","worst_determinand":"bod"},{"id":"AN-MT1220","label":"VIRLEY BK.HALL ROAD BRIDGE VIRLEY","lat":51.78837,"lon":0.82377,"type":"FRESHWATER - RIVERS","determinands":{"ammonia":{"mean":3.33,"min":3.33,"max":3.33,"latest":3.33,"n_samples":1,"unit":"mg/l","label":"Ammoniacal Nitrogen as N","status":"Bad","trend":"insufficient_data"},"bod":{"mean":4.2,"min":4.2,"max":4.2,"latest":4.2,"n_samples":1,"unit":"mg/l","label":"BOD 5 Day ATU","status":"Good","trend":"insufficient_data"},"do_percent":{"mean":98.0,"min":98.0,"max":98.0,"latest":98.0,"n_samples":1,"unit":"%","label":"Dissolved Oxygen (% sat)","status":"High","trend":"insufficient_data"},"phosphate":{"mean":1.98,"min":1.98,"max":1.98,"latest":1.98,"n_samples":1,"unit":"mg/l","label":"Orthophosphate, reactive as P","status":"Bad","trend":"insufficient_data"},"total_oxidised_n":{"mean":5.89,"min":5.89,"max":5.89,"latest":5.89,"n_samples":1,"unit":"mg/l","label":"Nitrogen, Total Oxidised as N"}},"statuses":{"ammonia":"Bad","bod":"Good","do_percent":"High","phosphate":"Bad"},"sample_count":5,"total_samples":5,"earliest_sample":"2008-03-30","latest_sample":"2008-03-30","overall_status":"Bad","worst_determinand":"ammonia"},{"id":"AN-WICKFORS","label":"WICKFORD STORM OVERFLOW","lat":51.6173,"lon":0.5526,"type":"SEWAGE DISCHARGES - STW STORM OVERFLOW/STORM TANK - WATER COMPANY","determinands":{"ammonia":{"mean":17.4,"min":17.4,"max":17.4,"latest":17.4,"n_samples":1,"unit":"mg/l","label":"Ammoniacal Nitrogen as N","status":"Bad","trend":"insufficient_data"},"bod":{"mean":74.7,"min":74.7,"max":74.7,"latest":74.7,"n_samples":1,"unit":"mg/l","label":"BOD 5 Day ATU","status":"Bad","trend":"insufficient_data"},"ss":{"mean":65.7,"min":65.7,"max":65.7,"latest":65.7,"n_samples":1,"unit":"mg/l","label":"Suspended Solids at 105C"}},"statuses":{"ammonia":"Bad","bod":"Bad"},"sample_count":3,"total_samples":3,"earliest_sample":"2007-02-21","latest_sample":"2007-02-21","overall_status":"Bad","worst_determinand":"ammonia"},{"id":"TH-80405A13","label":"LMP3/CL5 - OPERATOR REF FOR SPT ON LICENSED WASTE SITE AT TWIGDEN HOMES LTD","lat":51.67133,"lon":0.00018,"type":"WASTE SITE - UNSPECIFIED","determinands":{"bod":{"mean":7.0,"min":7.0,"max":7.0,"latest":7.0,"n_samples":1,"unit":"mg/l","label":"BOD 5 Day ATU","status":"Poor","trend":"insufficient_data"},"ph":{"mean":6.82,"min":6.82,"max":6.82,"latest":6.82,"n_samples":1,"unit":"pH","label":"pH","status":"High","trend":"insufficient_data"},"ss_alt":{"mean":2050.0,"min":2050.0,"max":2050.0,"latest":2050.0,"n_samples":1,"unit":"mg/l","label":"Suspended Solids (alt)"}},"statuses":{"bod":"Poor","ph":"High"},"sample_count":3,"total_samples":3,"earliest_sample":"2002-12-05","latest_sample":"2002-12-05","overall_status":"Poor","worst_determinand":"bod"},{"id":"TH-80127A79","label":"C - OPERATOR REF FOR SPT ON LICENSED WASTE SITE AT REDLAND FAIRLOP QUARRY","lat":51.58994,"lon":0.10616,"type":"WASTE SITE - UNSPECIFIED","determinands":{"bod":{"mean":4.0,"min":4.0,"max":4.0,"latest":4.0,"n_samples":1,"unit":"mg/l","label":"BOD 5 Day ATU","status":"High","trend":"insufficient_data"},"ph":{"mean":6.72,"min":6.72,"max":6.72,"latest":6.72,"n_samples":1,"unit":"pH","label":"pH","status":"High","trend":"insufficient_data"},"ss_alt":{"mean":1670.0,"min":1670.0,"max":1670.0,"latest":1670.0,"n_samples":1,"unit":"mg/l","label":"Suspended Solids (alt)"}},"statuses":{"bod":"High","ph":"High"},"sample_count":3,"total_samples":3,"earliest_sample":"2000-10-24","latest_sample":"2000-10-24","overall_status":"High","worst_determinand":"bod"},{"id":"AN-71116051","label":"BELLHOUSE LANDFILL SITE LEACHATE LMB4A","lat":51.87455,"lon":0.82404,"type":"WASTE SITE - LEACHATE BOREHOLE","determinands":{"ammonia":{"mean":1600.0,"min":1600.0,"max":1600.0,"latest":1600.0,"n_samples":1,"unit":"mg/l","label":"Ammoniacal Nitrogen as N","status":"Bad","trend":"insufficient_data"},"temperature":{"mean":26.73,"min":26.73,"max":26.73,"latest":26.73,"n_samples":1,"unit":"\u00b0C","label":"Temperature"},"total_oxidised_n":{"mean":1.0,"min":1.0,"max":1.0,"latest":1.0,"n_samples":1,"unit":"mg/l","label":"Nitrogen, Total Oxidised as N"}},"statuses":{"ammonia":"Bad"},"sample_count":3,"total_samples":3,"earliest_sample":"2007-09-12","latest_sample":"2007-09-12","overall_status":"Bad","worst_determinand":"ammonia"},{"id":"TH-80466A07","label":"GW 12 /GM 39B- OPERATOR REF FOR SPT ON LICENSED WASTE SITE AT AMEY LECA PH.2","lat":51.69803,"lon":0.25731,"type":"WASTE SITE - GAS & GROUNDWATER","determinands":{"bod":{"mean":6.0,"min":6.0,"max":6.0,"latest":6.0,"n_samples":1,"unit":"mg/l","label":"BOD 5 Day ATU","status":"Moderate","trend":"insufficient_data"},"ph":{"mean":7.25,"min":7.25,"max":7.25,"latest":7.25,"n_samples":1,"unit":"pH","label":"pH","status":"High","trend":"insufficient_data"},"ss_alt":{"mean":1440.0,"min":1440.0,"max":1440.0,"latest":1440.0,"n_samples":1,"unit":"mg/l","label":"Suspended Solids (alt)"}},"statuses":{"bod":"Moderate","ph":"High"},"sample_count":3,"total_samples":3,"earliest_sample":"2002-08-07","latest_sample":"2002-08-07","overall_status":"Moderate","worst_determinand":"bod"},{"id":"SO-E0007225","label":"EDEN HALL STP","lat":51.168,"lon":0.0871,"type":"SEWAGE DISCHARGES - FINAL/TREATED EFFLUENT - NOT WATER COMPANY","determinands":{"ammonia":{"mean":1.7954,"min":0.21,"max":7.5,"latest":0.34,"n_samples":13,"unit":"mg/l","label":"Ammoniacal Nitrogen as N","status":"Poor","trend":"declining"},"bod":{"mean":49.4923,"min":3.4,"max":300.0,"latest":6.6,"n_samples":13,"unit":"mg/l","label":"BOD 5 Day ATU","status":"Bad","trend":"declining"},"ss":{"mean":24.5231,"min":8.8,"max":63.0,"latest":15.0,"n_samples":13,"unit":"mg/l","label":"Suspended Solids at 105C"}},"statuses":{"ammonia":"Poor","bod":"Bad"},"sample_count":39,"total_samples":57,"earliest_sample":"2018-09-04","latest_sample":"2026-01-16","overall_status":"Bad","worst_determinand":"bod"},{"id":"TH-80465A40","label":"LM 5- OPERATOR REF FOR SPT ON LICENSED WASTE SITE AT AMEY LECA PH.1","lat":51.69598,"lon":0.26259,"type":"WASTE SITE - LEACHATE SUMP","determinands":{"bod":{"mean":54.0,"min":54.0,"max":54.0,"latest":54.0,"n_samples":1,"unit":"mg/l","label":"BOD 5 Day ATU","status":"Bad","trend":"insufficient_data"},"ph":{"mean":7.81,"min":7.81,"max":7.81,"latest":7.81,"n_samples":1,"unit":"pH","label":"pH","status":"High","trend":"insufficient_data"},"ss_alt":{"mean":11200.0,"min":11200.0,"max":11200.0,"latest":11200.0,"n_samples":1,"unit":"mg/l","label":"Suspended Solids (alt)"}},"statuses":{"bod":"Bad","ph":"High"},"sample_count":3,"total_samples":3,"earliest_sample":"2000-11-21","latest_sample":"2000-11-21","overall_status":"Bad","worst_determinand":"bod"},{"id":"TH-80405A11","label":"LMP1/CL5A - OPERATOR REF FOR SPT ON LICENSED WASTE SITE AT TWIGDEN HOMES LTD","lat":51.6716,"lon":0.00019,"type":"WASTE SITE - UNSPECIFIED","determinands":{"bod":{"mean":60.0,"min":60.0,"max":60.0,"latest":60.0,"n_samples":1,"unit":"mg/l","label":"BOD 5 Day ATU","status":"Bad","trend":"insufficient_data"},"ph":{"mean":7.0,"min":7.0,"max":7.0,"latest":7.0,"n_samples":1,"unit":"pH","label":"pH","status":"High","trend":"insufficient_data"},"ss_alt":{"mean":2300.0,"min":2300.0,"max":2300.0,"latest":2300.0,"n_samples":1,"unit":"mg/l","label":"Suspended Solids (alt)"}},"statuses":{"bod":"Bad","ph":"High"},"sample_count":3,"total_samples":3,"earliest_sample":"2002-12-05","latest_sample":"2002-12-05","overall_status":"Bad","worst_determinand":"bod"},{"id":"TH-PLEE0007","label":"LINCOLN HILL C/H STW :ANSTEY","lat":51.97296,"lon":0.03745,"type":"SEWAGE DISCHARGES - FINAL/TREATED EFFLUENT - NOT WATER COMPANY","determinands":{"ammonia":{"mean":5.2083,"min":2.06,"max":12.4,"latest":2.06,"n_samples":6,"unit":"mg/l","label":"Ammoniacal Nitrogen as N","status":"Bad","trend":"improving"},"bod":{"mean":17.1,"min":8.8,"max":32.9,"latest":16.2,"n_samples":6,"unit":"mg/l","label":"BOD 5 Day ATU","status":"Bad","trend":"declining"},"do_percent":{"mean":64.05,"min":60.1,"max":68.0,"latest":68.0,"n_samples":2,"unit":"%","label":"Dissolved Oxygen (% sat)","status":"Moderate","trend":"insufficient_data"},"ph":{"mean":7.85,"min":7.8,"max":7.9,"latest":7.8,"n_samples":2,"unit":"pH","label":"pH","status":"High","trend":"insufficient_data"},"phosphate":{"mean":1.915,"min":1.5,"max":2.33,"latest":2.33,"n_samples":2,"unit":"mg/l","label":"Orthophosphate, reactive as P","status":"Bad","trend":"insufficient_data"},"ss":{"mean":45.5833,"min":7.2,"max":106.0,"latest":106.0,"n_samples":6,"unit":"mg/l","label":"Suspended Solids at 105C"},"temperature":{"mean":10.5,"min":6.8,"max":16.2,"latest":9.8,"n_samples":4,"unit":"\u00b0C","label":"Temperature"},"total_oxidised_n":{"mean":7.6,"min":6.6,"max":8.6,"latest":8.6,"n_samples":2,"unit":"mg/l","label":"Nitrogen, Total Oxidised as N"}},"statuses":{"ammonia":"Bad","bod":"Bad","do_percent":"Moderate","ph":"High","phosphate":"Bad"},"sample_count":30,"total_samples":30,"earliest_sample":"2000-11-03","latest_sample":"2005-08-22","overall_status":"Bad","worst_determinand":"ammonia"},{"id":"TH-80464A01","label":"GW 1- OPERATOR REF FOR SPT ON LICENSED WASTE SITE AT AVELEY 2","lat":51.50385,"lon":0.23332,"type":"WASTE SITE - GAS & GROUNDWATER","determinands":{"bod":{"mean":2.95,"min":2.9,"max":3.0,"latest":2.9,"n_samples":2,"unit":"mg/l","label":"BOD 5 Day ATU","status":"High","trend":"insufficient_data"},"ph":{"mean":7.725,"min":7.6,"max":7.85,"latest":7.6,"n_samples":2,"unit":"pH","label":"pH","status":"High","trend":"insufficient_data"},"ss_alt":{"mean":829.0,"min":817.0,"max":841.0,"latest":817.0,"n_samples":2,"unit":"mg/l","label":"Suspended Solids (alt)"}},"statuses":{"bod":"High","ph":"High"},"sample_count":6,"total_samples":6,"earliest_sample":"2004-09-16","latest_sample":"2006-09-04","overall_status":"High","worst_determinand":"bod"},{"id":"TH-PGWU2242","label":"LAKESIDE COTTAGE B/H, HODDESDON","lat":51.77799,"lon":0.00191,"type":"GROUNDWATER - BOREHOLE","determinands":{"do_percent":{"mean":74.5,"min":74.5,"max":74.5,"latest":74.5,"n_samples":1,"unit":"%","label":"Dissolved Oxygen (% sat)","status":"Good","trend":"insufficient_data"},"ph":{"mean":7.71,"min":7.71,"max":7.71,"latest":7.71,"n_samples":1,"unit":"pH","label":"pH","status":"High","trend":"insufficient_data"},"ss_alt":{"mean":612.0,"min":612.0,"max":612.0,"latest":612.0,"n_samples":1,"unit":"mg/l","label":"Suspended Solids (alt)"},"temperature":{"mean":15.68,"min":15.68,"max":15.68,"latest":15.68,"n_samples":1,"unit":"\u00b0C","label":"Temperature"},"total_oxidised_n":{"mean":0.2,"min":0.2,"max":0.2,"latest":0.2,"n_samples":1,"unit":"mg/l","label":"Nitrogen, Total Oxidised as N"}},"statuses":{"do_percent":"Good","ph":"High"},"sample_count":5,"total_samples":5,"earliest_sample":"2003-10-01","latest_sample":"2003-10-01","overall_status":"Good","worst_determinand":"do_percent"},{"id":"SO-E0007191","label":"SWALE WFD WB SUBTIDAL BENTHIC GENERIC SITE","lat":51.35821,"lon":0.85684,"type":"SALINE WATER - ESTUARINE SITES - NON BATHING/SHELLFISH","determinands":{"ss":{"mean":51.7857,"min":15.0,"max":320.0,"latest":47.0,"n_samples":42,"unit":"mg/l","label":"Suspended Solids at 105C"}},"statuses":{},"sample_count":42,"total_samples":42,"earliest_sample":"2024-11-17","latest_sample":"2024-11-26","overall_status":"Unknown","worst_determinand":null},{"id":"TH-80405A10","label":"LCP/CL4 - OPERATOR REF FOR SPT ON LICENSED WASTE SITE AT TWIGDEN HOMES LTD","lat":51.67184,"lon":0.0001,"type":"WASTE SITE - UNSPECIFIED","determinands":{"bod":{"mean":20.0,"min":20.0,"max":20.0,"latest":20.0,"n_samples":1,"unit":"mg/l","label":"BOD 5 Day ATU","status":"Bad","trend":"insufficient_data"},"ph":{"mean":6.76,"min":6.76,"max":6.76,"latest":6.76,"n_samples":1,"unit":"pH","label":"pH","status":"High","trend":"insufficient_data"},"ss_alt":{"mean":1530.0,"min":1530.0,"max":1530.0,"latest":1530.0,"n_samples":1,"unit":"mg/l","label":"Suspended Solids (alt)"}},"statuses":{"bod":"Bad","ph":"High"},"sample_count":3,"total_samples":3,"earliest_sample":"2002-12-05","latest_sample":"2002-12-05","overall_status":"Bad","worst_determinand":"bod"},{"id":"TH-80465A41","label":"LM 6- OPERATOR REF FOR SPT ON LICENSED WASTE SITE AT AMEY LECA PH.1","lat":51.69752,"lon":0.26419,"type":"WASTE SITE - LEACHATE SUMP","determinands":{"bod":{"mean":168.0,"min":168.0,"max":168.0,"latest":168.0,"n_samples":1,"unit":"mg/l","label":"BOD 5 Day ATU","status":"Bad","trend":"insufficient_data"},"ph":{"mean":7.9,"min":7.9,"max":7.9,"latest":7.9,"n_samples":1,"unit":"pH","label":"pH","status":"High","trend":"insufficient_data"},"ss_alt":{"mean":16800.0,"min":16800.0,"max":16800.0,"latest":16800.0,"n_samples":1,"unit":"mg/l","label":"Suspended Solids (alt)"}},"statuses":{"bod":"Bad","ph":"High"},"sample_count":3,"total_samples":3,"earliest_sample":"2000-11-21","latest_sample":"2000-11-21","overall_status":"Bad","worst_determinand":"bod"},{"id":"AN-MD0521","label":"WARLEY LODGE HOSPITAL STP","lat":51.5918,"lon":0.30866,"type":"SEWAGE DISCHARGES - FINAL/TREATED EFFLUENT - NOT WATER COMPANY","determinands":{"ammonia":{"mean":3.6566,"min":0.5,"max":15.4,"latest":0.5,"n_samples":35,"unit":"mg/l","label":"Ammoniacal Nitrogen as N","status":"Bad","trend":"improving"},"bod":{"mean":30.9766,"min":2.9,"max":203.0,"latest":2.92,"n_samples":35,"unit":"mg/l","label":"BOD 5 Day ATU","status":"Bad","trend":"improving"},"phosphate":{"mean":9.18,"min":9.18,"max":9.18,"latest":9.18,"n_samples":1,"unit":"mg/l","label":"Orthophosphate, reactive as P","status":"Bad","trend":"insufficient_data"},"ss":{"mean":23.8363,"min":3.2,"max":64.0,"latest":9.67,"n_samples":35,"unit":"mg/l","label":"Suspended Solids at 105C"},"total_oxidised_n":{"mean":19.0,"min":19.0,"max":19.0,"latest":19.0,"n_samples":1,"unit":"mg/l","label":"Nitrogen, Total Oxidised as N"}},"statuses":{"ammonia":"Bad","bod":"Bad","phosphate":"Bad"},"sample_count":107,"total_samples":107,"earliest_sample":"2000-11-22","latest_sample":"2015-04-02","overall_status":"Bad","worst_determinand":"ammonia"},{"id":"SO-19540A15","label":"SHAWGRANGE LANDFILL SITE - LEACHATE WELL","lat":51.2199,"lon":0.77379,"type":"WASTE SITE - LEACHATE WELL","determinands":{"ammonia":{"mean":34.9,"min":33.6,"max":36.2,"latest":33.6,"n_samples":2,"unit":"mg/l","label":"Ammoniacal Nitrogen as N","status":"Bad","trend":"insufficient_data"},